gisco_id,lau_name,longitude,latitude
FR_01001,L'Abergement-Clémenciat,4.921499057005324,46.14860078927921
FR_01002,L'Abergement-de-Varey,5.428169699820965,46.0148328034845
FR_01004,Ambérieu-en-Bugey,5.349324496557742,45.958669790538906
FR_01005,Ambérieux-en-Dombes,4.907083891694691,45.995382732723606
FR_01006,Ambléon,5.604252631556232,45.74572932829621
FR_01007,Ambronay,5.361579998171543,46.00119487599853
FR_01008,Ambutrix,5.335606399265904,45.94326743552951
FR_01009,Andert-et-Condon,5.657834274741702,45.794388071627964
FR_01010,Anglefort,5.809556016379358,45.91441236031949
FR_01011,Apremont,5.662202495148792,46.20710400982487
FR_01012,Aranc,5.505978306313815,46.01156878813064
FR_01013,Arandas,5.482875915653609,45.89611675941973
FR_01014,Arbent,5.668916585305094,46.274093273021215
FR_01015,Arboys en Bugey,5.661867831236406,45.72286037821343
FR_01016,Arbigny,4.966554990820933,46.47099895849923
FR_01017,Argis,5.493412417636722,45.93594203327498
FR_01019,Armix,5.581442909847165,45.849492231610874
FR_01021,Ars-sur-Formans,4.819327310443939,45.994980511874516
FR_01022,Artemare,5.695055796930128,45.87267974405673
FR_01023,Asnières-sur-Saône,4.866491532310871,46.37592051362348
FR_01024,Attignat,5.161884017058459,46.28422899538963
FR_01025,Bâgé-Dommartin,4.936529831618212,46.31601697528961
FR_01026,Bâgé-le-Châtel,4.931856928993673,46.307794543741615
FR_01027,Balan,5.107113012798543,45.83811286641144
FR_01028,Baneins,4.900311391720977,46.10928313202889
FR_01029,Beaupont,5.251426602587392,46.428077324382684
FR_01030,Beauregard,4.762174526936862,45.99720084244298
FR_01031,Bellignat,5.634207815941767,46.25574070077094
FR_01032,Béligneux,5.125131350040471,45.85215775029144
FR_01033,Bellegarde-sur-Valserine,5.821059582655222,46.11263706218662
FR_01034,Belley,5.688479220243758,45.7560371427146
FR_01035,Belleydoux,5.777068239300973,46.253873821034595
FR_01036,Belmont-Luthézieu,5.67168094522991,45.87829032198724
FR_01037,Bénonces,5.477841793205109,45.82604796238461
FR_01038,Bény,5.280737607268645,46.32421546079035
FR_01039,Béon,5.764295355761322,45.851284515108546
FR_01040,Béréziat,5.040815524032347,46.36875281430505
FR_01041,Bettant,5.36344792616145,45.94512499011542
FR_01042,Bey,4.83818392072541,46.22081380108263
FR_01043,Beynost,4.996519916305402,45.83445173783327
FR_01044,Billiat,5.781777035686063,46.079970474224105
FR_01045,Birieux,5.043287084310862,45.952436830537195
FR_01046,Biziat,4.938634357981209,46.22016164087745
FR_01047,Blyes,5.244970546547856,45.847678156694776
FR_01049,La Boisse,5.041115997209842,45.84385791577562
FR_01050,Boissey,4.992863186915782,46.381576896199284
FR_01051,Bolozon,5.453098235337928,46.20889426222327
FR_01052,Bouligneux,5.0204691650145605,46.00834240335508
FR_01053,Bourg-en-Bresse,5.227499029884718,46.2041836341245
FR_01054,Bourg-Saint-Christophe,5.154577813956903,45.88653334456618
FR_01056,Boyeux-Saint-Jérôme,5.451918900510335,46.032589667892196
FR_01057,Boz,4.9145538303315925,46.40332874517834
FR_01058,Brégnier-Cordon,5.621148875496148,45.637491822745524
FR_01059,Brénaz,5.726901537876403,45.946453417446286
FR_01060,Brénod,5.6023326358209316,46.05828550014316
FR_01061,Brens,5.689225552947536,45.719831147373675
FR_01062,Bressolles,5.095740683554626,45.8714819473371
FR_01063,Brion,5.560830025709432,46.16887818250162
FR_01064,Briord,5.461668417508417,45.78426333709926
FR_01065,Buellas,5.14884716195241,46.199823839506564
FR_01066,La Burbanche,5.547747273063598,45.842823174813134
FR_01067,Ceignes,5.484625658368118,46.12261024325171
FR_01068,Cerdon,5.468345574390559,46.0802292861314
FR_01069,Certines,5.264930467078274,46.14488175382408
FR_01071,Cessy,6.064532841258893,46.324819818572735
FR_01072,Ceyzériat,5.321262257639282,46.18040644314272
FR_01073,Ceyzérieu,5.712033521432495,45.832858834698044
FR_01074,Chalamont,5.1686266158107355,45.994413052012234
FR_01075,Chaleins,4.778209931793006,46.02512833122774
FR_01076,Chaley,5.537157196282723,45.95593265682218
FR_01077,Challes-la-Montagne,5.4618289092848915,46.12615409706348
FR_01078,Challex,5.975121307835207,46.18074935566221
FR_01079,Champagne-en-Valromey,5.680108778727353,45.9094190792967
FR_01080,Champdor-Corcelles,5.590062598333291,46.01941290598687
FR_01081,Champfromier,5.812738450574792,46.19281139936947
FR_01082,Chanay,5.78701448010575,46.00312178192937
FR_01083,Chaneins,4.855546919510747,46.09348186620196
FR_01084,Chanoz-Châtenay,5.0323780414776635,46.186668614254394
FR_01085,La Chapelle-du-Châtelard,5.021735036259495,46.06788059465577
FR_01087,Charix,5.678747675723657,46.188739394002816
FR_01088,Charnoz-sur-Ain,5.226225883652255,45.86924533532512
FR_01089,Château-Gaillard,5.320110155340648,45.95995175962476
FR_01090,Châtenay,5.207116177395688,46.028994146341084
FR_01091,Châtillon-en-Michaille,5.810749787852575,46.12479670468065
FR_01092,Châtillon-la-Palud,5.253359237434837,45.974161763036804
FR_01093,Châtillon-sur-Chalaronne,4.960175398034908,46.11817079445669
FR_01094,Chavannes-sur-Reyssouze,4.989911706732996,46.43422527385939
FR_01095,Nivigne et Suran,5.428572002061987,46.27210074059284
FR_01096,Chaveyriat,5.051696912594478,46.1974316296159
FR_01097,Chavornay,5.712349126878554,45.87614963583716
FR_01098,Chazey-Bons,5.683179062775779,45.79759540312541
FR_01099,Chazey-sur-Ain,5.261897190592174,45.895203178832865
FR_01100,Cheignieu-la-Balme,5.607922794675336,45.82322408371695
FR_01101,Chevillard,5.581676017758002,46.11113964302706
FR_01102,Chevroux,4.955312480863113,46.382950532786786
FR_01103,Chevry,6.038177071081618,46.28283815429873
FR_01104,Chézery-Forens,5.853798257596259,46.2116361263397
FR_01105,Civrieux,4.882527458286639,45.920716858408824
FR_01106,Cize,5.444313200238587,46.20393565637475
FR_01107,Cleyzieu,5.4324733447038716,45.9080260808511
FR_01108,Coligny,5.342446558402076,46.38161046148688
FR_01109,Collonges,5.906321277301166,46.1415818218992
FR_01110,Colomieu,5.631179932131548,45.729926940756606
FR_01111,Conand,5.4734995905645984,45.889764185555094
FR_01112,Condamine,5.546801155873722,46.108474305992445
FR_01113,Condeissiat,5.077242301620397,46.158517378672435
FR_01114,Confort,5.81129910843388,46.14456516192435
FR_01115,Confrançon,5.058629745502262,46.26163244306737
FR_01116,Contrevoz,5.628792576606103,45.80397090552595
FR_01117,Conzieu,5.606828745211778,45.73276610246489
FR_01118,Corbonod,5.8271264053806,45.96163409719943
FR_01121,Corlier,5.501461547307671,46.02729424864066
FR_01122,Cormaranche-en-Bugey,5.610372549102849,45.955550539505744
FR_01123,Cormoranche-sur-Saône,4.840315031890508,46.24424981335267
FR_01124,Cormoz,5.230343103151073,46.44467149108598
FR_01125,Corveissiat,5.481568340563689,46.242102980140075
FR_01127,Courmangoux,5.369489570854985,46.32923076746672
FR_01128,Courtes,5.0912252468694135,46.459998789543235
FR_01129,Crans,5.195487150934513,45.954085884580344
FR_01130,Cras-sur-Reyssouze,5.168895921080614,46.31346751988774
FR_01133,Cressin-Rochefort,5.7663726340063715,45.782010331612284
FR_01134,Crottet,4.839698237961879,46.30052447681487
FR_01135,Crozet,6.017458665149339,46.2808557027937
FR_01136,Cruzilles-lès-Mépillat,4.8746480551006,46.22642662417828
FR_01138,Culoz,5.786262254771061,45.848928842021685
FR_01139,Curciat-Dongalon,5.163951082237997,46.47416637274414
FR_01140,Curtafond,5.121060790161853,46.26146450772613
FR_01141,Cuzieu,5.6741994048138285,45.8227377129576
FR_01142,Dagneux,5.062024382735146,45.85431809593731
FR_01143,Divonne-les-Bains,6.137067658824447,46.35544498005784
FR_01145,Dompierre-sur-Veyle,5.204299179371073,46.065570455147665
FR_01146,Dompierre-sur-Chalaronne,4.896786155021382,46.143178849649786
FR_01147,Domsure,5.2852644076619955,46.4210291207417
FR_01148,Dortan,5.655324313325121,46.31995631247393
FR_01149,Douvres,5.374364688883801,45.9903341860188
FR_01150,Drom,5.36429966958264,46.22128746169697
FR_01151,Druillat,5.32486680824757,46.055378040838896
FR_01152,Échallon,5.7407616408306215,46.220379251644395
FR_01153,Échenevex,6.055550753003328,46.31477828881737
FR_01154,Étrez,5.186094137251446,46.33504456473396
FR_01155,Évosges,5.496208713776123,45.94125762484905
FR_01156,Faramans,5.123702677018738,45.90230841284242
FR_01157,Fareins,4.759048744391195,46.013688130229525
FR_01158,Farges,5.9045089567666444,46.16706945316745
FR_01159,Feillens,4.8917793013928925,46.33585623836482
FR_01160,Ferney-Voltaire,6.111573951323152,46.25817283334384
FR_01162,Flaxieu,5.734914736541731,45.80478950191818
FR_01163,Foissiat,5.176186913940365,46.37249387577727
FR_01165,Francheleins,4.775682123688722,46.081621649247836
FR_01166,Frans,4.77130601013076,45.98705783098867
FR_01167,Garnerans,4.836330089207704,46.21318607530734
FR_01169,Genouilleux,4.784037512941571,46.11701902998112
FR_01170,Béard-Géovreissiat,5.5563504031600655,46.18157604529581
FR_01171,Géovreisset,5.6243402456565414,46.25859735638026
FR_01173,Gex,6.0629075237397165,46.32981920642034
FR_01174,Giron,5.770261157498456,46.22693073402914
FR_01175,Gorrevod,4.940990678812035,46.4224717926026
FR_01177,Grand-Corent,5.431258382716497,46.196046069416326
FR_01179,Grièges,4.833615062030706,46.29887478943061
FR_01180,Grilly,6.109432221701821,46.321165490623194
FR_01181,Groissiat,5.610494007513171,46.22072977855901
FR_01183,Guéreins,4.7731427274002245,46.103932795378356
FR_01184,Hautecourt-Romanèche,5.420633341482625,46.16340074628573
FR_01185,Hauteville-Lompnes,5.598410712061574,45.97868458058126
FR_01186,Hostiaz,5.535318198264953,45.90354171182323
FR_01187,Haut Valromey,5.689433124648859,46.00765180871977
FR_01188,Illiat,4.8774977157711374,46.19210877152016
FR_01189,Injoux-Génissiat,5.78513806470736,46.05371475078931
FR_01190,Innimond,5.572839916981278,45.7854357541736
FR_01191,Izenave,5.525837518095768,46.0366707746703
FR_01192,Izernore,5.55502791767574,46.21286638791885
FR_01193,Izieu,5.625446808270705,45.6449817702973
FR_01194,Jassans-Riottier,4.75989802411949,45.98472379397501
FR_01195,Jasseron,5.300557681739199,46.20506512547965
FR_01196,Jayat,5.120729635392737,46.36442919741548
FR_01197,Journans,5.3299935146693445,46.145806095476
FR_01198,Joyeux,5.091515298815639,45.959305782328265
FR_01199,Jujurieux,5.408258403725941,46.04023968682696
FR_01200,Labalme,5.4831397923432155,46.09069152209298
FR_01202,Lagnieu,5.343856256260575,45.9008182148809
FR_01203,Laiz,4.884167923383134,46.25735611795355
FR_01204,Le Poizat-Lalleyriat,5.698159396305355,46.14707942336528
FR_01205,Lancrans,5.822769099369944,46.12287765227683
FR_01206,Lantenay,5.544628304511919,46.06202183289889
FR_01207,Lapeyrouse,4.9764288591272745,45.98507120086386
FR_01208,Lavours,5.784463323004037,45.80445171307393
FR_01209,Léaz,5.879845780890845,46.09619080971382
FR_01210,Lélex,5.938582229821266,46.30091690348162
FR_01211,Lent,5.182568100747152,46.125206257965644
FR_01212,Lescheroux,5.133942516551571,46.4028816771242
FR_01213,Leyment,5.29123920909828,45.92621379547787
FR_01214,Leyssard,5.475658891639307,46.162924674006696
FR_01215,Lhôpital,5.773060838542666,46.02215570590602
FR_01216,Lhuis,5.541317375774257,45.738878219615216
FR_01218,Lochieu,5.729012968644522,45.92604541847171
FR_01219,Lompnas,5.519458922128914,45.80140941703855
FR_01221,Lompnieu,5.663207048546539,45.96353132842984
FR_01224,Loyettes,5.202787407363682,45.777712776119394
FR_01225,Lurcy,4.777000788222588,46.06821306482582
FR_01227,Magnieu,5.71101087178447,45.77088496980619
FR_01228,Maillat,5.5431194960050085,46.12287545726048
FR_01229,Malafretaz,5.129886297320459,46.33267782316738
FR_01230,Mantenay-Montlin,5.10328032502761,46.42541997345349
FR_01231,Manziat,4.908380709123283,46.36045092789375
FR_01232,Marboz,5.253200661871655,46.33997698484507
FR_01233,Marchamp,5.549672172552603,45.77739244316727
FR_01234,Marignieu,5.721944384418407,45.796385554497014
FR_01235,Marlieux,5.071052192703685,46.06159023758997
FR_01236,Marsonnas,5.07207029637188,46.34022481169257
FR_01237,Martignat,5.600801507745572,46.20615858431698
FR_01238,Massieux,4.825330360813751,45.91002570058507
FR_01239,Massignieu-de-Rives,5.763646803626211,45.758507757639954
FR_01240,Matafelon-Granges,5.5222599229346505,46.26137286936408
FR_01241,Meillonnas,5.342397235127943,46.23629913735516
FR_01242,Mérignat,5.435825196220922,46.06902851180222
FR_01243,Messimy-sur-Saône,4.759192830808935,46.04530690026192
FR_01244,Meximieux,5.1944481878705355,45.90985168790151
FR_01245,Bohas-Meyriat-Rignat,5.381425212040125,46.14673206330392
FR_01246,Mézériat,5.043339820808377,46.240484205136525
FR_01247,Mijoux,5.9773144496053625,46.34128136046824
FR_01248,Mionnay,4.926607644848442,45.89353603042042
FR_01249,Miribel,4.9556955353489816,45.82801918652405
FR_01250,Misérieux,4.806112982009747,45.97511596494604
FR_01252,Mogneneins,4.811732484292732,46.140432350719685
FR_01254,Montagnat,5.275504116475047,46.184704547127666
FR_01255,Montagnieu,5.456668759764463,45.800867340478185
FR_01257,Montanges,5.801625354939908,46.15253457202254
FR_01258,Montceaux,4.774913916017798,46.08923975917268
FR_01259,Montcet,5.10927277639536,46.21499528892623
FR_01260,Le Montellier,5.067933519659449,45.92580045263397
FR_01261,Monthieux,4.939128259540588,45.9562740765926
FR_01262,Montluel,5.055389037723657,45.85253219169792
FR_01263,Montmerle-sur-Saône,4.76303248309287,46.08543564909726
FR_01264,Montracol,5.123191162316252,46.198827328478195
FR_01265,Montréal-la-Cluse,5.575350741190843,46.175096838298536
FR_01266,Montrevel-en-Bresse,5.123830379551186,46.334968860783434
FR_01267,Nurieux-Volognat,5.52680901761641,46.18517432746441
FR_01268,Murs-et-Gélignieux,5.660288014564403,45.6435137201986
FR_01269,Nantua,5.596513872559471,46.15957055937493
FR_01272,Neuville-les-Dames,5.007389611083009,46.162380091497994
FR_01273,Neuville-sur-Ain,5.392015888080851,46.08696890344439
FR_01274,Les Neyrolles,5.628415427948002,46.140225608061485
FR_01275,Neyron,4.924405441812668,45.81866692966357
FR_01276,Niévroz,5.064729174566296,45.82088864728843
FR_01277,Nivollet-Montgriffon,5.452865573531437,45.99806726661656
FR_01279,Oncieu,5.467699032024358,45.961229956411024
FR_01280,Ordonnaz,5.540054928790231,45.836843743693244
FR_01281,Ornex,6.105773089576592,46.262113456290415
FR_01282,Outriaz,5.5481209209503115,46.06462276070828
FR_01283,Oyonnax,5.647365448823703,46.257452462013774
FR_01284,Ozan,4.913623587468389,46.39068450912035
FR_01285,Parcieux,4.826202550219727,45.91714658931056
FR_01286,Parves et Nattages,5.753702330149346,45.707288531111494
FR_01288,Péron,5.919417319845734,46.18309945816071
FR_01289,Péronnas,5.217454827902009,46.19104045865777
FR_01290,Pérouges,5.183964743031955,45.90193048488036
FR_01291,Perrex,4.974916407018998,46.24600377176088
FR_01293,Peyriat,5.5125820060234405,46.153010723580415
FR_01294,Peyrieu,5.677201149400207,45.68343949781455
FR_01295,Peyzieux-sur-Saône,4.810253326209772,46.133052952292196
FR_01296,Pirajoux,5.28690248653455,46.375402516725664
FR_01297,Pizay,5.091244586111191,45.882522030060926
FR_01298,Plagne,5.730097968115711,46.18079737145739
FR_01299,Le Plantay,5.088988056476011,46.02426819347262
FR_01301,Polliat,5.129965688033686,46.25034245225123
FR_01302,Pollieu,5.738227797657079,45.80007937249461
FR_01303,Poncin,5.403984212506459,46.08470627878616
FR_01304,Pont-d'Ain,5.343970106712447,46.0530362979144
FR_01305,Pont-de-Vaux,4.940282012203763,46.432233283751565
FR_01306,Pont-de-Veyle,4.885918968988196,46.261671863437236
FR_01307,Port,5.568383969314346,46.164441861373
FR_01308,Pougny,5.955253829250684,46.14257039275101
FR_01309,Pouillat,5.433034883828079,46.32068719349029
FR_01310,Prémeyzel,5.6614904882063755,45.68160519092081
FR_01311,Prémillieu,5.558801348040431,45.87295803646644
FR_01313,Prévessin-Moëns,6.092370853630397,46.25876549774983
FR_01314,Priay,5.291303582268533,46.01319181673994
FR_01317,Ramasse,5.339837411060666,46.18543542746443
FR_01318,Rancé,4.865874290176951,45.963779192047845
FR_01319,Relevant,4.945721309311367,46.09189556711962
FR_01320,Replonges,4.845555671253602,46.31172395259673
FR_01321,Revonnas,5.32602968283781,46.16818585477227
FR_01322,Reyrieux,4.7989676724039,45.93761083678368
FR_01323,Reyssouze,4.9309718856868905,46.431554217158386
FR_01325,Rignieux-le-Franc,5.1865648948989245,45.94162443505316
FR_01328,Romans,5.012437285952981,46.1218946829309
FR_01329,Rossillon,5.602771111989139,45.827425771212944
FR_01330,Ruffieu,5.660424848916048,45.99624728747989
FR_01331,Saint-Alban,5.451492123391565,46.08306565302953
FR_01332,Saint-André-de-Bâgé,4.926091949805799,46.30378099992256
FR_01333,Saint-André-de-Corcy,4.954820203202115,45.92591990369864
FR_01334,Saint-André-d'Huiriat,4.912378084874108,46.214890608303236
FR_01335,Saint-André-le-Bouchoux,5.079324931938781,46.11620422527889
FR_01336,Saint-André-sur-Vieux-Jonc,5.151096872553741,46.155409405046534
FR_01337,Saint-Bénigne,4.951750247055605,46.43716862089577
FR_01338,Groslée-Saint-Benoit,5.579884075606956,45.699334889952645
FR_01339,Saint-Bernard,4.7446144402247645,45.9473498430083
FR_01341,Saint-Champ,5.727332784106845,45.77832859386385
FR_01342,Sainte-Croix,5.049250583651349,45.89473186883464
FR_01343,Saint-Cyr-sur-Menthon,4.967549691315771,46.273067563914225
FR_01344,Saint-Denis-lès-Bourg,5.207736687066344,46.20710490814316
FR_01345,Saint-Denis-en-Bugey,5.335343653451909,45.95285119993214
FR_01346,Saint-Didier-d'Aussiat,5.057734759200585,46.306589436685165
FR_01347,Saint-Didier-de-Formans,4.770555486526031,45.95631861270145
FR_01348,Saint-Didier-sur-Chalaronne,4.807679998135036,46.176323175994064
FR_01349,Saint-Éloi,5.166429644599744,45.917037194969616
FR_01350,Saint-Étienne-du-Bois,5.296850109244429,46.28641161099215
FR_01351,Saint-Étienne-sur-Chalaronne,4.872408051675351,46.14677419734971
FR_01352,Saint-Étienne-sur-Reyssouze,5.000399118683567,46.406328691106204
FR_01353,Sainte-Euphémie,4.800284402216552,45.96822568089538
FR_01354,Saint-Genis-Pouilly,6.0273435464255165,46.247416387053605
FR_01355,Saint-Genis-sur-Menthon,5.01384550942552,46.282437519917
FR_01356,Saint-Georges-sur-Renon,5.028777933599366,46.105104478718346
FR_01357,Saint-Germain-de-Joux,5.734753357768642,46.180640901582095
FR_01358,Saint-Germain-les-Paroisses,5.6208560988738006,45.770706651911055
FR_01359,Saint-Germain-sur-Renon,5.053883558831202,46.070668283673164
FR_01360,Saint-Jean-de-Gonville,5.956205205742894,46.21745997386369
FR_01361,Saint-Jean-de-Niost,5.2198147287286245,45.84349867117466
FR_01362,Saint-Jean-de-Thurigneux,4.884023791660796,45.95615338634509
FR_01363,Saint-Jean-le-Vieux,5.390222047857806,46.031221990635984
FR_01364,Saint-Jean-sur-Reyssouze,5.069168880283731,46.39347298902669
FR_01365,Saint-Jean-sur-Veyle,4.905526113529794,46.26788299410554
FR_01366,Sainte-Julie,5.27908779945293,45.890537735489886
FR_01367,Saint-Julien-sur-Reyssouze,5.110799116643202,46.40059490529273
FR_01368,Saint-Julien-sur-Veyle,4.965726584475112,46.2075167778705
FR_01369,Saint-Just,5.276112239119467,46.19548219689736
FR_01370,Saint-Laurent-sur-Saône,4.8343978905379235,46.30008792522624
FR_01371,Saint-Marcel,4.986488293473964,45.949426632400716
FR_01372,Saint-Martin-de-Bavel,5.6669077325960044,45.84576031029729
FR_01373,Saint-Martin-du-Frêne,5.553744744443065,46.13559685620253
FR_01374,Saint-Martin-du-Mont,5.318122808280967,46.11378289201366
FR_01375,Saint-Martin-le-Châtel,5.145007447666259,46.28196548757134
FR_01376,Saint-Maurice-de-Beynost,4.980264386372757,45.83106398040397
FR_01378,Saint-Maurice-de-Gourdans,5.1861631603571405,45.81770041149912
FR_01379,Saint-Maurice-de-Rémens,5.270379045039729,45.95542272210607
FR_01380,Saint-Nizier-le-Bouchoux,5.1633260590528245,46.46472063804926
FR_01381,Saint-Nizier-le-Désert,5.149355732757456,46.05567836303771
FR_01382,Sainte-Olive,4.928230502213619,46.01638320498133
FR_01383,Saint-Paul-de-Varax,5.132282850101721,46.100019901239
FR_01384,Saint-Rambert-en-Bugey,5.43605549428378,45.945610223885275
FR_01385,Saint-Rémy,5.165043747110749,46.19348675679062
FR_01386,Saint-Sorlin-en-Bugey,5.351254228846692,45.8895462653326
FR_01387,Saint-Sulpice,5.04703997403474,46.313659748303394
FR_01388,Saint-Trivier-de-Courtes,5.076512838315442,46.45913132733947
FR_01389,Saint-Trivier-sur-Moignans,4.899282714450201,46.07468178295109
FR_01390,Saint-Vulbas,5.27467213371143,45.81737575099577
FR_01391,Salavre,5.342804548430933,46.362523804159146
FR_01392,Samognat,5.574970643738833,46.25377868889157
FR_01393,Sandrans,4.985336440045768,46.065927176823394
FR_01396,Sault-Brénaz,5.40952027457253,45.85791322684516
FR_01397,Sauverny,6.105950775902486,46.30716974992943
FR_01398,Savigneux,4.84062483757417,46.00445049056071
FR_01399,Ségny,6.0750745909895985,46.290202538865145
FR_01400,Seillonnaz,5.487993639258243,45.78575775059611
FR_01401,Sergy,6.021339178674982,46.250114362544174
FR_01402,Sermoyer,4.973555773100398,46.501047365643274
FR_01403,Serrières-de-Briord,5.445531925771025,45.80815801672094
FR_01404,Serrières-sur-Ain,5.440451710114994,46.13769060580979
FR_01405,Servas,5.169492012085642,46.1298839864833
FR_01406,Servignat,5.0590237729910426,46.432850989058785
FR_01407,Seyssel,5.8294323582674314,45.95820566551499
FR_01408,Simandre-sur-Suran,5.420120232224156,46.22936010925274
FR_01410,Sonthonnax-la-Montagne,5.509671329311926,46.2225421224612
FR_01411,Souclin,5.422792626502108,45.86948429741122
FR_01412,Sulignat,4.959117829451329,46.17696335355291
FR_01413,Surjoux,5.80378503727646,46.043452996835775
FR_01414,Sutrieu,5.6596791541777325,45.94025425154573
FR_01415,Talissieu,5.711230513517937,45.87055867691722
FR_01416,Tenay,5.5091776164529955,45.92167094417737
FR_01417,Thézillieu,5.598490043027318,45.897522001305354
FR_01418,Thil,5.022484141585313,45.816601368453526
FR_01419,Thoiry,5.984075039287786,46.239614923659914
FR_01420,Thoissey,4.796651918190408,46.17079094788652
FR_01421,Torcieu,5.401064544824086,45.9260875150041
FR_01422,Tossiat,5.313354585534648,46.141275309877
FR_01423,Toussieux,4.817695524254601,45.96130570670449
FR_01424,Tramoyes,4.967172904128312,45.874991012456604
FR_01425,La Tranclière,5.271286358291661,46.10537245534302
FR_01426,Val-Revermont,5.367766507521807,46.283364508252255
FR_01427,Trévoux,4.778406987735512,45.94111866021269
FR_01428,Valeins,4.866307836568036,46.11243315732422
FR_01429,Vandeins,5.082304114165635,46.215643279765814
FR_01430,Varambon,5.2995184076130935,46.0313881881151
FR_01431,Vaux-en-Bugey,5.3572522134550375,45.93087624628636
FR_01432,Verjon,5.346775632508606,46.35115370752338
FR_01433,Vernoux,5.10950816595969,46.47830522362985
FR_01434,Versailleux,5.1046401863238,45.98199765869521
FR_01435,Versonnex,6.098070661977373,46.30246230631459
FR_01436,Vesancy,6.078680115564602,46.34106048721773
FR_01437,Vescours,5.0216355748535575,46.469705782427
FR_01439,Vésines,4.862862794116309,46.367029974215534
FR_01441,Vieu-d'Izenave,5.540187230470904,46.08856441479895
FR_01442,Vieu,5.698310346251411,45.87628349386347
FR_01443,Villars-les-Dombes,5.033043769555152,46.00244268734322
FR_01444,Villebois,5.430765328248632,45.84843089960646
FR_01445,Villemotier,5.321122976120958,46.34603326017531
FR_01446,Villeneuve,4.834349164105979,46.02258114562761
FR_01447,Villereversure,5.395541510910711,46.19089277777436
FR_01448,Villes,5.783465416232023,46.09079939645556
FR_01449,Villette-sur-Ain,5.268461120010491,45.9883985540291
FR_01450,Villieu-Loyes-Mollon,5.226037657619347,45.9222151134067
FR_01451,Viriat,5.2146834348882605,46.2274613163528
FR_01452,Virieu-le-Grand,5.649704700793246,45.85043043306725
FR_01453,Virieu-le-Petit,5.724634382786147,45.90910675909068
FR_01454,Virignin,5.702308103693879,45.72160606351278
FR_01456,Vongnes,5.726611086036282,45.811349308827424
FR_01457,Vonnas,4.991268316715466,46.22234926216841
FR_02001,Abbécourt,3.1903098520565014,49.59341259427988
FR_02002,Achery,3.386743467862281,49.69201008521801
FR_02003,Acy,3.408223005754558,49.36013194721582
FR_02004,Agnicourt-et-Séchelles,3.9692097518690113,49.71355462383438
FR_02005,Aguilcourt,3.9654930021917925,49.406598750195506
FR_02006,Aisonville-et-Bernoville,3.5175034521653266,49.93458669629871
FR_02007,Aizelles,3.817106540507367,49.485998636090045
FR_02008,Aizy-Jouy,3.5140303613862547,49.43576567790049
FR_02009,Alaincourt,3.367325574699026,49.75516481660302
FR_02010,Allemant,3.453358570336721,49.45872741534233
FR_02011,Ambleny,3.178993079779689,49.38091483365088
FR_02012,Ambrief,3.3965394336353234,49.32076638852792
FR_02013,Amifontaine,3.9138710043920852,49.48514783381139
FR_02014,Amigny-Rouy,3.2989904196794506,49.61042096879363
FR_02015,Ancienville,3.216279206481407,49.21852630152182
FR_02016,Andelain,3.3734644683745723,49.6431808882397
FR_02017,Anguilcourt-le-Sart,3.434259989114294,49.691001361799
FR_02018,Anizy-le-Château,3.447787792159846,49.50611482458817
FR_02019,Annois,3.182109494344552,49.71700519962342
FR_02020,Any-Martin-Rieux,4.221707256334433,49.87911482993886
FR_02021,Archon,4.121019484800068,49.74294977174202
FR_02022,Arcy-Sainte-Restitue,3.4647029666700786,49.251860436096976
FR_02023,Armentières-sur-Ourcq,3.4111370539186368,49.1587690894344
FR_02024,Arrancy,3.7647999682595725,49.491005128341996
FR_02025,Artemps,3.1893999248506106,49.760929897141345
FR_02027,Assis-sur-Serre,3.5502860066773487,49.69313540198795
FR_02028,Athies-sous-Laon,3.666104668185673,49.57173163255957
FR_02029,Attilly,3.156542009910065,49.869555216446265
FR_02030,Aubencheul-aux-Bois,3.270226003419653,50.025996021254564
FR_02031,Aubenton,4.203838311184811,49.83379780867696
FR_02032,Aubigny-aux-Kaisnes,3.1178641973703463,49.77328312783559
FR_02033,Aubigny-en-Laonnois,3.786350411715986,49.4950682298937
FR_02034,Audignicourt,3.134994396568948,49.47667984903391
FR_02035,Audigny,3.643256334970572,49.86717371373915
FR_02036,Augy,3.5152135875579016,49.33739381394058
FR_02037,Aulnois-sous-Laon,3.611842802587798,49.61411529948286
FR_02038,Les Autels,4.230284470717699,49.76554040109574
FR_02039,Autremencourt,3.7888704984513364,49.70380777176327
FR_02040,Autreppes,3.859691974309165,49.90576843078858
FR_02041,Autreville,3.2396151653904877,49.59026979405128
FR_02042,Azy-sur-Marne,3.363330003192356,49.00505842409922
FR_02043,Bagneux,3.280517760613152,49.458015996802324
FR_02044,Bancigny,4.0310857727341665,49.804806973589486
FR_02046,Barenton-Bugny,3.642063895123481,49.62505178952915
FR_02047,Barenton-Cel,3.654893789463261,49.64425089555053
FR_02048,Barenton-sur-Serre,3.68802758250836,49.6755521686125
FR_02049,Barisis-aux-Bois,3.326735475372993,49.57817015566162
FR_02050,Barzy-en-Thiérache,3.747384419259979,50.04375752155172
FR_02051,Barzy-sur-Marne,3.5424019213686453,49.08792631273065
FR_02052,Bassoles-Aulers,3.4018534339265805,49.53679016106811
FR_02053,Vallées en Champagne,3.614292810533637,49.0013731865754
FR_02054,Bazoches-sur-Vesles,3.6168557111552246,49.30754095445414
FR_02055,Beaumé,4.146750688473794,49.82941478122123
FR_02056,Beaumont-en-Beine,3.142479829136239,49.696809947941084
FR_02057,Beaurevoir,3.311162526970095,49.996584277771284
FR_02058,Beaurieux,3.7359201842203356,49.38736071358971
FR_02059,Beautor,3.335112574123973,49.65822271479503
FR_02060,Beauvois-en-Vermandois,3.1012374040542476,49.83796410233761
FR_02061,Becquigny,3.4675726181657995,50.01819052619093
FR_02062,Belleau,3.2920472879639338,49.092864730906584
FR_02063,Bellenglise,3.2437670404357886,49.92155599355198
FR_02064,Belleu,3.3329302663772795,49.36541231814683
FR_02065,Bellicourt,3.237498755669497,49.96071362006839
FR_02066,Benay,3.307990317203284,49.7568027980682
FR_02067,Bergues-sur-Sambre,3.704820260783553,50.031621757962654
FR_02068,Berlancourt,3.748667941919962,49.78168947116461
FR_02069,Berlise,4.1222729657480865,49.65870367364181
FR_02070,Bernot,3.5012375972496823,49.867864738817495
FR_02071,Berny-Rivière,3.1274711547486116,49.4038112524034
FR_02072,Berrieux,3.843495367036829,49.49045179737203
FR_02073,Berry-au-Bac,3.900448236979553,49.40302023244333
FR_02074,Bertaucourt-Epourdon,3.3939204205832016,49.63037929915891
FR_02075,Berthenicourt,3.379618192592648,49.77293357644509
FR_02076,Bertricourt,4.017078334305817,49.38674682078285
FR_02077,Berzy-le-Sec,3.3107306323834624,49.329612563524165
FR_02078,Besmé,3.1568941090999156,49.52561039469569
FR_02079,Besmont,4.119613546231927,49.829257458511904
FR_02080,Besny-et-Loizy,3.5830878735472926,49.5993245888274
FR_02081,Béthancourt-en-Vaux,3.1438126535900173,49.628871486874615
FR_02082,Beugneux,3.4086228483816874,49.227697394056
FR_02083,Beuvardes,3.487744947785304,49.1361284482283
FR_02084,Bézu-le-Guéry,3.2095599049381947,49.01657313579224
FR_02085,Bézu-Saint-Germain,3.4081953212175518,49.100443851496586
FR_02086,Bichancourt,3.21173345121576,49.58458226403285
FR_02087,Bieuxy,3.2739645682243643,49.45327722022599
FR_02088,Bièvres,3.7101534959244487,49.49233232946816
FR_02089,Billy-sur-Aisne,3.3739212304647848,49.363547926483534
FR_02090,Billy-sur-Ourcq,3.299526432901459,49.21561298787965
FR_02091,Blanzy-lès-Fismes,3.668600690006336,49.33804923335742
FR_02093,Blérancourt,3.1524406714056803,49.51721015904741
FR_02094,Blesmes,3.4410166904183463,49.03844981728077
FR_02095,Bohain-en-Vermandois,3.456238760423614,49.9838427926663
FR_02096,Bois-lès-Pargny,3.645948974879197,49.73159834720415
FR_02097,Boncourt,3.948283026339697,49.61296979969493
FR_02098,Bonneil,3.347501184396708,49.00918308711229
FR_02099,Bonnesvalyn,3.3165822279729467,49.11993709053201
FR_02100,Bony,3.2408245628127554,49.995918224210655
FR_02101,Bosmont-sur-Serre,3.8492173936392797,49.72800045376979
FR_02102,Bouconville-Vauclair,3.76598015228903,49.46178447829491
FR_02103,Boué,3.692724196365093,50.00890488576975
FR_02104,Bouffignereux,3.8449128233518723,49.37314554977279
FR_02105,Bouresches,3.3078970803501697,49.06339951986621
FR_02106,Bourg-et-Comin,3.6533227826921344,49.39849700727209
FR_02107,Bourguignon-sous-Coucy,3.1577818386117578,49.540298977357345
FR_02108,Bourguignon-sous-Montbavin,3.540718986200294,49.532292652485665
FR_02109,La Bouteille,3.9748463504243148,49.86295056804157
FR_02110,Braine,3.5318684652760215,49.34320593814548
FR_02111,Brancourt-en-Laonnois,3.4161041369399547,49.512623473439575
FR_02112,Brancourt-le-Grand,3.386001325607419,49.978253847250166
FR_02114,Brasles,3.410574476328826,49.044738898198844
FR_02115,Braye-en-Laonnois,3.611720723824846,49.44113818633622
FR_02116,Braye-en-Thiérache,3.9604284821853457,49.77581319228442
FR_02117,Bray-Saint-Christophe,3.131783496155046,49.770350012835195
FR_02118,Braye,3.3722012739957004,49.42450680038402
FR_02119,Brécy,3.4162888684589343,49.156303710999595
FR_02120,Brenelle,3.5418299607693506,49.365136131038625
FR_02121,Breny,3.354812644996286,49.18438734579337
FR_02122,Brie,3.4804104468845485,49.609062013622136
FR_02123,Brissay-Choigny,3.383087030121358,49.71851220237757
FR_02124,Brissy-Hamégicourt,3.3707564482358667,49.75064777580801
FR_02125,Brumetz,3.1615476501683637,49.100991694431166
FR_02126,Brunehamel,4.184361248986631,49.76989775563079
FR_02127,Bruyères-sur-Fère,3.4412832341137842,49.19020883781698
FR_02128,Bruyères-et-Montbérault,3.6646778803776634,49.52437385694347
FR_02129,Bruys,3.5647989496920234,49.243372551568186
FR_02130,Bucilly,4.091117009637663,49.861958233787774
FR_02131,Bucy-le-Long,3.3716075456355767,49.387882134403405
FR_02132,Bucy-lès-Cerny,3.515206433311203,49.580159756371664
FR_02133,Bucy-lès-Pierrepont,3.904357918831957,49.64693899575083
FR_02134,Buire,4.0678203966918804,49.908617612073016
FR_02135,Buironfosse,3.837580630798374,49.96578156841138
FR_02136,Burelles,3.897790564354136,49.78409025441879
FR_02137,Bussiares,3.256424258588883,49.086293122177494
FR_02138,Buzancy,3.341180414469879,49.314286388934825
FR_02139,Caillouël-Crépigny,3.129537623597421,49.61919862423942
FR_02140,Camelin,3.1437523996221373,49.51625250955704
FR_02141,La Capelle,3.920238754275057,49.97945609378968
FR_02142,Castres,3.2473459999363787,49.81321170855974
FR_02143,Le Catelet,3.245723018226183,50.00187996851789
FR_02144,Caulaincourt,3.1041843122287776,49.86811816875498
FR_02145,Caumont,3.1686406968520537,49.63689916413132
FR_02146,Celles-lès-Condé,3.564882317092076,49.008338994116365
FR_02148,Celles-sur-Aisne,3.4809515337120307,49.40669299727853
FR_02149,Cerizy,3.331035571953068,49.76012913776914
FR_02150,Cerny-en-Laonnois,3.683507684244985,49.455240648847216
FR_02151,Cerny-lès-Bucy,3.545517995365011,49.58081561423236
FR_02152,Cerseuil,3.5254080447947733,49.33263098403755
FR_02153,Cessières,3.5009348056047647,49.56041323143993
FR_02154,Chacrise,3.402230620564557,49.299512254444195
FR_02155,Chaillevois,3.5307016330332437,49.505249367750196
FR_02156,Chalandry,3.639189273638467,49.677422267568424
FR_02157,Chambry,3.6594952791628614,49.586113027034486
FR_02158,Chamouille,3.6662302992318034,49.47146339396349
FR_02159,Champs,3.2768793337348123,49.53599579274557
FR_02160,Chaourse,4.009923272196097,49.69842914955093
FR_02162,La Chapelle-sur-Chézy,3.3774488836222356,48.94851766737353
FR_02163,Charly-sur-Marne,3.281737682942605,48.977629270609185
FR_02164,Le Charmel,3.5425714654044684,49.104649724676065
FR_02165,Charmes,3.3791911656655884,49.65772600647827
FR_02166,Chartèves,3.5124735185508564,49.0795827615194
FR_02167,Chassemy,3.5060945383017983,49.38529984725705
FR_02168,Château-Thierry,3.3950448965571005,49.04831523088783
FR_02169,Châtillon-lès-Sons,3.6774699354082214,49.75629318345759
FR_02170,Châtillon-sur-Oise,3.4221976381132486,49.796373587785276
FR_02171,Chaudardes,3.78495280112579,49.38296936205933
FR_02172,Chaudun,3.2667914771339035,49.318119466080304
FR_02173,Chauny,3.214297780948669,49.618499659216745
FR_02174,Chavignon,3.523777998594846,49.481828728593264
FR_02175,Chavigny,3.296397946026843,49.41846406375209
FR_02176,Chavonne,3.5661515579460668,49.40276727940284
FR_02177,Chérêt,3.682456508358751,49.51563279559275
FR_02178,Chermizy-Ailles,3.7242828254779963,49.465706206508365
FR_02179,Chéry-Chartreuve,3.609780431343088,49.259730017217535
FR_02180,Chéry-lès-Pouilly,3.602867078337194,49.65730718582565
FR_02181,Chéry-lès-Rozoy,4.102893052323419,49.7275756349313
FR_02182,Chevennes,3.7344613092513934,49.818589705649195
FR_02183,Chevregny,3.5966890839402432,49.473103317479875
FR_02184,Chevresis-Monceau,3.5856678028358884,49.75830614907988
FR_02185,Chézy-en-Orxois,3.18032940785154,49.12598414151774
FR_02186,Chézy-sur-Marne,3.377054716765631,48.99292909333687
FR_02187,Chierry,3.4251637414827227,49.03552062295381
FR_02188,Chigny,3.7758215339986463,49.92676494146546
FR_02189,Chivres-en-Laonnois,3.8395741161387096,49.634394403666846
FR_02190,Chivres-Val,3.435323342981463,49.39045653207417
FR_02191,Chivy-lès-Étouvelles,3.578350286158271,49.5320125412113
FR_02192,Chouy,3.2439354509154184,49.20705310029991
FR_02193,Cierges,3.595046377259913,49.16978122628197
FR_02194,Cilly,3.834107061803402,49.739998769354365
FR_02195,Ciry-Salsogne,3.463328411330325,49.382895181248735
FR_02196,Clacy-et-Thierret,3.5702470254315464,49.54732393505857
FR_02197,Clairfontaine,3.9786852246763877,49.97149047199529
FR_02198,Clamecy,3.367419926814795,49.42699928634141
FR_02199,Clastres,3.247841701245287,49.740356449873225
FR_02200,Clermont-les-Fermes,3.9353337226377496,49.6666069403209
FR_02201,Cœuvres-et-Valsery,3.1576754926478623,49.342028296625124
FR_02203,Coincy,3.419835086652027,49.15992263204415
FR_02204,Coingt,4.089454157486754,49.79385654630648
FR_02205,Colligis-Crandelain,3.6350943374358464,49.47434255511291
FR_02206,Colonfay,3.7125980639402254,49.86131712071342
FR_02207,Commenchon,3.165454447979982,49.63993287839031
FR_02208,Concevreux,3.80799806979598,49.37948001072973
FR_02209,Condé-en-Brie,3.5605772720296835,49.00491653981337
FR_02210,Condé-sur-Aisne,3.471606996639729,49.3994615096706
FR_02211,Condé-sur-Suippe,3.95668467583314,49.42917907159284
FR_02212,Condren,3.2764314251579627,49.652970063752726
FR_02213,Connigis,3.5295904571918264,49.03950592036782
FR_02214,Contescourt,3.2315487252966553,49.80330055930581
FR_02215,Corbeny,3.8205396355993697,49.46217980979663
FR_02216,Corcy,3.21138869767317,49.255401468054266
FR_02217,Coucy-le-Château-Auffrique,3.3182578900519344,49.51985360994046
FR_02218,Coucy-lès-Eppes,3.76805519636313,49.55170516306074
FR_02219,Coucy-la-Ville,3.332308628547634,49.5331727936123
FR_02220,Coulonges-Cohan,3.6330372939507134,49.200581050008495
FR_02221,Coupru,3.2854855724804053,49.02678035711889
FR_02222,Courbes,3.4565149885781343,49.69043484654906
FR_02223,Courboin,3.5334677495556828,48.99925891915548
FR_02224,Courcelles-sur-Vesle,3.573446837976965,49.34013597886271
FR_02225,Courchamps,3.2593490741981834,49.11370767640777
FR_02226,Courmelles,3.320048854538102,49.35446767133933
FR_02227,Courmont,3.5827429919568248,49.14366953877267
FR_02228,Courtemont-Varennes,3.5365525215983817,49.07658931885496
FR_02229,Courtrizy-et-Fussigny,3.7862674214312784,49.52057667936855
FR_02230,Couvrelles,3.490020935889451,49.33657419807872
FR_02231,Couvron-et-Aumencourt,3.5185387472319327,49.643468202681255
FR_02232,Coyolles,3.045683850700472,49.23602015902618
FR_02233,Cramaille,3.4466398975100527,49.23330041174173
FR_02234,Craonne,3.7822842425814924,49.44157058654804
FR_02235,Craonnelle,3.7710130101780592,49.43416380082746
FR_02236,Crécy-au-Mont,3.312980314650356,49.491979341649014
FR_02237,Crécy-sur-Serre,3.623090250228644,49.69466717312133
FR_02238,Crépy,3.5084580832959142,49.606724690298755
FR_02239,Crézancy,3.5158031034481523,49.04870732880769
FR_02240,Croix-Fonsomme,3.3983422248239408,49.916833914971754
FR_02241,La Croix-sur-Ourcq,3.3547404188003247,49.171541470079774
FR_02242,Crouttes-sur-Marne,3.2462380036964316,48.98053679748651
FR_02243,Crouy,3.3412325410929515,49.39343611499276
FR_02244,Crupilly,3.757912373797338,49.92412416654645
FR_02245,Cuffies,3.3334767170044337,49.393341304315435
FR_02246,Cugny,3.165534411249751,49.71718871386835
FR_02248,Cuirieux,3.81992562859095,49.67843888676768
FR_02249,Cuiry-Housse,3.495495421762925,49.29790069003442
FR_02250,Cuiry-lès-Chaudardes,3.7611221339531173,49.38912739415562
FR_02251,Cuiry-lès-Iviers,4.104707395936471,49.77390746640646
FR_02252,Cuissy-et-Geny,3.729577354966604,49.39512603601102
FR_02253,Cuisy-en-Almont,3.2421627743570474,49.41564008692757
FR_02254,Cutry,3.174923913229241,49.34867882733611
FR_02255,Cys-la-Commune,3.569842463865846,49.39425730195641
FR_02256,Dagny-Lambercy,4.046295834874216,49.75996222905695
FR_02257,Dallon,3.245007540730629,49.81708166829358
FR_02258,Dammard,3.197617198510824,49.14620988158175
FR_02259,Dampleux,3.156637203044497,49.242723365737035
FR_02260,Danizy,3.383127155852271,49.66489515097251
FR_02261,Dercy,3.6921269158839847,49.70085831632412
FR_02262,Deuillet,3.366515021592218,49.62649524463887
FR_02263,Dhuizel,3.61231631481558,49.360943581673396
FR_02264,Dizy-le-Gros,4.021062794559618,49.62664474468609
FR_02265,Dohis,4.138826965205139,49.75965071547294
FR_02266,Dolignon,4.087382375380397,49.71919019776175
FR_02267,Dommiers,3.2147554888992445,49.32781493183824
FR_02268,Domptin,3.272520556989139,49.01467316374378
FR_02269,Dorengt,3.685776588890129,49.97394423333176
FR_02270,Douchy,3.142243302783673,49.79824506960615
FR_02271,Dravegny,3.64064880789508,49.23238442097536
FR_02272,Droizy,3.398366896594892,49.26911205749755
FR_02273,Dury,3.1118102171102997,49.74701985800395
FR_02274,Ébouleau,3.883387569211316,49.678039830027856
FR_02275,Effry,3.983643013784583,49.927694334682556
FR_02276,Englancourt,3.797340098089912,49.907093675835966
FR_02277,Épagny,3.240984568009149,49.46246625059669
FR_02278,Éparcy,4.071431931263349,49.904523295198075
FR_02279,Épaux-Bézu,3.341153646658931,49.11147973050249
FR_02280,Épieds,3.4501034693939556,49.10940310535407
FR_02281,L'Épine-aux-Bois,3.4460449376910534,48.89589518182451
FR_02282,Eppes,3.7383731862259957,49.556512434098046
FR_02283,Erlon,3.72120822135857,49.72784312704443
FR_02284,Erloy,3.829352150660316,49.90939931165176
FR_02286,Esquéhéries,3.753365152684771,49.98469658453852
FR_02287,Essigny-le-Grand,3.278379567454071,49.77685653398932
FR_02288,Essigny-le-Petit,3.3709840045684216,49.89690899728194
FR_02289,Essises,3.4146459045296376,48.96076120810229
FR_02290,Essômes-sur-Marne,3.371700591839188,49.03382642093407
FR_02291,Estrées,3.2902188451310015,49.96216502425487
FR_02292,Étampes-sur-Marne,3.411414856949696,49.03748168405391
FR_02293,Étaves-et-Bocquiaux,3.452182228622723,49.937426031324335
FR_02294,Étouvelles,3.5715952275953557,49.525241989952704
FR_02295,Étréaupont,3.9173851018893178,49.900915387834225
FR_02296,Étreillers,3.1587905020762794,49.82880681391411
FR_02297,Étrépilly,3.3385376185449287,49.082195869377784
FR_02298,Étreux,3.6701315647593904,49.99841166836237
FR_02299,Évergnicourt,4.0425717350457715,49.44591171649157
FR_02301,Faucoucourt,3.4683997492788268,49.52497005954564
FR_02302,Faverolles,3.1636502996979923,49.23588389021383
FR_02303,Fayet,3.2594998553751413,49.86378857125169
FR_02304,La Fère,3.3675210457807974,49.65933468541575
FR_02305,Fère-en-Tardenois,3.5118303655848533,49.20061719209464
FR_02306,La Ferté-Chevresis,3.5642882708001875,49.74259252359194
FR_02307,La Ferté-Milon,3.1264175868563004,49.18112071593033
FR_02308,Fesmy-le-Sart,3.695351599611954,50.04254228900815
FR_02309,Festieux,3.757014360000049,49.521753695222074
FR_02310,Fieulaine,3.4506463219053316,49.900345955674354
FR_02311,Filain,3.557022576431731,49.458727180719556
FR_02312,La Flamengrie,3.922205768695562,49.9853160936135
FR_02313,Flavigny-le-Grand-et-Beaurain,3.6679093481685325,49.891217223218405
FR_02315,Flavy-le-Martel,3.1895430972506835,49.714083391654206
FR_02316,Fleury,3.155413331888928,49.260907406279955
FR_02317,Fluquières,3.147961238370809,49.80174963163602
FR_02318,Folembray,3.2902290316956395,49.539867259764414
FR_02319,Fonsomme,3.3919382489454826,49.89967461755971
FR_02320,Fontaine-lès-Clercs,3.2258601541899674,49.80671785356222
FR_02321,Fontaine-lès-Vervins,3.908047807780586,49.83904475898635
FR_02322,Fontaine-Notre-Dame,3.430499510867492,49.88240798858939
FR_02323,Fontaine-Uterte,3.36879658356541,49.9232894003879
FR_02324,Fontenelle,3.8609138324208914,50.027346231221046
FR_02326,Fontenoy,3.1909261904534816,49.41054840409917
FR_02327,Foreste,3.10141905200125,49.80692261282848
FR_02328,Fossoy,3.479291406674601,49.05940766658298
FR_02329,Fourdrain,3.467421068423713,49.61423054152165
FR_02330,Francilly-Selency,3.2172476462335906,49.85606160043939
FR_02331,Franqueville,3.8024566572673075,49.812594398515046
FR_02332,Fresnes-en-Tardenois,3.5574418088118573,49.147744738020336
FR_02333,Fresnes-sous-Coucy,3.3663290586587498,49.5534756411895
FR_02334,Fresnoy-le-Grand,3.4206683019624804,49.94778789855774
FR_02335,Fressancourt,3.423067736698519,49.629265706182345
FR_02336,Frières-Faillouël,3.236526634447419,49.68686996909348
FR_02337,Froidestrées,3.906146404254436,49.94204993720837
FR_02338,Froidmont-Cohartille,3.69928909232698,49.68331874937461
FR_02339,Gandelu,3.1842005962346276,49.091425025181685
FR_02340,Gauchy,3.2842998688694993,49.83324183087877
FR_02341,Gercy,3.869749692375573,49.817882836711235
FR_02342,Gergny,3.9209741146910138,49.915417036781136
FR_02343,Germaine,3.116232738832708,49.807370064042395
FR_02345,Gibercourt,3.279000428188059,49.73774908599806
FR_02346,Gizy,3.7901744159842075,49.60554557278202
FR_02347,Gland,3.4624910390819768,49.04511113291368
FR_02349,Goudelancourt-lès-Berrieux,3.8427694871148077,49.497530136961174
FR_02350,Goudelancourt-lès-Pierrepont,3.871069233640085,49.66915601630924
FR_02351,Goussancourt,3.6656594638333297,49.16049297071817
FR_02352,Gouy,3.277444403964936,50.00096305871416
FR_02353,Grandlup-et-Fay,3.75097240750928,49.65917247384547
FR_02354,Grandrieux,4.198050463901422,49.729843865293475
FR_02355,Gricourt,3.246576105593528,49.88861862583539
FR_02356,Grisolles,3.3629466200706015,49.138155339915976
FR_02357,Gronard,3.8863222114339266,49.79081950421612
FR_02358,Grougis,3.5334516720753113,49.946157780363116
FR_02359,Grugies,3.280435385640401,49.81519875123192
FR_02360,Guignicourt,3.966213946170929,49.43711909549364
FR_02361,Guise,3.6272417838377167,49.90192731505913
FR_02362,Guivry,3.1195493056129786,49.64718247203652
FR_02363,Guny,3.272476348825704,49.5182597793124
FR_02364,Guyencourt,3.8357680778471224,49.35802919865839
FR_02366,Hannapes,3.6267330241526023,49.973651195283175
FR_02367,Happencourt,3.200521921282675,49.77832055166763
FR_02368,Haramont,3.0152566089857498,49.28268117156665
FR_02369,Harcigny,3.982860067227548,49.79555843784222
FR_02370,Hargicourt,3.1827989010608517,49.96190676319652
FR_02371,Harly,3.3168222729115198,49.84301609923829
FR_02372,Hartennes-et-Taux,3.3480067632637742,49.27274297303118
FR_02373,Hary,3.9058602309077317,49.822882354211444
FR_02374,Lehaucourt,3.2801204215899955,49.9185720423327
FR_02375,Hautevesnes,3.234072847905129,49.11094044744254
FR_02376,Hauteville,3.525096868730808,49.87840279628714
FR_02377,Haution,3.8407089075107557,49.865991808261164
FR_02378,La Hérie,4.049929410589805,49.88862375858797
FR_02379,Le Hérie-la-Viéville,3.6479464460826776,49.82224916072697
FR_02380,Hinacourt,3.2943399790297048,49.7407510299242
FR_02381,Hirson,4.08386589504308,49.92177904370699
FR_02382,Holnon,3.2109269946575996,49.85955024401172
FR_02383,Homblières,3.3647856637152502,49.85083209875143
FR_02384,Houry,3.8582450111345015,49.78298181593734
FR_02385,Housset,3.708234083437545,49.796734202057465
FR_02386,Iron,3.6679822023960282,49.95435196444915
FR_02387,Itancourt,3.3439258544815877,49.80590588264309
FR_02388,Iviers,4.140573837317565,49.78561971472309
FR_02389,Jaulgonne,3.5366072908695663,49.08856398464683
FR_02390,Jeancourt,3.1436332688781023,49.92780449046944
FR_02391,Jeantes,4.068350944172869,49.819253831523326
FR_02392,Joncourt,3.2991361621327853,49.95808507245041
FR_02393,Jouaignes,3.5378074735454264,49.300719120141075
FR_02395,Jumencourt,3.3583144644974663,49.50924227574626
FR_02396,Jumigny,3.7215577518383776,49.415703204149494
FR_02397,Jussy,3.247342882295727,49.73082034004283
FR_02398,Juvigny,3.3254549862063585,49.447099754945235
FR_02399,Juvincourt-et-Damary,3.891296047072304,49.44779286307571
FR_02400,Laffaux,3.417123884554675,49.44687586359422
FR_02401,Laigny,3.84998947626968,49.85380189623279
FR_02402,Lanchy,3.073500942558355,49.824585246657705
FR_02403,Landifay-et-Bertaignemont,3.606429344052389,49.81954241704306
FR_02404,Landouzy-la-Cour,3.9831336244081967,49.855130964952714
FR_02405,Landouzy-la-Ville,4.050440258714126,49.86265318348277
FR_02406,Landricourt,3.3686647879911273,49.51388519899306
FR_02407,Laniscourt,3.5454072846125855,49.546144039846396
FR_02408,Laon,3.629294208314509,49.56638362614036
FR_02409,Lappion,3.961835576450821,49.60767815736333
FR_02410,Largny-sur-Automne,3.0467644502707922,49.25111584300513
FR_02411,Latilly,3.3084501097050256,49.15331141611666
FR_02412,Launoy,3.4054670754836387,49.27097622723821
FR_02413,Laval-en-Laonnois,3.595275630428162,49.50352837612963
FR_02414,Lavaqueresse,3.707896650811786,49.946341063038226
FR_02415,Laversine,3.1620581730295916,49.34530251782671
FR_02416,Lemé,3.7702533639598155,49.847020221119955
FR_02417,Lempire,3.1702026747008816,49.98819812894353
FR_02418,Lerzy,3.8869272580944636,49.942018074764036
FR_02419,Leschelle,3.7723481116760555,49.95728516611073
FR_02420,Lesdins,3.3118322355780343,49.90203732279249
FR_02421,Lesges,3.5040890099348667,49.30614565884323
FR_02422,Lesquielles-Saint-Germain,3.6175130835713394,49.92760735758276
FR_02423,Leuilly-sous-Coucy,3.359361554247971,49.48082450525391
FR_02424,Leury,3.3403307837232172,49.425756667891555
FR_02425,Leuze,4.1641968471718025,49.85354707334537
FR_02426,Levergies,3.3124116879589645,49.929853806343324
FR_02427,Lhuys,3.554620095998387,49.28205750020105
FR_02428,Licy-Clignon,3.266582445081699,49.10454425665046
FR_02429,Lierval,3.6298242788503745,49.4811521846466
FR_02430,Liesse-Notre-Dame,3.804448259438227,49.60739864377085
FR_02431,Liez,3.29568032123199,49.681000071447016
FR_02432,Limé,3.5471487974605322,49.32492465527146
FR_02433,Lislet,4.025696214050795,49.689357468386305
FR_02434,Lizy,3.481562372550099,49.51495208436602
FR_02435,Logny-lès-Aubenton,4.209801128492693,49.832078266788336
FR_02438,Longpont,3.218240527329022,49.27533845430835
FR_02439,Les Septvallons,3.667318539802603,49.35475124966115
FR_02440,Lor,4.047419885398087,49.52833055384245
FR_02441,Louâtre,3.218687120538342,49.25151818772251
FR_02442,Loupeigne,3.5305203027669143,49.246669967127104
FR_02443,Lucy-le-Bocage,3.2796039785755497,49.05992800621507
FR_02444,Lugny,3.8064539013858427,49.77750994866551
FR_02445,Luzoir,3.9775830694511933,49.92933557263998
FR_02446,Ly-Fontaine,3.309193652177751,49.730015490940914
FR_02447,Maast-et-Violaine,3.4514297656310986,49.28747251057225
FR_02448,Mâchecourt,3.832019230645869,49.63848316462786
FR_02449,Macogny,3.2037928269892,49.14654313231153
FR_02450,Macquigny,3.554374364781869,49.8905168781278
FR_02451,Magny-la-Fosse,3.275571423536011,49.932208776836475
FR_02452,Maissemy,3.1920786476545593,49.89492255584235
FR_02453,Maizy,3.729863841673568,49.377489126442875
FR_02454,La Malmaison,3.9860252340015596,49.5168596211448
FR_02455,Malzy,3.73166720602286,49.90696938166622
FR_02456,Manicamp,3.1705070332957472,49.56102224793363
FR_02457,Marchais,3.818174524891691,49.58371257631954
FR_02458,Dhuys et Morin-en-Brie,3.4974124686294217,48.90303828570623
FR_02459,Marcy,3.3997807234900344,49.85140607071305
FR_02460,Marcy-sous-Marle,3.744009265638552,49.73737381825379
FR_02461,Marest-Dampcourt,3.1424623143213575,49.589090908861664
FR_02462,Mareuil-en-Dôle,3.5587199848126665,49.239814085808014
FR_02463,Marfontaine,3.7703674906562195,49.80993833703252
FR_02464,Margival,3.4065827858191544,49.43573253297432
FR_02465,Marigny-en-Orxois,3.2239167958580905,49.05742482087531
FR_02466,Marizy-Sainte-Geneviève,3.2041023255900303,49.180311058409444
FR_02467,Marizy-Saint-Mard,3.242397497583679,49.18336918198254
FR_02468,Marle,3.7701965882363293,49.73896664167191
FR_02469,Marly-Gomont,3.786755537541569,49.90207296993334
FR_02470,Martigny,4.132367851489845,49.86040399398015
FR_02471,Martigny-Courpierre,3.683955265839615,49.491104673340566
FR_02472,Mauregny-en-Haye,3.796621363084615,49.53267226059174
FR_02473,Mayot,3.383101856532457,49.70248009251381
FR_02474,Mennessis,3.2820812731300233,49.68583145544936
FR_02475,Menneville,4.016864262744298,49.42243691161084
FR_02476,Mennevret,3.5574498493207787,49.981763264031954
FR_02477,Mercin-et-Vaux,3.2991657955643268,49.37974498209105
FR_02478,Merlieux-et-Fouquerolles,3.5111431920902314,49.51443640044077
FR_02480,Mesbrecourt-Richecourt,3.5411308621604336,49.7025822455637
FR_02481,Mesnil-Saint-Laurent,3.356552938869018,49.83281721089578
FR_02482,Meurival,3.7600533938433776,49.359999441078884
FR_02483,Mézières-sur-Oise,3.399531493670682,49.78114174223683
FR_02484,Mézy-Moulins,3.497024374646771,49.070963070300024
FR_02485,Missy-aux-Bois,3.2547643110652995,49.339311514015534
FR_02486,Missy-lès-Pierrepont,3.798585282540688,49.61612075506897
FR_02487,Missy-sur-Aisne,3.4383801211603844,49.38939741799795
FR_02488,Molain,3.529354531437986,50.03463886493747
FR_02489,Molinchart,3.5430268609390185,49.5636518807238
FR_02490,Monampteuil,3.567048231230617,49.47352403374727
FR_02491,Monceau-le-Neuf-et-Faucouzy,3.6143129482201446,49.7681995582968
FR_02492,Monceau-lès-Leups,3.489152039603396,49.669407334973016
FR_02493,Monceau-le-Waast,3.7165347000405844,49.618537370963615
FR_02494,Monceau-sur-Oise,3.69988309863743,49.90583604670178
FR_02495,Mondrepuis,4.069173254642853,49.96882524761694
FR_02496,Monnes,3.2211790046855207,49.147672278194364
FR_02497,Mons-en-Laonnois,3.5651006635760365,49.53914522969644
FR_02498,Montaigu,3.844401085073423,49.536590078466936
FR_02499,Montbavin,3.5152912774608236,49.519286493553494
FR_02500,Montbrehain,3.350058077597237,49.96778425420202
FR_02501,Montchâlons,3.7212947253554693,49.52426898980987
FR_02502,Montcornet,4.01713988937851,49.69437876419369
FR_02503,Mont-d'Origny,3.4962545431740524,49.84316058741451
FR_02504,Montescourt-Lizerolles,3.2545242189946397,49.73642777303791
FR_02505,Montfaucon,3.4249717637107153,48.959683189673925
FR_02506,Montgobert,3.1553974333117205,49.30094364141207
FR_02507,Montgru-Saint-Hilaire,3.3234159600128814,49.18805262140708
FR_02508,Monthenault,3.6686995900090626,49.48973877441729
FR_02509,Monthiers,3.3016264983237185,49.097065872734895
FR_02510,Monthurel,3.5336941417691707,49.02508342057239
FR_02511,Montigny-en-Arrouaise,3.472032717827829,49.90277391359535
FR_02512,Montigny-l'Allier,3.0928379272383615,49.12145782551206
FR_02513,Montigny-le-Franc,3.9024036073299473,49.69191910701052
FR_02514,Montigny-Lengrain,3.1050466958982645,49.394504404410945
FR_02515,Montigny-lès-Condé,3.5634748164623353,48.98679424129422
FR_02516,Montigny-sous-Marle,3.792884846486843,49.75083556164887
FR_02517,Montigny-sur-Crécy,3.581862293612902,49.71806113773494
FR_02518,Montlevon,3.5314347181076493,48.97034898915126
FR_02519,Montloué,4.073358145760147,49.6601456035658
FR_02520,Mont-Notre-Dame,3.5788605139628253,49.29509006659709
FR_02521,Montreuil-aux-Lions,3.192570979612431,49.020495975534544
FR_02522,Mont-Saint-Jean,4.209919382706013,49.78922853010076
FR_02523,Mont-Saint-Martin,3.6360930367759488,49.28060208457172
FR_02524,Mont-Saint-Père,3.4892756172913466,49.073331056985054
FR_02525,Morcourt,3.3121151918001566,49.86721487046828
FR_02526,Morgny-en-Thiérache,4.073989046804344,49.761876702576224
FR_02527,Morsain,3.1908970351264982,49.453430994604325
FR_02528,Mortefontaine,3.0736943085025716,49.33059418140224
FR_02529,Mortiers,3.673020510702892,49.68625809630576
FR_02530,Moulins,3.6813009037703543,49.42161714708692
FR_02531,Moussy-Verneuil,3.6460846199720853,49.399319100204046
FR_02532,Moÿ-de-l'Aisne,3.3644080088741926,49.751767961338906
FR_02533,Muret-et-Crouttes,3.4217824413186215,49.28367548662466
FR_02534,Muscourt,3.7497095007877643,49.360997071079
FR_02535,Nampcelles-la-Cour,4.00240999730908,49.77872578638663
FR_02536,Nampteuil-sous-Muret,3.4265424570238703,49.30292598698019
FR_02537,Nanteuil-la-Fosse,3.45153944678932,49.432599229099175
FR_02538,Nanteuil-Notre-Dame,3.4125421934742883,49.19513889890774
FR_02539,Nauroy,3.2470151964575837,49.95559473435843
FR_02540,Nesles-la-Montagne,3.419886718877326,49.027238778255025
FR_02541,Neufchâtel-sur-Aisne,4.033315086702078,49.43037698761636
FR_02542,Neuflieux,3.158978700275981,49.62224513151914
FR_02543,Neuilly-Saint-Front,3.2647735615510736,49.16849404689037
FR_02544,Neuve-Maison,4.033907957714223,49.933189416229965
FR_02545,La Neuville-Bosmont,3.8412178295783392,49.717951540111706
FR_02546,La Neuville-en-Beine,3.1516414955380956,49.67674567419371
FR_02547,La Neuville-Housset,3.7310529109024584,49.793431726035465
FR_02548,La Neuville-lès-Dorengt,3.6846233573812124,49.994635360415714
FR_02549,Neuville-Saint-Amand,3.3178425387852264,49.82978379816487
FR_02550,Neuville-sur-Ailette,3.710543169643604,49.46495688915402
FR_02551,Neuville-sur-Margival,3.4044850060690375,49.45627342547513
FR_02552,Neuvillette,3.4816248096000155,49.851677701634365
FR_02553,Nizy-le-Comte,4.0290942021606835,49.56793944446107
FR_02554,Nogentel,3.411276097340712,49.0174829989846
FR_02555,Nogent-l'Artaud,3.321943575308648,48.965663687143056
FR_02556,Noircourt,4.094986942315776,49.663786642990814
FR_02557,Noroy-sur-Ourcq,3.2116019128020636,49.202116286694185
FR_02558,Le Nouvion-en-Thiérache,3.7842079402867737,50.01516237604912
FR_02559,Nouvion-et-Catillon,3.482208910079153,49.70360101586934
FR_02560,Nouvion-le-Comte,3.4751327326902572,49.70832175959335
FR_02561,Nouvion-le-Vineux,3.596075432587211,49.51333644756825
FR_02562,Nouvron-Vingré,3.1830814449374465,49.44309258855213
FR_02563,Noyales,3.5589735468995505,49.89882539537083
FR_02564,Noyant-et-Aconin,3.3359424448730897,49.34040334117188
FR_02565,Œuilly,3.673359749714155,49.39582926084175
FR_02566,Ognes,3.2005171940196693,49.61967550022216
FR_02567,Ohis,4.018206710246396,49.93162137161723
FR_02568,Oigny-en-Valois,3.1542909961445256,49.19990709508444
FR_02569,Oisy,3.677551106916058,50.019529913696886
FR_02570,Ollezy,3.1624970334357867,49.73748425161933
FR_02571,Omissy,3.2981437990483315,49.86689198456064
FR_02572,Orainville,4.025450064257657,49.38329712777902
FR_02573,Orgeval,3.702764712792388,49.50494633220916
FR_02574,Origny-en-Thiérache,4.015974739111491,49.89170810529687
FR_02575,Origny-Sainte-Benoite,3.4927497769076896,49.83935111151617
FR_02576,Osly-Courtil,3.2496592081124605,49.3958437815844
FR_02577,Ostel,3.5740804182560866,49.431257164718865
FR_02578,Oulches-la-Vallée-Foulon,3.739862323351252,49.43040572959912
FR_02579,Oulchy-la-Ville,3.3478217852525165,49.202074025696355
FR_02580,Oulchy-le-Château,3.3698176361043473,49.20473710358398
FR_02581,Paars,3.601977451764229,49.32818793011826
FR_02582,Paissy,3.6979041107420683,49.41609805525398
FR_02583,Pancy-Courtecon,3.660833941579873,49.46848804222211
FR_02584,Papleux,3.884720653371451,50.02009195234492
FR_02585,Parcy-et-Tigny,3.3414435247701504,49.27568110519559
FR_02586,Parfondeval,4.159589757238975,49.74448769946542
FR_02587,Parfondru,3.706418318498904,49.53747832180984
FR_02588,Pargnan,3.695811947746004,49.39298120757118
FR_02589,Pargny-Filain,3.5466605473560056,49.4630436783423
FR_02590,Pargny-la-Dhuys,3.550255982805786,48.95642156136769
FR_02591,Pargny-les-Bois,3.6206634617884195,49.72520981040571
FR_02592,Parpeville,3.5342049112374063,49.78725218881328
FR_02593,Pasly,3.3091580422246913,49.399262116083946
FR_02594,Passy-en-Valois,3.1962574593706266,49.165851479105825
FR_02595,Passy-sur-Marne,3.5652724327550134,49.06689334098213
FR_02596,Pavant,3.281890857483364,48.95398188932974
FR_02598,Pernant,3.234047882582247,49.38200635194627
FR_02599,Pierremande,3.2505673557611874,49.571898688433386
FR_02600,Pierrepont,3.7885690529165816,49.658132164761504
FR_02601,Pignicourt,4.021938667706406,49.40752427227619
FR_02602,Pinon,3.452725655282689,49.494795609031996
FR_02604,Pithon,3.1026024226896203,49.747980461312906
FR_02605,Pleine-Selve,3.5322364066168976,49.78877025413767
FR_02606,Le Plessier-Huleu,3.3404421726149436,49.236798586185266
FR_02607,Ploisy,3.270394131805133,49.33131077288751
FR_02608,Plomion,4.015609550772494,49.80701708976197
FR_02609,Ployart-et-Vaurseine,3.7337852911600926,49.49319841062789
FR_02610,Pommiers,3.297816571730108,49.38203916979919
FR_02612,Pont-Arcy,3.6349510317979625,49.39523640600453
FR_02613,Pontavert,3.8247450034513686,49.40805047071823
FR_02614,Pontru,3.2167627509729857,49.904977824839676
FR_02615,Pontruet,3.229135582874388,49.90757826769676
FR_02616,Pont-Saint-Mard,3.28815329967784,49.50040142984059
FR_02617,Pouilly-sur-Serre,3.5903927578088948,49.683697055354045
FR_02618,Prémont,3.393470495977815,50.01468356558256
FR_02619,Prémontré,3.411552776032816,49.537983570531935
FR_02620,Presles-et-Boves,3.5205438824359385,49.38542398783295
FR_02621,Presles-et-Thierny,3.632546985963712,49.51300729451132
FR_02622,Priez,3.269209588514112,49.1380566399778
FR_02623,Prisces,3.8597839216143646,49.780004133647225
FR_02624,Proisy,3.7399234862476702,49.89909100005869
FR_02625,Proix,3.560400266054516,49.89748641690275
FR_02626,Prouvais,3.9777599360633795,49.46157173937838
FR_02627,Proviseux-et-Plesnoy,4.017499396155058,49.460313725988556
FR_02628,Puiseux-en-Retz,3.127351302116724,49.30374900733726
FR_02629,Puisieux-et-Clanlieu,3.6753945527431604,49.851008189030246
FR_02631,Quierzy,3.1500871256050322,49.56839417695676
FR_02632,Quincy-Basse,3.3745821736468153,49.511871879622724
FR_02633,Quincy-sous-le-Mont,3.541552588550414,49.30476984684566
FR_02634,Raillimont,4.139615865366511,49.70462306150472
FR_02635,Ramicourt,3.327576600689886,49.95914390320239
FR_02636,Regny,3.425832475898465,49.828482494053965
FR_02637,Remaucourt,3.339045429804974,49.89466087686845
FR_02638,Remies,3.5298408932480396,49.68606572992479
FR_02639,Remigny,3.28558079658518,49.72005274218161
FR_02640,Renansart,3.464155087200112,49.738008472368996
FR_02641,Renneval,4.0483731007875505,49.74317155755879
FR_02642,Résigny,4.200900707955095,49.734658100417825
FR_02643,Ressons-le-Long,3.121400067651482,49.39967238500276
FR_02644,Retheuil,3.008128407079438,49.32245811864658
FR_02645,Reuilly-Sauvigny,3.565918071643877,49.05669247394123
FR_02647,Ribeauville,3.598359126477415,50.04065495635027
FR_02648,Ribemont,3.4595927767020602,49.79509442817941
FR_02649,Rocourt-Saint-Martin,3.39136928500966,49.14913273427757
FR_02650,Rocquigny,3.9929614499510144,50.02499250704949
FR_02651,Rogécourt,3.4293012071741993,49.647554870372666
FR_02652,Rogny,3.8064259269453604,49.77049482395611
FR_02653,Romeny-sur-Marne,3.332527090614294,48.97495407537619
FR_02654,Romery,3.7298703552912444,49.89452811022502
FR_02655,Ronchères,3.599396825366046,49.142837115630975
FR_02656,Roucy,3.8174277183152228,49.371747535847895
FR_02657,Rougeries,3.7901545527723783,49.80303871923502
FR_02658,Roupy,3.1743739097931774,49.819995253686265
FR_02659,Rouvroy,3.3140584014807866,49.85606143892015
FR_02660,Rouvroy-sur-Serre,4.174784708915249,49.72455594269171
FR_02661,Royaucourt-et-Chailvet,3.536304893610434,49.51644013559296
FR_02662,Rozet-Saint-Albin,3.3066249167579165,49.19584280664349
FR_02663,Rozières-sur-Crise,3.3571711515635148,49.324532801701146
FR_02664,Rozoy-Bellevalle,3.4688191690534356,48.92175706611073
FR_02665,Grand-Rozoy,3.3828094391229246,49.23605807165403
FR_02666,Rozoy-sur-Serre,4.127820116615668,49.711629802226454
FR_02667,Saconin-et-Breuil,3.2523065069737007,49.35172043024878
FR_02668,Sains-Richaumont,3.7075744064970864,49.82577951685608
FR_02670,Saint-Algis,3.818897052815662,49.897742270628235
FR_02671,Saint-Aubin,3.191943259062894,49.50785446219259
FR_02672,Saint-Bandry,3.167476476305349,49.3708046262067
FR_02673,Saint-Christophe-à-Berry,3.127179409530966,49.43019657070027
FR_02674,Saint-Clément,4.0581574031316805,49.77134815760175
FR_02675,Sainte-Croix,3.776139177809542,49.47857196553465
FR_02676,Saint-Erme-Outre-et-Ramecourt,3.8509949882448615,49.520828871602475
FR_02677,Saint-Eugène,3.534892346525018,49.0215121288145
FR_02678,Sainte-Geneviève,4.082592181100862,49.7140590030661
FR_02679,Saint-Gengoulph,3.201596994255366,49.09776242553534
FR_02680,Saint-Gobain,3.375395944528575,49.59842070608228
FR_02681,Saint-Gobert,3.8269412379954977,49.806847512274274
FR_02682,Saint-Mard,3.580168653042745,49.38887032845215
FR_02683,Saint-Martin-Rivière,3.538947652963001,50.04654743718663
FR_02684,Saint-Michel,4.1360838439842045,49.92049328564929
FR_02685,Saint-Nicolas-aux-Bois,3.429974856434718,49.596462674413274
FR_02686,Saint-Paul-aux-Bois,3.201233510737428,49.541224321731825
FR_02687,Saint-Pierre-Aigle,3.1898821625129026,49.31776386386722
FR_02688,Saint-Pierre-lès-Franqueville,3.828687828583406,49.8163640439337
FR_02689,Saint-Pierremont,3.8917703190325708,49.723383645944615
FR_02690,Sainte-Preuve,3.92861274071753,49.615563314080525
FR_02691,Saint-Quentin,3.291060280805164,49.84770240201191
FR_02693,Saint-Rémy-Blanzy,3.310284457158917,49.24361122529307
FR_02694,Saint-Simon,3.179315668919553,49.74519683608146
FR_02695,Saint-Thibaut,3.620963022775397,49.30291426550763
FR_02696,Saint-Thomas,3.8203837367758107,49.493091825019775
FR_02697,Samoussy,3.7422082613497385,49.5857406659182
FR_02698,Sancy-les-Cheminots,3.47550487440729,49.43583693681564
FR_02699,Saponay,3.487356396011138,49.212710897492535
FR_02701,Saulchery,3.3203855470837746,48.97353643416699
FR_02702,Savy,3.1960517026999233,49.83615278589301
FR_02703,Seboncourt,3.4772471983438638,49.956427830491165
FR_02704,Selens,3.2099456230338785,49.50507068478956
FR_02705,La Selve,4.00019385653074,49.57091286109876
FR_02706,Septmonts,3.3506428342628376,49.34138216671568
FR_02707,Septvaux,3.375370570487491,49.57198958814699
FR_02708,Sequehart,3.336117765459884,49.929384373119404
FR_02709,Serain,3.3682608852861917,50.028017689775915
FR_02710,Seraucourt-le-Grand,3.2069795103543686,49.778306383009706
FR_02711,Serches,3.4474946368902644,49.34151447147599
FR_02712,Sergy,3.5760704738438798,49.19320296905508
FR_02713,Seringes-et-Nesles,3.5281624978479194,49.202764088517924
FR_02714,Sermoise,3.453209750383882,49.37113134057715
FR_02715,Serval,3.689945380628334,49.35597071605528
FR_02716,Servais,3.3463581532473503,49.62054166507057
FR_02717,Séry-lès-Mézières,3.4133128133663972,49.77540388729668
FR_02718,Silly-la-Poterie,3.159246609470163,49.19446548361803
FR_02719,Sinceny,3.2427659322118525,49.59321073802805
FR_02720,Sissonne,3.88934932607314,49.572409368122976
FR_02721,Sissy,3.4356456616870026,49.801684361131024
FR_02722,Soissons,3.3201024178081906,49.37920627061998
FR_02723,Soize,4.081518532850539,49.70148721393844
FR_02724,Sommelans,3.2831254757011363,49.13690536227466
FR_02725,Sommeron,3.960512113651787,49.963338584260285
FR_02726,Sommette-Eaucourt,3.104434153190833,49.74395386973914
FR_02727,Sons-et-Ronchères,3.67374392143306,49.760523736801694
FR_02728,Sorbais,3.9029950747817304,49.91044075904005
FR_02729,Soucy,3.1137991442914363,49.306748137303515
FR_02730,Soupir,3.590797271590034,49.40468000861494
FR_02731,Le Sourd,3.777056775582392,49.8591253338189
FR_02732,Surfontaine,3.4636780415636377,49.746930444478295
FR_02733,Suzy,3.4691371076103668,49.55293585323565
FR_02734,Taillefontaine,3.0384034468587098,49.30855564146965
FR_02735,Tannières,3.5482765375355103,49.28704839974307
FR_02736,Tartiers,3.236857360457595,49.44600984569596
FR_02737,Tavaux-et-Pontséricourt,3.908179835555784,49.72774425124462
FR_02738,Tergnier,3.295072593134947,49.65826798153529
FR_02739,Terny-Sorny,3.3686107875282105,49.444892756909184
FR_02740,Thenailles,3.935748537635994,49.81705868002962
FR_02741,Thenelles,3.4659241075230782,49.83051584698618
FR_02742,Thiernu,3.7902168872896165,49.75395213395949
FR_02743,Le Thuel,4.074207174044025,49.64695014535414
FR_02744,Torcy-en-Valois,3.274083717463088,49.09070205511465
FR_02745,Toulis-et-Attencourt,3.7470869071227777,49.701358782112884
FR_02746,Travecy,3.3247467043626933,49.68062115371583
FR_02747,Trefcon,3.0987167034105685,49.85483054007892
FR_02748,Trélou-sur-Marne,3.6280169137485188,49.07443055206745
FR_02749,Troësnes,3.1679282688224286,49.19430249303981
FR_02750,Trosly-Loire,3.2242895265992124,49.516756454125606
FR_02751,Trucy,3.608247987036997,49.47029397569862
FR_02752,Tugny-et-Pont,3.159473565941193,49.75967666612942
FR_02753,Tupigny,3.587832338274871,49.98491452737602
FR_02754,Ugny-le-Gay,3.156265693535736,49.657343891096566
FR_02755,Urcel,3.5558185770081603,49.49031002658313
FR_02756,Urvillers,3.309173876877067,49.79075596307338
FR_02757,Vadencourt,3.606631532695528,49.92655968068954
FR_02758,Vailly-sur-Aisne,3.518635911404275,49.40877010404404
FR_02759,La Vallée-au-Blé,3.780663929719098,49.85409416370471
FR_02760,La Vallée-Mulâtre,3.54310187695768,50.02843512446883
FR_02761,Variscourt,3.9897181140593,49.41390871371234
FR_02762,Vassens,3.1509236635343982,49.470886578043164
FR_02763,Vasseny,3.4823944372150093,49.35619679719877
FR_02764,Vassogne,3.7322491646394504,49.42442038141626
FR_02765,Vaucelles-et-Beffecourt,3.569530543913106,49.530782301663564
FR_02766,Vaudesson,3.4842185777022263,49.469367838277606
FR_02767,Vauxrezis,3.2821391884056266,49.407891897895425
FR_02768,Vauxaillon,3.435084533193355,49.48546962722067
FR_02769,Vaux-Andigny,3.510004141042478,50.02203301793123
FR_02770,Vauxbuin,3.3032208160763314,49.36620755968513
FR_02772,Vaux-en-Vermandois,3.15350110293516,49.81864152809485
FR_02773,Vauxtin,3.598807970157457,49.35037061393002
FR_02774,Vendelles,3.1307048417773644,49.91067705303695
FR_02775,Vendeuil,3.355646877785491,49.7151859164049
FR_02776,Vendhuile,3.212458948216668,50.014446172148105
FR_02777,Vendières,3.4558165260607434,48.87649677803992
FR_02778,Vendresse-Beaulne,3.669736213277953,49.43462326746588
FR_02779,Vénérolles,3.624997402339541,49.99403676322571
FR_02780,Venizel,3.397073156429275,49.36468697256889
FR_02781,Verdilly,3.4267422890425667,49.06981201365614
FR_02782,Le Verguier,3.1718210161011946,49.92455254655282
FR_02783,Grand-Verly,3.5794232763618563,49.93569447019509
FR_02784,Petit-Verly,3.5595405095895782,49.9760613207495
FR_02785,Vermand,3.1532106673213374,49.876706626235006
FR_02786,Verneuil-sous-Coucy,3.3031272001778045,49.53881815702803
FR_02787,Verneuil-sur-Serre,3.6643727302193936,49.643130057330474
FR_02788,Versigny,3.4336999432773188,49.65477642553414
FR_02789,Vervins,3.9100054950039334,49.83593885244279
FR_02790,Vesles-et-Caumont,3.784984383408953,49.66447530733049
FR_02791,Veslud,3.7289233665060353,49.530438283093154
FR_02792,Veuilly-la-Poterie,3.2152209237708136,49.08930526117209
FR_02793,Vézaponin,3.2316294764775293,49.46361625422657
FR_02794,Vézilly,3.6883612652962765,49.1833512560696
FR_02795,Vic-sur-Aisne,3.116971024111951,49.40532588258287
FR_02796,Vichel-Nanteuil,3.288643039502139,49.17857120418122
FR_02797,Viel-Arcy,3.624885203028093,49.379173971937874
FR_02798,Viels-Maisons,3.3954581760034843,48.896385945821024
FR_02799,Vierzy,3.281770711335549,49.29153784809441
FR_02800,Viffort,3.459895633039043,48.958392358529025
FR_02801,Vigneux-Hocquet,3.9946060142440363,49.743256544838836
FR_02802,La Ville-aux-Bois-lès-Dizy,3.9872809386287966,49.660776421652585
FR_02803,La Ville-aux-Bois-lès-Pontavert,3.8518020935417625,49.4276067921685
FR_02804,Villemontoire,3.3263083305634855,49.300925534347336
FR_02805,Villeneuve-Saint-Germain,3.3526180621293156,49.38036813664336
FR_02806,Villeneuve-sur-Fère,3.4704681729585913,49.18000773257563
FR_02807,Villequier-Aumont,3.2090449232337854,49.65733701877564
FR_02808,Villeret,3.18771002840104,49.9556928273458
FR_02809,Villers-Agron-Aiguizy,3.704153781284295,49.16415388782918
FR_02810,Villers-Cotterêts,3.0931698586723324,49.25464019266329
FR_02812,Villers-Hélon,3.2685884630309907,49.26119205734609
FR_02813,Villers-le-Sec,3.5004546153853737,49.77773573573871
FR_02814,Villers-lès-Guise,3.6877394028585715,49.930431986514314
FR_02815,Villers-Saint-Christophe,3.0964297937916445,49.78023003223514
FR_02816,Villers-sur-Fère,3.5316965179871103,49.18200822164718
FR_02817,Ville-Savoye,3.6307846114594247,49.288760618424284
FR_02818,Villiers-Saint-Denis,3.262648521214097,48.99211491753391
FR_02819,Vincy-Reuil-et-Magny,4.056721469673467,49.70714490899245
FR_02820,Viry-Noureuil,3.2436972568055396,49.62792305804647
FR_02821,Vivaise,3.563535087486896,49.61923818774091
FR_02822,Vivières,3.102862419486713,49.302038525540986
FR_02823,Voharies,3.800060704984779,49.78095283308889
FR_02824,Vorges,3.655611922164865,49.52407542331276
FR_02826,Voulpaix,3.8313422160310493,49.83983194574944
FR_02827,Voyenne,3.7345259411476,49.72819319105033
FR_02828,Vregny,3.4252621885372276,49.40965564469057
FR_02829,Vuillery,3.391872544476854,49.4349572601212
FR_02830,Wassigny,3.5993897404144595,50.013160613468735
FR_02831,Watigny,4.191940867623511,49.90482169276225
FR_02832,Wiège-Faty,3.7204189911419427,49.887440018264606
FR_02833,Wimy,3.995499764587437,49.934072852839435
FR_02834,Wissignicourt,3.4457961709979856,49.51945702215694
FR_03001,Abrest,3.4480293561479263,46.10035123190927
FR_03002,Agonges,3.1588811931130936,46.60701180437458
FR_03003,Ainay-le-Château,2.6911485781657714,46.71128329686649
FR_03004,Andelaroche,3.7407155961868575,46.2543127717657
FR_03005,Archignat,2.4224293377306783,46.373869373918396
FR_03006,Arfeuilles,3.7327513266844603,46.15617101883044
FR_03007,Arpheuilles-Saint-Priest,2.6653684860504496,46.231137682832355
FR_03008,Arronnes,3.5610337915543324,46.06409632505584
FR_03009,Aubigny,3.166422058857399,46.6790668423969
FR_03010,Audes,2.5648039517326424,46.45841783473527
FR_03011,Aurouër,3.3042608854677433,46.6880181390093
FR_03012,Autry-Issards,3.1274626510633126,46.546973726587986
FR_03013,Avermes,3.322091248088176,46.584660788894816
FR_03014,Avrilly,3.9777396814667947,46.32022952226722
FR_03015,Bagneux,3.2091601511450953,46.65817121548369
FR_03016,Barberier,3.230308939298566,46.22023085504118
FR_03017,Barrais-Bussolles,3.6749795365492717,46.257059354545625
FR_03018,Bayet,3.269118670207572,46.25190545447183
FR_03019,Beaulon,3.6768560161322488,46.60144894656753
FR_03020,Beaune-d'Allier,2.884657948827475,46.2754784730484
FR_03021,Bègues,3.152384226107852,46.1265315707842
FR_03022,Bellenaves,3.081530569674438,46.1993918811174
FR_03023,Bellerive-sur-Allier,3.41289300728729,46.12698778547889
FR_03024,Bert,3.69485287633198,46.344347463999114
FR_03025,Bessay-sur-Allier,3.366218751621297,46.44381620306209
FR_03026,Besson,3.278154717654705,46.47254152003242
FR_03027,Bézenet,2.8385295021167027,46.32929082678239
FR_03028,Billezois,3.574255459955373,46.21390073690874
FR_03029,Billy,3.4332070272166026,46.225537507962024
FR_03030,Biozat,3.2762905482531655,46.08171995547472
FR_03031,Bizeneuille,2.7315775376917544,46.40064765132923
FR_03032,Blomard,2.9563032264014133,46.310402120514546
FR_03033,Bost,3.510531429496394,46.182060131348045
FR_03034,Boucé,3.4985511768432103,46.31978358852575
FR_03035,Le Bouchaud,3.9095848235091113,46.30780404748482
FR_03036,Bourbon-l'Archambault,3.0570938368117906,46.58342945539755
FR_03037,Braize,2.6706993958660585,46.65540774602241
FR_03038,Bransat,3.2333612711860042,46.32227326131227
FR_03039,Bresnay,3.250949871272118,46.43952410731144
FR_03040,Bressolles,3.32698954162218,46.5452597881394
FR_03041,Le Brethon,2.718997431608463,46.576945957835804
FR_03042,Le Breuil,3.660525314274885,46.18064775226562
FR_03043,Broût-Vernet,3.2755594440610127,46.18802369357927
FR_03044,Brugheas,3.3919891369974033,46.08978940126191
FR_03045,Busset,3.4928565057058543,46.067487614087646
FR_03046,Buxières-les-Mines,2.9595924517217367,46.46790372921378
FR_03047,La Celle,2.7686756779061827,46.23696869327518
FR_03048,Cérilly,2.8165719202398525,46.62007129762964
FR_03049,Cesset,3.215279307555265,46.29891864496004
FR_03050,La Chabanne,3.748758934304485,46.01947036477205
FR_03051,Chambérat,2.4194275727857035,46.418565161962164
FR_03052,Chamblet,2.7032135660997976,46.33049488944623
FR_03053,Chantelle,3.1542460374804215,46.2362963271162
FR_03054,Chapeau,3.529987695324672,46.47973314820819
FR_03055,La Chapelaude,2.5081298951595694,46.41832370008645
FR_03056,La Chapelle,3.575363153927897,46.09778512142972
FR_03057,La Chapelle-aux-Chasses,3.524904206437373,46.66702088429821
FR_03058,Chappes,2.935535307390742,46.386827074446124
FR_03059,Chareil-Cintrat,3.231633517764285,46.27209959635322
FR_03060,Charmeil,3.4104972064810464,46.142617727877436
FR_03061,Charmes,3.2626818349319677,46.08009477199218
FR_03062,Charroux,3.1646046437121984,46.18243072818087
FR_03063,Chassenard,3.984372032214076,46.47135323526961
FR_03064,Château-sur-Allier,3.027846405015888,46.7643997782787
FR_03065,Châtel-de-Neuvre,3.3075051591737106,46.408955341937634
FR_03066,Châtel-Montagne,3.690776501220081,46.10978003126861
FR_03067,Châtelperron,3.6214487466727334,46.38094471847075
FR_03068,Châtelus,3.7312688086095736,46.19689986546562
FR_03069,Châtillon,3.133438789575252,46.47436178471623
FR_03070,Chavenon,2.949303136871198,46.41321156141544
FR_03071,Chavroches,3.5891176869158667,46.35549658913157
FR_03072,Chazemais,2.5223635126567276,46.48575198994993
FR_03073,Chemilly,3.3096696340127356,46.48752426926157
FR_03074,Chevagnes,3.552884226762578,46.60920356773608
FR_03075,Chezelle,3.1131824824586922,46.21533662644547
FR_03076,Chézy,3.4741475213333723,46.59443221372329
FR_03077,Chirat-l'Église,3.0225989000812685,46.24653363000016
FR_03078,Chouvigny,3.005424149377467,46.11997359211945
FR_03079,Cindré,3.56262733169486,46.32467664908768
FR_03080,Cognat-Lyonne,3.2976381181318626,46.10841580830295
FR_03081,Colombier,2.7789799936399517,46.283698894468714
FR_03082,Commentry,2.737981547022615,46.29074112154205
FR_03083,Contigny,3.2934327641177785,46.349442966601266
FR_03084,Cosne-d'Allier,2.8351395377395527,46.4754337189162
FR_03085,Coulandon,3.25664110023682,46.55077530960282
FR_03086,Coulanges,3.860787273422577,46.48729777258388
FR_03087,Couleuvre,2.898349640481906,46.67304381926295
FR_03088,Courçais,2.441308851037136,46.46630427878834
FR_03089,Coutansouze,3.003753582282222,46.2118217949708
FR_03090,Couzon,3.113022302004556,46.66028455985421
FR_03091,Créchy,3.429009475997053,46.26129169991395
FR_03092,Cressanges,3.1600531742826576,46.44466584322411
FR_03093,Creuzier-le-Neuf,3.4494422636960764,46.16797135038806
FR_03094,Creuzier-le-Vieux,3.4265494311967664,46.14825092388853
FR_03095,Cusset,3.43841087878903,46.130543068652806
FR_03096,Deneuille-lès-Chantelle,3.1471368050308395,46.23908135286552
FR_03097,Deneuille-les-Mines,2.7767804652449692,46.381036042439604
FR_03098,Désertines,2.6189727199269712,46.35375088643774
FR_03099,Deux-Chaises,3.042290818700744,46.384695598458784
FR_03100,Diou,3.743907330942315,46.53193914123315
FR_03101,Domérat,2.5693450629987034,46.35236932098323
FR_03102,Dompierre-sur-Besbre,3.6801161318391546,46.521552399954594
FR_03103,Le Donjon,3.791885727256504,46.35081647126072
FR_03104,Doyet,2.797459917527124,46.33581635031764
FR_03105,Droiturier,3.70367596973237,46.22371807165277
FR_03106,Durdat-Larequille,2.7023890606567895,46.25542348515353
FR_03107,Ébreuil,3.084130709917689,46.11448251991588
FR_03108,Échassières,2.9313419585463607,46.18623744957164
FR_03109,Escurolles,3.2637536828312617,46.141863956505375
FR_03110,Espinasse-Vozelle,3.3358223558244555,46.12820089294843
FR_03111,Estivareilles,2.6136074178203144,46.42437415097769
FR_03112,Étroussat,3.2239612252958945,46.22020800163178
FR_03113,Ferrières-sur-Sichon,3.6484849724433555,46.023420657902705
FR_03114,La Ferté-Hauterive,3.3291114916091384,46.39606080600921
FR_03115,Fleuriel,3.201188982176114,46.27192889751087
FR_03116,Fourilles,3.1966962563606414,46.240532305791284
FR_03117,Franchesse,3.0374044053984766,46.640147819343596
FR_03118,Gannat,3.1991252116899136,46.099065708400246
FR_03119,Gannay-sur-Loire,3.605124594581797,46.73149011088724
FR_03120,Garnat-sur-Engièvre,3.6610458155074785,46.634375314149644
FR_03121,Gennetines,3.4022416607266535,46.637456349094826
FR_03122,Gipcy,3.0371091214251904,46.50156914536421
FR_03124,Gouise,3.4379675433002,46.41414542112677
FR_03125,La Guillermie,3.640370839661659,45.98732552600446
FR_03126,Hauterive,3.4455550617760475,46.08997616150381
FR_03127,Hérisson,2.7149426496456854,46.506806254566335
FR_03128,Huriel,2.491460965299195,46.378555557480105
FR_03129,Hyds,2.824279389377031,46.28281374843246
FR_03130,Isle-et-Bardais,2.805743577508667,46.688138253385944
FR_03131,Isserpent,3.6238702154749114,46.161708317058846
FR_03132,Jaligny-sur-Besbre,3.594572303374392,46.37974458759614
FR_03133,Jenzat,3.1977169334198607,46.16500986177048
FR_03134,Laféline,3.1713937021726193,46.34965422331589
FR_03135,Lalizolle,3.001068949204738,46.15612796288511
FR_03136,Lamaids,2.432970964492369,46.30438122728607
FR_03137,Langy,3.467019440944332,46.26776096093718
FR_03138,Lapalisse,3.6306339088491058,46.24750722853858
FR_03139,Laprugne,3.745089763166882,45.979732567947394
FR_03140,Lavault-Sainte-Anne,2.596591961861066,46.32082864578631
FR_03141,Lavoine,3.692482909701403,45.97561336372671
FR_03142,Lenax,3.817743110284166,46.30151568353133
FR_03143,Lételon,2.5849050909544173,46.65898369369995
FR_03144,Liernolles,3.764369417736988,46.393149843278415
FR_03145,Lignerolles,2.5864531683035454,46.28675400608817
FR_03146,Limoise,3.049723932148712,46.68195601296721
FR_03147,Loddes,3.7637838941081543,46.29242106685873
FR_03148,Loriges,3.345640988992472,46.26868188965996
FR_03149,Louchy-Montfand,3.238202648608548,46.304987531716996
FR_03150,Louroux-Bourbonnais,2.835310542278048,46.53604297373303
FR_03151,Louroux-de-Beaune,2.858529650059435,46.30359460938689
FR_03152,Louroux-de-Bouble,2.9880472531882223,46.22273449683778
FR_03154,Luneau,3.9599872429422405,46.363678373712624
FR_03155,Lurcy-Lévis,2.9359777024614906,46.73118384344281
FR_03156,Lusigny,3.489345437434788,46.5892924654261
FR_03157,Magnet,3.5016042221368715,46.21819709455597
FR_03158,Haut-Bocage,2.6730025672957405,46.46301011879591
FR_03159,Malicorne,2.7356985972969428,46.30141930964468
FR_03160,Marcenat,3.3944203752510727,46.23612614989947
FR_03161,Marcillat-en-Combraille,2.634817225607168,46.165072461036864
FR_03162,Marigny,3.2103312142559126,46.58077825450934
FR_03163,Mariol,3.4955637904561163,46.02130263382705
FR_03164,Le Mayet-d'École,3.2432265948166674,46.169221556511914
FR_03165,Le Mayet-de-Montagne,3.6649602937091887,46.06856108513372
FR_03166,Mazerier,3.1872029114998823,46.12341721960248
FR_03167,Mazirat,2.5501776298920538,46.21944331529439
FR_03168,Meaulne-Vitray,2.6127847803854047,46.59892298980768
FR_03169,Meillard,3.248660779516452,46.39749453235728
FR_03170,Meillers,3.093272354993179,46.50599189445
FR_03171,Mercy,3.534061258683995,46.45996980447785
FR_03172,Mesples,2.3547654321907836,46.4333990128214
FR_03173,Molinet,3.947758322532732,46.47118490067941
FR_03174,Molles,3.5470294454148545,46.1160935374232
FR_03175,Monestier,3.118899861304164,46.249222734309754
FR_03176,Monétay-sur-Allier,3.2963791423192066,46.37724414497403
FR_03177,Monétay-sur-Loire,3.8203077655352238,46.43384935683935
FR_03178,Montaiguët-en-Forez,3.8039404646250974,46.266962238097875
FR_03179,Montaigu-le-Blin,3.515115285345571,46.29391042707817
FR_03180,Montbeugny,3.48761404850209,46.52777529822397
FR_03181,Montcombroux-les-Mines,3.6948670712580576,46.35036215123791
FR_03182,Monteignet-sur-l'Andelot,3.2584400000171954,46.12225866102647
FR_03183,Le Montet,3.057340099787513,46.410002016158586
FR_03184,Montilly,3.283478902113094,46.60087803283614
FR_03185,Montluçon,2.596492084257324,46.34094978466459
FR_03186,Montmarault,2.9552120860669846,46.31622888545988
FR_03187,Montoldre,3.437737319887958,46.32030262593033
FR_03188,Montord,3.2333031957622644,46.290644874070054
FR_03189,Montvicq,2.8179508457211067,46.32746001113635
FR_03190,Moulins,3.3354508265818525,46.56299542893738
FR_03191,Murat,2.872688171897203,46.39865175331502
FR_03192,Nades,2.973971842860414,46.15325971358804
FR_03193,Nassigny,2.5922634635620394,46.50113800939766
FR_03194,Naves,3.115101199208744,46.17586512090433
FR_03195,Néris-les-Bains,2.7023789632861663,46.29319733852568
FR_03196,Neuilly-en-Donjon,3.885660748146082,46.3426780049084
FR_03197,Neuilly-le-Réal,3.4285449939775994,46.46122318097283
FR_03198,Neure,2.971854401329572,46.74701046613573
FR_03200,Neuvy,3.3057177699678264,46.569042451418014
FR_03201,Nizerolles,3.6613008607741517,46.0831041802786
FR_03202,Noyant-d'Allier,3.1273439406501256,46.48327320716556
FR_03203,Paray-le-Frésil,3.623572961437257,46.651121146031706
FR_03204,Paray-sous-Briailles,3.3605486634957167,46.28734688534875
FR_03205,Périgny,3.5514384066314353,46.24699818588676
FR_03206,La Petite-Marche,2.5677234089522756,46.19188502047806
FR_03207,Pierrefitte-sur-Loire,3.814675285806315,46.50622206315042
FR_03208,Le Pin,3.8975726644132926,46.415440092992505
FR_03209,Poëzat,3.231543489361628,46.07733355674109
FR_03210,Pouzy-Mésangy,3.001365431145122,46.69936219250186
FR_03211,Prémilhat,2.573548528010738,46.3327794685464
FR_03212,Quinssaines,2.5096284182357573,46.32448668417012
FR_03213,Reugny,2.6113007383762947,46.452571238923895
FR_03214,Rocles,3.050340887999797,46.41423320183185
FR_03215,Rongères,3.447950214770896,46.29705841161808
FR_03216,Ronnet,2.6924762605697548,46.213104823208134
FR_03217,Saint-Angel,2.6684322949267254,46.352304786722804
FR_03218,Saint-Aubin-le-Monial,3.0105644000911513,46.532464147120976
FR_03219,Saint-Bonnet-de-Four,2.8945965893343932,46.3152310913249
FR_03220,Saint-Bonnet-de-Rochefort,3.138577205589043,46.14489621500653
FR_03221,Saint-Bonnet-Tronçais,2.688640246425719,46.66460862511701
FR_03222,Saint-Caprais,2.7403278047005295,46.542119427503
FR_03223,Saint-Christophe,3.555360308055538,46.15637479467079
FR_03224,Saint-Clément,3.7012881252004712,46.05913782638172
FR_03225,Saint-Désiré,2.4371900016836006,46.499186192553026
FR_03226,Saint-Didier-en-Donjon,3.8635818094517136,46.386379734846955
FR_03227,Saint-Didier-la-Forêt,3.3381422893823895,46.23039259068491
FR_03228,Saint-Éloy-d'Allier,2.354441705679737,46.489752167026566
FR_03229,Saint-Ennemond,3.4135687716924785,46.6792354467074
FR_03230,Saint-Étienne-de-Vicq,3.5386135395972937,46.16893510103718
FR_03231,Saint-Fargeol,2.626817291559875,46.13623181865432
FR_03232,Saint-Félix,3.480778829492837,46.228598984122186
FR_03233,Saint-Genest,2.6040611083413467,46.279779297671055
FR_03234,Saint-Gérand-de-Vaux,3.3987893997146776,46.37419364366833
FR_03235,Saint-Gérand-le-Puy,3.5079320576752067,46.257464423699425
FR_03236,Saint-Germain-des-Fossés,3.435145958355609,46.20576091201083
FR_03237,Saint-Germain-de-Salles,3.2146833218854693,46.179117832085836
FR_03238,Saint-Hilaire,3.0126865845113002,46.49341479635423
FR_03239,Saint-Léger-sur-Vouzance,3.9301566462720428,46.41161226373221
FR_03240,Saint-Léon,3.6861612867358717,46.402637076701296
FR_03241,Saint-Léopardin-d'Augy,3.106972176215528,46.685728474888066
FR_03242,Saint-Loup,3.3787730147819386,46.349478335100365
FR_03243,Saint-Marcel-en-Murat,2.97151822921367,46.311101147426996
FR_03244,Saint-Marcel-en-Marcillat,2.5821207143061025,46.15078831631253
FR_03245,Saint-Martin-des-Lais,3.64906347953751,46.6593963097702
FR_03246,Saint-Martinien,2.4708600720311975,46.33434790044842
FR_03247,Saint-Menoux,3.1589896957439025,46.584611930704114
FR_03248,Saint-Nicolas-des-Biefs,3.7841272633082585,46.07294712689012
FR_03249,Saint-Palais,2.3014783799121887,46.439064730286155
FR_03250,Saint-Pierre-Laval,3.7933771838130808,46.206226742372074
FR_03251,Saint-Plaisir,2.9527593527602707,46.626829056986395
FR_03252,Saint-Pont,3.2995035260317405,46.16181939235255
FR_03253,Saint-Pourçain-sur-Besbre,3.6370655258181928,46.47475594759963
FR_03254,Saint-Pourçain-sur-Sioule,3.289399838618177,46.306729384028884
FR_03255,Saint-Priest-d'Andelot,3.1648026370501636,46.07434877499906
FR_03256,Saint-Priest-en-Murat,2.8985763062089336,46.346336181901826
FR_03257,Saint-Prix,3.6420070566128264,46.24548898566068
FR_03258,Saint-Rémy-en-Rollat,3.3826222408853575,46.183245818805325
FR_03259,Saint-Sauvier,2.332467115374358,46.39054815790739
FR_03260,Saint-Sornin,3.0245840126179337,46.4072409049675
FR_03261,Sainte-Thérence,2.5697197460508705,46.24375353517309
FR_03262,Saint-Victor,2.609014475591868,46.38722685018807
FR_03263,Saint-Voir,3.5068353013928384,46.4080214556131
FR_03264,Saint-Yorre,3.4654016409008017,46.06668735941075
FR_03265,Saligny-sur-Roudon,3.744983915050504,46.47123779994477
FR_03266,Sanssat,3.466482728786902,46.25305448076614
FR_03267,Saulcet,3.2767081854605333,46.322973803603645
FR_03268,Saulzet,3.220365558224296,46.13319341048283
FR_03269,Sauvagny,2.80598152938895,46.44257599389355
FR_03270,Sazeret,2.96623340833087,46.34458196121908
FR_03271,Serbannes,3.363707549416787,46.093505218662806
FR_03272,Servilly,3.5874793172051858,46.28174421398548
FR_03273,Seuillet,3.4543535705262656,46.20216434398308
FR_03274,Sorbier,3.6584438285602485,46.36071045091056
FR_03275,Souvigny,3.1947105600524672,46.53617241045996
FR_03276,Sussat,3.0504989170025647,46.146380942439755
FR_03277,Target,3.059545393638688,46.2897336914699
FR_03278,Taxat-Senat,3.1350713279422306,46.21030638081698
FR_03279,Teillet-Argenty,2.5259004106958325,46.264257495401
FR_03280,Terjat,2.618865683400341,46.2123676205486
FR_03281,Le Theil,3.1294267526788446,46.3523101435301
FR_03282,Theneuille,2.8664457738285165,46.58714367374809
FR_03283,Thiel-sur-Acolin,3.5772566737545017,46.525605076972575
FR_03284,Thionne,3.5742593231633255,46.402078089728136
FR_03285,Tortezais,2.8470756355061213,46.465538969427236
FR_03286,Toulon-sur-Allier,3.347316766257648,46.52971814080813
FR_03287,Treban,3.173199366719873,46.406911518051935
FR_03288,Treignat,2.339616631265298,46.350326530571536
FR_03289,Treteau,3.522812205831432,46.370058451884375
FR_03290,Trévol,3.306540355906539,46.63027808175156
FR_03291,Trézelles,3.5930528052143598,46.324529869997846
FR_03292,Tronget,3.0628276472623863,46.41507947863145
FR_03293,Urçay,2.5925275011264923,46.623288424391795
FR_03294,Ussel-d'Allier,3.1927828867531582,46.21471958548634
FR_03295,Valignat,3.0734891660551327,46.17558952899134
FR_03296,Valigny,2.8184245701998987,46.710373717812594
FR_03297,Vallon-en-Sully,2.6139981708580873,46.53401397729054
FR_03298,Varennes-sur-Allier,3.4040984345296543,46.31540667483282
FR_03299,Varennes-sur-Tèche,3.634267591582338,46.32446655195997
FR_03300,Vaumas,3.6267159505859152,46.44592595985248
FR_03301,Vaux,2.5904574306225037,46.413636684917144
FR_03302,Veauce,3.062049231030889,46.16662906673731
FR_03303,Venas,2.7640938667051658,46.480368525682614
FR_03304,Vendat,3.351215758661681,46.16677243601558
FR_03305,Verneix,2.664233848450637,46.413990761837795
FR_03306,Le Vernet,3.4556910023738814,46.11778965042732
FR_03307,Verneuil-en-Bourbonnais,3.271501447605748,46.35045405267197
FR_03308,Vernusse,2.978028373461062,46.265833404917515
FR_03309,Le Veurdre,3.038458662666144,46.75479320109513
FR_03310,Vichy,3.4260399322974147,46.128470947245354
FR_03311,Vicq,3.092993042614784,46.145144008746264
FR_03312,Vieure,2.8564563249271093,46.49079410162261
FR_03313,Le Vilhain,2.7958870901419814,46.56361547214369
FR_03314,Villebret,2.61878642179491,46.281213335754884
FR_03315,Villefranche-d'Allier,2.8527895422072693,46.396934310379244
FR_03316,Villeneuve-sur-Allier,3.2484418328000246,46.66188832180895
FR_03317,Viplaix,2.3707562855050903,46.46597491843002
FR_03319,Voussac,3.064484806996789,46.327190116413185
FR_03320,Ygrande,2.94568823008921,46.55396367876848
FR_03321,Yzeure,3.343804602741876,46.56103045431379
FR_04001,Aiglun,6.140305538364906,44.05281370019822
FR_04004,Allemagne-en-Provence,6.009266268658113,43.78280257267901
FR_04005,Allons,6.597875061681157,43.97443577916019
FR_04006,Allos,6.61554268728264,44.251303485035926
FR_04007,Angles,6.56202417787772,43.945715851915445
FR_04008,Annot,6.666226769413588,43.96659540288906
FR_04009,Archail,6.33303857628355,44.13261427310182
FR_04012,Aubenas-les-Alpes,5.679118378322025,43.93892115875537
FR_04013,Aubignosc,5.965157196712992,44.12880424601203
FR_04016,Authon,6.130530241866152,44.23883047595623
FR_04017,Auzet,6.316491625846749,44.295220719024556
FR_04018,Banon,5.633903779275702,44.03738249467189
FR_04019,Barcelonnette,6.644869679438498,44.38825674320749
FR_04020,Barles,6.266412593758071,44.259619530962624
FR_04021,Barras,6.097168773064256,44.071861397921005
FR_04022,Barrême,6.368004157971993,43.9559746525934
FR_04023,Bayons,6.16114942227247,44.33758359007759
FR_04024,Beaujeu,6.367278955784546,44.20024474287817
FR_04025,Beauvezer,6.591867076545978,44.15140793635873
FR_04026,Bellaffaire,6.192484036672647,44.410920362304694
FR_04027,Bevons,5.88604671527111,44.17378785754151
FR_04028,Beynes,6.202330002205353,43.993945791068654
FR_04030,Blieux,6.367568947269312,43.869108699628235
FR_04031,Bras-d'Asse,6.131144813568999,43.922329283044704
FR_04032,Braux,6.696982329996699,43.986386748837795
FR_04033,Ubaye-Serre-Ponçon,6.24269028677286,44.46380822544957
FR_04034,La Brillanne,5.891330208264531,43.93006601447267
FR_04035,Brunet,6.033151457476203,43.88929462699344
FR_04036,Le Brusquet,6.304526028815096,44.16072956565013
FR_04037,Le Caire,6.060339311149176,44.370939044732474
FR_04039,Castellane,6.508329065633253,43.84722736399434
FR_04040,Le Castellard-Mélan,6.132817135344006,44.18453704109305
FR_04041,Le Castellet,5.97752196564796,43.93698475817012
FR_04042,Castellet-lès-Sausses,6.758894876802674,43.99250432082732
FR_04043,Val-de-Chalvagne,6.758426725589991,43.90264644978148
FR_04045,Céreste,5.587246162570401,43.85486930652554
FR_04046,Le Chaffaut-Saint-Jurson,6.146525549785434,44.03892197720353
FR_04047,Champtercier,6.165222505934795,44.08494694986151
FR_04049,Château-Arnoux-Saint-Auban,6.000302062267401,44.082858132435774
FR_04050,Châteaufort,6.0307921244656555,44.28936467697105
FR_04051,Châteauneuf-Miravail,5.735392870478736,44.16784281636165
FR_04053,Châteauneuf-Val-Saint-Donat,5.951430549653409,44.0921540871047
FR_04054,Châteauredon,6.2094356104649036,44.014308234764975
FR_04055,Chaudon-Norante,6.3158566661113404,43.98316050549765
FR_04057,Clamensane,6.06328391424037,44.32189437025095
FR_04058,Claret,5.94878917375341,44.382513643721715
FR_04059,Clumanc,6.380067821547047,44.02520130778906
FR_04061,Colmars,6.618378410683757,44.176588795340415
FR_04062,La Condamine-Châtelard,6.744748126090991,44.45741212949726
FR_04063,Corbières,5.754408984976347,43.76283564510812
FR_04065,Cruis,5.834531906122167,44.06333062438558
FR_04066,Curbans,6.020652254433481,44.41910206804458
FR_04067,Curel,5.683302832370072,44.17076372481843
FR_04068,Dauphin,5.784556841732578,43.899279968137975
FR_04069,Demandolx,6.556131813429575,43.85964550501108
FR_04070,Digne-les-Bains,6.222921472264664,44.09009578392229
FR_04072,Draix,6.339359226996576,44.13608014034597
FR_04073,Enchastrayes,6.677387104478048,44.38581969486742
FR_04074,Entrages,6.269322497395095,44.04158946538954
FR_04075,Entrepierres,5.981830000792924,44.17941226616933
FR_04076,Entrevaux,6.807368952408209,43.95394645918534
FR_04077,Entrevennes,6.0284925939021905,43.9361656203485
FR_04079,L'Escale,6.019693466647063,44.079099950586134
FR_04081,Esparron-de-Verdon,5.97192808921914,43.74113359238107
FR_04084,Estoublon,6.177017561410086,43.94170787300477
FR_04085,Faucon-du-Caire,6.095900303485336,44.39900060579708
FR_04086,Faucon-de-Barcelonnette,6.666624423987613,44.395860851007846
FR_04087,Fontienne,5.798472604885882,44.00816163777362
FR_04088,Forcalquier,5.777737288867571,43.95887889670094
FR_04090,Le Fugeret,6.646170927806058,44.0029926874549
FR_04091,Ganagobie,5.919743739053027,43.98828035141402
FR_04092,La Garde,6.5648164774322115,43.82509703580717
FR_04093,Gigors,6.159556244165296,44.4194217712584
FR_04094,Gréoux-les-Bains,5.8823922252218415,43.758276177450696
FR_04095,L'Hospitalet,5.6964437846102705,44.094169219195265
FR_04096,Jausiers,6.7340002631283875,44.41619250171097
FR_04097,La Javie,6.34745876002531,44.174176283590754
FR_04099,Lambruisse,6.4440096224053685,44.04888847848213
FR_04101,Lardiers,5.707577537239213,44.05840207252835
FR_04102,Le Lauzet-Ubaye,6.4330604669236715,44.42863811233443
FR_04104,Limans,5.726784593026839,43.98613599874204
FR_04106,Lurs,5.882603846587193,43.96526454590645
FR_04107,Majastres,6.283219649190431,43.897721483391535
FR_04108,Malijai,6.032691289232001,44.04543997357486
FR_04109,Mallefougasse-Augès,5.89467785200847,44.06616794585493
FR_04110,Mallemoisson,6.13196185043736,44.04546953196068
FR_04111,Mane,5.765901127274454,43.94287092036468
FR_04112,Manosque,5.784216712131802,43.83145816142892
FR_04113,Marcoux,6.277415682986596,44.12978865398768
FR_04115,Méailles,6.6326888559725905,44.020852309928955
FR_04116,Les Mées,5.977135715910327,44.03019991727525
FR_04118,Melve,5.987294771517446,44.35152102594858
FR_04120,Val d'Oronaye,6.822082376238093,44.46352259026996
FR_04121,Mézel,6.198386627548355,43.99744914160759
FR_04122,Mirabeau,6.092788495920281,44.06312003174429
FR_04123,Mison,5.860490245882675,44.26087281770306
FR_04124,Montagnac-Montpezat,6.0990780423710715,43.776179926907965
FR_04126,Montclar,6.338326467624197,44.40135505083916
FR_04127,Montfort,5.971937948406302,44.06193505698036
FR_04128,Montfuron,5.698419841798491,43.83357473130764
FR_04129,Montjustin,5.670330259323895,43.85703302796926
FR_04130,Montlaux,5.848579148962563,44.0444160081897
FR_04132,Montsalier,5.618856574532811,44.02924689005796
FR_04133,Moriez,6.493545270931882,43.95880047480957
FR_04134,La Motte-du-Caire,6.025228692896338,44.342120880357804
FR_04135,Moustiers-Sainte-Marie,6.220333335060135,43.84380045037274
FR_04136,La Mure-Argens,6.513589079796398,43.97356901177675
FR_04137,Nibles,6.015746561836132,44.281412576730766
FR_04138,Niozelles,5.841396045529217,43.93763519054929
FR_04139,Noyers-sur-Jabron,5.826005781233507,44.17110219240243
FR_04140,Les Omergues,5.613002456839067,44.1714183555526
FR_04141,Ongles,5.726739338469449,44.02512105585219
FR_04142,Oppedette,5.592152893390085,43.93570671873971
FR_04143,Oraison,5.915201597018857,43.9156635338603
FR_04144,La Palud-sur-Verdon,6.339060221496279,43.77793993743129
FR_04145,Peipin,5.958820503326259,44.135892754472216
FR_04148,Peyroules,6.662209838938847,43.810320650275955
FR_04149,Peyruis,5.950274801093908,44.03153178332044
FR_04150,Piégut,6.128394703331086,44.45548691076468
FR_04151,Pierrerue,5.833708226787771,43.956891415394
FR_04152,Pierrevert,5.749036599708934,43.81258504664907
FR_04154,Pontis,6.358238243625716,44.50452684573648
FR_04155,Prads-Haute-Bléone,6.442835389081203,44.20945396003768
FR_04156,Puimichel,6.012994202344514,43.96440230985419
FR_04157,Puimoisson,6.130747178384915,43.865386494403566
FR_04158,Quinson,6.04108308979507,43.70297114012279
FR_04159,Redortiers,5.612552460567561,44.08298304051661
FR_04160,Reillanne,5.659978699944367,43.88114119836762
FR_04161,Méolans-Revel,6.514468028948584,44.40396282536468
FR_04162,Revest-des-Brousses,5.676322196866428,43.975725190886095
FR_04163,Revest-du-Bion,5.544641628911588,44.08006857817604
FR_04164,Revest-Saint-Martin,5.830169554100208,44.01788263950457
FR_04166,Riez,6.097160654009711,43.81928202615843
FR_04167,La Robine-sur-Galabre,6.216332351399095,44.17651184644072
FR_04169,La Rochegiron,5.674408962357291,44.08433181922227
FR_04170,La Rochette,6.883895349786832,43.91172604305516
FR_04171,Rougon,6.3954236658951125,43.79652124142869
FR_04172,Roumoules,6.127508864892818,43.82297173117741
FR_04173,Saint-André-les-Alpes,6.50908373125013,43.968671562293814
FR_04174,Saint-Benoît,6.724683106709993,43.96878840823053
FR_04175,Sainte-Croix-à-Lauze,5.619003811939211,43.909310280141305
FR_04176,Sainte-Croix-du-Verdon,6.151140103906792,43.76057341386848
FR_04177,Hautes-Duyes,6.165824619592481,44.183065071703226
FR_04178,Saint-Étienne-les-Orgues,5.782825812187916,44.04359120210511
FR_04179,Saint-Geniez,6.053794743817654,44.241923367262316
FR_04180,Saint-Jacques,6.375022350685567,43.967166613738044
FR_04181,Saint-Jeannet,6.116321158498346,43.969054667678975
FR_04182,Saint-Julien-d'Asse,6.0847038319240765,43.9182427971603
FR_04183,Saint-Julien-du-Verdon,6.539471924606992,43.91357435451668
FR_04184,Saint-Jurs,6.2017190696036035,43.89723741627243
FR_04186,Saint-Laurent-du-Verdon,6.061366822418931,43.71843868359066
FR_04187,Saint-Lions,6.394645981609806,43.97744278960513
FR_04188,Saint-Maime,5.795193261990045,43.90020191418022
FR_04189,Saint-Martin-de-Brômes,5.942846961438532,43.770368593114384
FR_04190,Saint-Martin-les-Eaux,5.734607034517364,43.87032323765591
FR_04191,Saint-Martin-lès-Seyne,6.26238912533323,44.39014006123691
FR_04192,Saint-Michel-l'Observatoire,5.718893045299493,43.90794910812656
FR_04193,Saint-Paul-sur-Ubaye,6.760241656068626,44.52049431059535
FR_04194,Saint-Pierre,6.925694632975844,43.91253590332909
FR_04195,Saint-Pons,6.632437695213078,44.39052111506197
FR_04197,Sainte-Tulle,5.76488839660169,43.79011032094545
FR_04199,Saint-Vincent-sur-Jabron,5.7460525265874995,44.167938421142324
FR_04200,Salignac,5.980001438884363,44.15305398549692
FR_04201,Saumane,5.692734076366265,44.09008806250728
FR_04202,Sausses,6.783551537129884,44.00721867569644
FR_04203,Selonnet,6.3101452863666525,44.375303558290746
FR_04204,Senez,6.40324175301575,43.913426700036084
FR_04205,Seyne,6.358768110135229,44.35219490901856
FR_04206,Sigonce,5.8377212706271635,43.99881590359028
FR_04207,Sigoyer,5.9542112373907745,44.32133086056242
FR_04208,Simiane-la-Rotonde,5.563890042067091,43.98283470509009
FR_04209,Sisteron,5.944669739373734,44.19108626791476
FR_04210,Soleilhas,6.655896932365231,43.85914781840678
FR_04211,Sourribes,6.013174406861121,44.14980681157927
FR_04214,Tartonne,6.390419568050585,44.06494334338731
FR_04216,Thèze,5.924217086989892,44.31996493689587
FR_04217,Thoard,6.145814061053324,44.14584124798287
FR_04218,Thorame-Basse,6.494529780843252,44.087949166153265
FR_04219,Thorame-Haute,6.554767019129971,44.09885803760356
FR_04220,Les Thuiles,6.5712568644470135,44.39565703243122
FR_04222,Turriers,6.171105579954181,44.4010818489879
FR_04224,Ubraye,6.695782972345082,43.906991052936434
FR_04226,Uvernet-Fours,6.618814123137849,44.372068238682814
FR_04227,Vachères,5.6420151166150765,43.929769822697935
FR_04228,Valavoire,6.058322403895474,44.297174378701826
FR_04229,Valbelle,5.88214031860276,44.148309584781934
FR_04230,Valensole,5.983387529988074,43.83562698907038
FR_04231,Valernes,5.947429036803493,44.24775895763079
FR_04233,Vaumeilh,5.937791657364376,44.279619319428555
FR_04234,Venterol,6.09541121042092,44.46345164230064
FR_04235,Verdaches,6.3431866192716395,44.263815188488664
FR_04236,Vergons,6.605516653545343,43.91732244944968
FR_04237,Le Vernet,6.393761511861574,44.275163570821924
FR_04240,Villars-Colmars,6.606132354978486,44.16615534778258
FR_04241,Villemus,5.6974955751903,43.85781758321626
FR_04242,Villeneuve,5.855511265511799,43.88412540973019
FR_04244,Volonne,6.014258380822078,44.107350268064934
FR_04245,Volx,5.844467455212652,43.87484777889318
FR_05001,Abriès,6.927751293418096,44.797827736920155
