gisco_id,lau_name,longitude,latitude
RO_100004,Victoria,27.59482990833345,47.29639316513328
RO_10006,Birchis,22.18763587180659,45.974257969705015
RO_100086,Vânători,26.756999613435013,47.32806672530867
RO_100148,Vlădeni,27.334535827267747,47.42326751022077
RO_100219,Voineşti,27.419310827794956,47.06769722124926
RO_100273,Balş,26.97266369858039,47.28190042770166
RO_100282,Costeşti,26.92780984909155,47.23584904673109
RO_100308,Draguşeni,27.497290200757572,46.89663778799428
RO_100317,Fântânele,27.18239414303931,47.41137129848126
RO_100326,Hărmăneşti,26.80162270861716,47.266390680295096
RO_100335,Rachiţeni,26.911597619005224,47.05245384431012
RO_100344,Roşcani,27.422565681141855,47.43605952597105
RO_100353,Valea Lupului,27.512079117800138,47.17905712842168
RO_100362,Ciohorani,26.6868122443796,47.13611189315721
RO_10051,Bârsa,22.054130686496098,46.38498961854313
RO_100521,Municipiul Giurgiu,25.96900230215682,43.90261080942633
RO_100549,Slobozia,25.91241105418424,43.85865107683685
RO_100576,Oraş Buftea,25.942886212119436,44.56729087155585
RO_100610,Municipiul Olteniţa,26.64206519911271,44.090425503750176
RO_100638,Mitreni,26.619232022553106,44.17660688589384
RO_100683,Municipiul Urziceni,26.635679213565226,44.71655917247376
RO_100709,Ciocârlia,26.67239716732565,44.792674070628465
RO_100736,Manasia,26.65784062104771,44.71261642152948
RO_100754,Adâncata,26.444095396002442,44.762454635174
RO_100781,Adunaţii-Copăceni,26.040573948393885,44.27569250846071
RO_100834,Afumaţi,26.223840901953146,44.51151092116799
RO_100852,Alexeni,26.722217325090302,44.67515447740889
RO_100870,Armăşeşti,26.581059887744257,44.76942329018875
RO_100923,Axintele,26.778366333444833,44.60879147996081
RO_100969,Baloteşti,26.087009411831236,44.6155323250941
RO_101001,Băneasa,26.06966257566034,44.04663336361945
RO_10104,Bârzava,22.021409011692892,46.105933684176996
RO_101056,Bărcăneşti,26.668544767862873,44.6308265853332
RO_101083,Belciugatele,26.423870689427762,44.48470321143202
RO_101145,Berceni,26.185331169593578,44.3139126281235
RO_101163,Bolintin-Deal,25.821853902812865,44.45124981762867
RO_101190,Oraş Bolintin-Vale,25.757291263782722,44.44814791109644
RO_101243,Radulesti,26.35546074318574,44.76497969570437
RO_101298,Brăneşti,26.33788965584967,44.4622933513333
RO_101341,Brezoaele,25.7612454314698,44.56664661281417
RO_101378,Bucşani,25.660592986102948,44.36378939115246
RO_101458,Oraş Budeşti,26.465334849372972,44.23726798767962
RO_101519,Bulbucata,25.817470470300357,44.28442085175198
RO_101564,Butimanu,25.89008402064099,44.69765196795929
RO_101617,Buturugeni,25.82565808057058,44.35079544843858
RO_101662,Calugăreni,25.975252375006683,44.16588468035269
RO_1017,Municipiul Alba Iulia,23.56320330453249,46.07433814986182
RO_101724,Căscioarele,26.467032591870908,44.127295808009855
RO_101742,Cernica,26.223656036448588,44.426433020211476
RO_101804,Chirnogi,26.6224828474639,44.09109469163498
RO_101822,Chiselet,26.854712074635675,44.16853011126198
RO_101840,Ciocăneşti,25.851898974999152,44.61571187975018
RO_101902,Ciolpani,26.09699456055104,44.72279791579065
RO_10195,Bocsig,21.9547974550534,46.421506384438494
RO_101957,Ciorogârla,25.87886807402461,44.43373186518861
RO_101984,Clejani,25.713801253419827,44.315150423272954
RO_102035,Clinceni,25.953673968840665,44.37881484062523
RO_102071,Colibaşi,26.201720806574304,44.22565383425014
RO_102106,Comana,26.14664657235453,44.17181949653231
RO_102160,Corbeanca,26.03031701316229,44.592326564549985
RO_102213,Cornetu,25.928710038515717,44.34571821064129
RO_102240,Coşereni,26.560329137752113,44.68538843167029
RO_102286,Crevedia,25.93436710407592,44.57610724415456
RO_102348,Crevedia Mare,25.6218829686796,44.42820865313679
RO_10239,Brazii,22.317871692921067,46.226908488104826
RO_102419,Curcani,26.588178990869366,44.19961150793625
RO_102446,Daia,25.989746217372637,44.00040165906624
RO_102473,Dascălu,26.234131203779047,44.60286234954691
RO_102525,Dărăşti-Ilfov,26.01886996416564,44.310785587382505
RO_102543,1 Decembrie,26.055109165331945,44.28846852856663
RO_102570,Domneşti,25.916616009493186,44.40246992266239
RO_102605,Dragomireşti-Vale,25.94058774623768,44.46743435086905
RO_102641,Drăgoeşti,26.538609581608068,44.56756218234606
RO_102703,Dridu,26.45388890592086,44.68996033780857
RO_102749,Oraş Fierbinţi-Târg,26.38712276143084,44.682526177523066
RO_102794,Floreşti-Stoeneşti,25.707779223558735,44.494151550051946
RO_102838,Frăsinet,26.819750426049502,44.31309150677704
RO_102909,Frăteşti,25.972542580560344,43.959198066395246
RO_10293,Buteni,22.114473321669234,46.32967830870237
RO_102945,Frumuşani,26.32127588230614,44.30637219897108
RO_103014,Fundeni,26.31460084021873,44.398464741685956
RO_103032,Oraş Fundulea,26.507048915998187,44.4652477550938
RO_103087,Găiseni,25.632941069251558,44.50672008916459
RO_103130,Găneasa,26.305425337980573,44.50119482323235
RO_103194,Găujani,25.695698594726387,43.732083268024205
RO_103238,Ghimpaţi,25.77591525461598,44.18700396397249
RO_103283,Gârbovi,26.76457046150208,44.787105009869784
RO_103309,Gogoşari,25.688571110045412,43.86729536738192
RO_103354,Gostinu,26.11746562210427,43.995828819034365
RO_103372,Gostinari,26.22377486282091,44.1866301583971
RO_103407,Grădinari,25.815570463860876,44.39628472356572
RO_103443,Grădiştea,26.30797482335112,44.66466616253722
RO_10346,Cărand,22.064889621161687,46.45370378268102
RO_103470,Greaca,26.339765230201305,44.11417947158392
RO_103513,Gruiu,26.21638798923315,44.7269415600799
RO_103568,Gurbănesti,26.697734625582836,44.37766714537035
RO_103639,Hotarele,26.369258934876687,44.16565117280667
RO_103693,Iepureşti,25.868785203499673,44.2670205280724
RO_10373,Cermei,21.84674736127004,46.55383258553754
RO_103764,Ileana,26.667845167361417,44.512798238469266
RO_103862,Ion Roată,26.76209406996174,44.66389809415789
RO_103899,Izvoarele,25.780772647403687,44.04462443449526
RO_103960,Jilavele,26.529918159090798,44.76654331370172
RO_103997,Joiţa,25.868692127580815,44.49107069149585
RO_104047,Letca Nouă,25.709516766822748,44.24056500718783
RO_104083,Luica,26.588673448992054,44.23295065204021
RO_104118,Mihai Bravu,26.051427236204237,44.14267392485512
RO_104136,Oraş Mihăileşti,25.92123609943462,44.318693419901045
RO_10417,Chisindia,22.09682256253181,46.28730618077289
RO_104181,Mânăstirea,26.89590152940977,44.221127079517444
RO_104225,Mârşa,25.56698973470906,44.37728867816797
RO_104243,Moara Vlăsiei,26.206371595298243,44.63928646367608
RO_104270,Moviliţa,26.483833536676446,44.63897153224679
RO_104323,Nana,26.59309250418086,44.2658756287884
RO_104341,Nicolae Bălcescu,26.749223610839106,44.44535500890976
RO_104387,Niculeşti,25.964716322924414,44.69156684211722
RO_104421,Nuci,26.313260261065906,44.7143820675838
RO_104485,Ogrezeni,25.77214973898723,44.415881715372784
RO_104519,Oinacu,26.02023535494119,43.95707830722475
RO_10453,Conop,21.85663107708826,46.10022925803003
RO_104546,Periş,26.00326464886207,44.686116379116775
RO_104582,Petrăchioaia,26.312638209768856,44.577568046166185
RO_104635,Plătăreşti,26.377251517766396,44.351187418175044
RO_104680,Prundu,26.239167675880918,44.09079184106443
RO_104715,Putineiu,25.77032215697319,43.900022559844714
RO_104751,Radovanu,26.51938732015618,44.19390367217389
RO_104788,Răsuceni,25.691858870906675,44.08782211037439
RO_104831,Roata de Jos,25.509774488200563,44.42066210333444
RO_104886,Săruleşti,26.653201301368362,44.43509085285467
RO_104975,Schitu,25.84076041978444,44.14474548297231
RO_105026,Sineşti,26.38248954836509,44.56195331126991
RO_105106,Singureni,25.949857845386997,44.23009020794793
RO_10514,Covăsinţ,21.608682921496328,46.2012563902059
RO_105142,Slobozia Moară,25.728457935198758,44.59891729751173
RO_105160,Snagov,26.143746248986535,44.69606066075299
RO_105222,Sohatu,26.485385916401967,44.3304660993972
RO_105259,Spanţov,26.803970893095197,44.136046463613766
RO_105295,Stăneşti,25.86478958252736,43.9279511783425
RO_10532,Craiva,21.976923149026323,46.57734463187695
RO_105348,Stoeneşti,25.892470500495676,44.14681818721484
RO_105384,Şoldanu,26.493835989095615,44.23301874607133
RO_105419,Ştefăneştii de Jos,26.198298845097327,44.53072547737338
RO_105455,Tămădău Mare,26.574065286995243,44.46236485304215
RO_105534,Tărtăşeşti,25.79112711185293,44.594325757097
RO_105570,Tunari,26.13976535359625,44.54768464503615
RO_105605,Ulmeni,26.71248727131049,44.14280271426157
RO_105623,Ulmi,25.76119387649691,44.4924122158479
RO_105712,Valea Argovei,26.78535951325394,44.35765437638783
RO_105776,Valea Dragului,26.297462050610175,44.20799248416893
RO_105794,Valea Măcrişului,26.831133360490924,44.74011492107349
RO_105829,Vasilaţi,26.42324956051233,44.30112297043942
RO_105874,Vărăşti,26.238084365304147,44.23965390842366
RO_105909,Vedea,25.785753247339926,43.77915209364142
RO_105936,Vidra,26.15023081346195,44.27952732876707
RO_105972,Vânătorii Mici,25.551290824424495,44.49493809986167
RO_106318,Municipiul Baia Mare,23.564262119180786,47.65131976064738
RO_106363,Groşi,23.58178868674921,47.63510200106207
RO_106407,Recea,23.496794207167596,47.63255620736874
RO_106461,Oraş Tăuţii-Măgherăuş,23.468206459614887,47.68180892930067
RO_10649,Dezna,22.237269207308316,46.40569089256058
RO_106559,Municipiul Sighetu Marmaţiei,23.89212233707971,47.92727503069443
RO_106620,Sarasău,23.82395827060596,47.955005490021065
RO_106648,Vadu Izei,23.932942771051753,47.885659977353335
RO_106684,Oraş Baia Sprie,23.686653560431274,47.66042037340815
RO_106746,Oraş Borşa,24.68227997117117,47.65864412922256
RO_106782,Oraş Cavnic,23.82658247555075,47.6464882635628
RO_106817,Oraş Târgu Lăpuş,23.870932575564627,47.451923174933356
RO_106979,Oraş Vişeu de Sus,24.432195289605755,47.710579780706006
RO_107001,Ardusat,23.361222543172037,47.64260149385004
RO_10701,Dieci,22.24204781474024,46.31810504298748
RO_107047,Ariniş,23.223197156112985,47.503593763989315
RO_107083,Asuaju de Sus,23.18731655295318,47.562624302146396
RO_1071,Ciugud,23.621672636081716,46.0677329083327
RO_107118,Băiţa de sub Codru,23.148220627258862,47.52535551918188
RO_107154,Băiuţ,23.996184876937996,47.6126338199791
RO_107190,Băseşti,23.111626555645444,47.492707042587945
RO_107234,Bicaz,23.02404762430639,47.462800086303915
RO_107270,Bistra,24.18984278925923,47.87120490254586
RO_107314,Bârsana,24.063012769566097,47.81374052176646
RO_107350,Bocicoiu Mare,23.97845953775746,47.947688556461046
RO_107403,Bogdan Vodă,24.27184604395237,47.693535863002325
RO_107430,Boiu Mare,23.56995415501321,47.40057145194913
RO_107485,Botiza,24.14483752175809,47.66681727414174
RO_107519,Budeşti,23.944223633773927,47.735541199178215
RO_107546,Călineşti,23.976554191641803,47.787923153360424
RO_107582,Cerneşti,23.775904134342298,47.54176278401392
RO_10765,Ususau,21.830764942778845,46.05669504386118
RO_107662,Cicârlău,23.37807322683611,47.70435229449654
RO_107715,Câmpulung la Tisa,23.763723510472918,47.98423282202481
RO_107733,Copalnic-Mănăştur,23.688773210021097,47.52034481594089
RO_107868,Coroieni,23.77662801193988,47.384165937358404
RO_107920,Cupşeni,23.959553554670546,47.52534190240905
RO_107975,Deseşti,23.849903559471286,47.76390727319158
RO_108017,Oraş Dragomiresti,24.29390359049102,47.66640306474907
RO_108035,Dumbrăviţa,23.646785254695804,47.59921206474468
RO_108106,Fărcaşa,23.349600567444526,47.58429889051105
RO_108151,Giuleşti,23.925326285627726,47.82641457078465
RO_108204,Ieud,24.23390713802635,47.674528268986975
RO_108222,Lăpuş,24.008566771771417,47.497173108598375
RO_108240,Leordina,24.270115210818936,47.78356720670644
RO_108268,Mireşu Mare,23.351547740787343,47.50618616724072
RO_10827,Felnac,21.147091551969016,46.11828955742166
RO_108348,Moisei,24.562875176170383,47.655560668825004
RO_108366,Oarţa de Jos,23.10723266353164,47.46153840849835
RO_108400,Ocna Şugatag,23.919669217747536,47.77916298284937
RO_108455,Petrova,24.212957570201052,47.832288084589116
RO_108473,Poienile de Sub Munte,24.439821139689247,47.82325001874106
RO_108491,Remetea Chioarului,23.529333206927472,47.52248537844206
RO_108552,Remeţi,23.633277119875874,47.98737438996876
RO_108598,Repedea,24.39421777113129,47.829923342449874
RO_108614,Rona de Jos,24.012426233345774,47.92338530710266
RO_108632,Rona de Sus,24.038263451130423,47.89863464691595
RO_108669,Rozavlea,24.21633699078801,47.731578940133765
RO_108696,Ruscova,24.28086284532352,47.793117042223834
RO_108712,Satulung,23.411742176256546,47.57126460644465
RO_10872,Ghioroc,21.59471669930829,46.151516759714475
RO_108794,Săcălăşeni,23.571675088695574,47.574969060217626
RO_108874,Săcel,24.44036511430091,47.635561564229235
RO_108892,Oraş Săliştea de Sus,24.3522693150221,47.6576566609575
RO_108918,Sălsig,23.297328698562552,47.52378288732919
RO_108945,Săpânţa,23.6949262753686,47.970226858858375
RO_108963,Oraş Seini,23.28843703220525,47.74850571352987
RO_109005,Strâmtura,24.125426383126673,47.76733186385892
RO_109041,Suciu de Sus,24.03172304138508,47.43557840376525
RO_109096,Şişeşti,23.773297087264943,47.63183186099385
RO_10916,Grăniceri,21.331656437221515,46.508050863462884
RO_109176,Oraş Şomcuţa Mare,23.46863985325388,47.49626928620759
RO_109265,Oraş Ulmeni,23.292499682043413,47.45828865867168
RO_109354,Valea Chioarului,23.44653206565259,47.4102167403383
RO_109425,Vima Mică,23.699381987702132,47.40963312181803
RO_10943,Gurahonţ,22.33616602367824,46.27570457103077
RO_109504,Vişeu de Jos,24.365114289908668,47.72688198912855
RO_109773,Municipiul Drobeta-Turnu Severin,22.657198193729783,44.63679945094922
RO_109826,Şimian,22.701101845465843,44.62843867917797
RO_109924,Oraş Baia de Aramă,22.80503008376793,45.00139164529473
RO_110027,Obârşia-Cloşani,22.683909717180367,45.02257702006568
RO_110063,Municipiul Orşova,22.396904577288,44.72578073629635
RO_110116,Oraş Strehaia,23.188197468164137,44.62302739366898
RO_110232,Oraş Vânju Mare,22.87479392493331,44.4259588117303
RO_110296,Bala,22.823186071645438,44.88438188857999
RO_110456,Balta,22.605117168321378,44.91524413453561
RO_110535,Bălăciţa,23.12961815272858,44.387935437248714
RO_110571,Bâcleş,23.140101392660327,44.47349052046484
RO_11058,Hălmagiu,22.582783312645287,46.26859443473127
RO_110688,Bâlvăneşti,22.683664105242386,44.784807687635286
RO_110740,Brezniţa-Motru,23.21850974099038,44.56491658032194
RO_110820,Brezniţa-Ocol,22.638462566384934,44.65008333466878
RO_110875,Broşteni,22.970344376864706,44.78660678362297
RO_110946,Burila Mare,22.563086378201138,44.471084683955894
RO_111006,Butoieşti,23.37802654068525,44.56749795419786
RO_111097,Căzăneşti,22.92916196472229,44.69870511785881
RO_111220,Cireşu,22.53189570422389,44.81690603314335
RO_111275,Corcova,23.068748251526923,44.68472008833222
RO_111417,Corlăţel,22.929462664504793,44.385055332571284
RO_111444,Cujmir,22.929347360292038,44.20711565785451
RO_111480,Devesel,22.671160946232003,44.467848617044154
RO_111550,Dârvari,23.065052473342234,44.18195575741582
RO_111587,Dumbrava,23.176362790623315,44.51287564466063
RO_111685,Floreşti,22.91380858213331,44.78623233688551
RO_11174,Hălmăgel,22.626145227245487,46.27264136727571
RO_111783,Gârla Mare,22.773730155685985,44.21270072314913
RO_111818,Godeanu,22.61523272103774,44.80760156825093
RO_111863,Gogoşu,22.573392213380167,44.3772963211273
RO_111916,Greci,23.12834547047277,44.57213406753563
RO_111989,Grozeşti,23.291525793902967,44.65021324734934
RO_112030,Gruia,22.696041094011186,44.277371535348905
RO_112076,Hinova,22.77674967152232,44.561469147095416
RO_112129,Husnicioara,22.860039680247617,44.663813892035115
RO_112245,Eşelniţa,22.362080718272033,44.70220609956532
RO_112263,Ilovăţ,22.755263789963994,44.81321449058569
RO_112334,Iloviţa,22.481850694362812,44.7625609240959
RO_11236,Hăşmaş,22.071882349385294,46.520619944060975
RO_112370,Isverna,22.67224534995886,44.96311077699246
RO_112469,Izvoru Bârzii,22.6724553648535,44.696880455277906
RO_112548,Jiana,22.706675327939607,44.385497005405185
RO_112600,Livezile,22.862385398649433,44.522690304136304
RO_112664,Malovăţ,22.735331835028166,44.71347676544361
RO_112744,Obârşia de Câmp,22.964683392012212,44.17691850877899
RO_112771,Oprişor,23.075912113328638,44.288321654568506
RO_112806,Pădina,23.021909253347232,44.434536879925545
RO_112879,Pătulele,22.7823994775913,44.34594166109802
RO_112904,Dubova,22.227691496032843,44.60000382292493
RO_112959,Podeni,22.541642163036716,44.88716037688687
RO_112995,Ponoarele,22.754968921523123,44.977487001157435
RO_11307,Igneşti,22.174853460289334,46.43500453632082
RO_113153,Poroina Mare,22.97187851460794,44.49139317282
RO_113206,Pristol,22.709780977690112,44.23604308651812
RO_113233,Prunişor,22.906734474841905,44.61142283512356
RO_113395,Punghina,22.92524015504292,44.305800881729056
RO_113466,Rogova,22.80171768741214,44.462938781414444
RO_113493,Salcia,22.92668795897402,44.142983274747415
RO_113518,Stângăceaua,23.29965317197846,44.59828957945028
RO_11352,Iratoşu,21.201834323747605,46.30855662054596
RO_113607,Sviniţa,22.101936544237535,44.50095554528917
RO_113625,Şişeşti,22.8336045011653,44.76959647754797
RO_113698,Şovarna,22.820098547640892,44.85301148575319
RO_113732,Tâmna,23.020653290583436,44.56444787773314
RO_113849,Vânători,22.934015970484907,44.245121846645645
RO_113894,Vânjuleţ,22.790966018594546,44.44444118344003
RO_113929,Vlădaia,23.030339079134322,44.36827381764699
RO_113974,Voloiac,23.07143373009767,44.63484648756215
RO_11398,Macea,21.32180430283382,46.38634593975614
RO_114060,Braniştea,22.969277406452893,44.23908870273017
RO_114079,Vrata,22.84876256533922,44.19181268245779
RO_11423,Mişca,21.650473833935592,46.616771342771806
RO_114319,Municipiul Târgu Mureş,24.56727048985318,46.53885610576987
RO_114355,Cristeşti,24.484715356651055,46.500985980174235
RO_114382,Sâncraiu de Mureş,24.529647720391043,46.54649684720627
RO_114417,Sângeorgiu de Mureş,24.60319570740355,46.57426486934933
RO_114453,Sântana de Mureş,24.559339788621497,46.570385516738206
RO_114514,Municipiul Sighişoara,24.80716246509191,46.226456807046524
RO_114603,Albeşti,24.84329617604245,46.23797002446836
RO_114710,Oraş Luduş,24.095064402675316,46.4725456685258
RO_11478,Moneasa,22.25832888385437,46.45497495780075
RO_114809,Municipiul Reghin,24.70238991631161,46.77644935820648
RO_114854,Oraş Sovata,25.066988207472043,46.595137030976275
RO_114925,Municipiul Târnăveni,24.29151212211285,46.328904233959044
RO_114970,Acăţari,24.64452262620536,46.46591467852574
RO_11502,Olari,21.530044707665258,46.36769556527771
RO_115076,Adămuş,24.228340515716447,46.30442473595348
RO_1151,Oraş Abrud,23.076111639597986,46.2700894942567
RO_115147,Aluniş,24.81585634770081,46.89175502239323
RO_115183,Apold,24.790788180214484,46.15051507348938
RO_115236,Aţintiş,24.085030408690432,46.415328331116136
RO_115307,Bahnea,24.47709754091828,46.35537595000462
RO_115389,Band,24.36186767615678,46.58363471175684
RO_11539,Păuliş,21.552472443875935,46.13196642127326
RO_115520,Batoş,24.651574758967502,46.86498615420007
RO_115575,Băgaciu,24.355890917295945,46.26649285380237
RO_115600,Băla,24.498153040059204,46.71516290435889
RO_115637,Bălăuşeri,24.70063274408479,46.38781265604866
RO_115708,Beica de Jos,24.81712726255529,46.73018282124919
RO_115771,Bichiş,24.097742810631292,46.36125756533338
RO_115824,Bogata,24.103730183170335,46.46762464734817
RO_11584,Oraş Pecica,21.075947161384953,46.1723282361456
RO_115851,Breaza,24.615960114724317,46.76432730385146
RO_115897,Brâncoveneşti,24.780293776874537,46.88003545168375
RO_115959,Ceuaşu de Câmpie,24.504100099383113,46.63663406118104
RO_116046,Cheţani,24.00944181886071,46.46784820542215
RO_116126,Chiheru de Jos,24.924673634978742,46.69104076311173
RO_116171,Coroisânmărtin,24.583675774427967,46.40186619713409
RO_116224,Cozma,24.520178407161822,46.80256598427343
RO_116288,Crăciuneşti,24.57444121162035,46.47454611144214
RO_116340,Crăieşti,24.430992074843246,46.755193899821414
RO_11637,Peregu Mare,20.92798527019179,46.242471275536765
RO_116395,Cucerdea,24.25846421043091,46.40639930536464
RO_116439,Cuci,24.140366183121177,46.448090223158474
RO_116493,Daneş,24.69607089163622,46.225471647337876
RO_116545,Deda,24.874643967507428,46.949336872859604
RO_116590,Eremitu,24.919156346200896,46.65350874223003
RO_11664,Petriş,22.394163696513885,46.04807193966146
RO_116652,Ernei,24.640956063249508,46.62396478905376
RO_116723,Fărăgău,24.55177634803047,46.775074747656426
RO_116796,Fântânele,24.767727196912567,46.42145183653089
RO_116867,Găleşti,24.750834056719196,46.50865479835508
RO_116938,Găneşti,24.327046926364464,46.33025432779013
RO_116983,Gheorghe Doja,24.502972966284062,46.45767930155402
RO_117042,Ghindari,24.916599473574927,46.491437079102965
RO_117113,Glodeni,24.601441471565177,46.65568847812946
RO_117177,Gorneşti,24.668787337630445,46.68063627886957
RO_117275,Grebenişu de Câmpie,24.29304314434207,46.61260445794621
RO_117319,Gurghiu,24.89000310288624,46.79464514100981
RO_11735,Pilu,21.343871420310776,46.59252112350372
RO_117426,Hodac,24.93733659191543,46.77716097464497
RO_117505,Hodoşa,24.818108033159174,46.64955655512276
RO_117550,Ibăneşti,24.942714866041662,46.77195664071516
RO_11762,Pleşcuţa,22.44618756817628,46.28880080757406
RO_117667,Iclănzel,24.28397807886614,46.530691424297004
RO_117783,Ideciu de Jos,24.767744225905037,46.84114205085975
RO_117827,Oraş Iernut,24.235438247806524,46.448472688064015
RO_117925,Livezeni,24.640891605023224,46.54902887080541
RO_117998,Lunca,24.563206603019925,46.83438200541668
RO_118058,Lunca Bradului,25.11763468141075,46.95879955240096
RO_118094,Măgherani,24.90763103542713,46.57141907856222
RO_118209,Mica,24.415593578010753,46.34322816784433
RO_118281,Oraş Miercurea Nirajului,24.79758799527298,46.53508499993571
RO_118370,Miheşu de Câmpie,24.15975729764703,46.677198278686056
RO_11842,Săvârşin,22.242638644233416,46.0136290245001
RO_118469,Nadeş,24.722357014203567,46.33733176412697
RO_118511,Neaua,24.83756475195543,46.482906776930946
RO_118575,Ogra,24.315421421136246,46.44425474830267
RO_118637,Papiu Ilarian,24.196412791210605,46.55839815794865
RO_118691,Pănet,24.4601993545979,46.551256160907634
RO_118753,Păsăreni,24.703179928662735,46.48418708309546
RO_118799,Petelea,24.711087431256143,46.727469632020714
RO_118824,Pogăceaua,24.304310652845015,46.67230865064105
RO_118931,Răstoliţa,24.99101805240735,46.97662609078128
RO_118995,Rîciu,24.388192409128752,46.70772893922182
RO_119153,Ruşii-Munţi,24.832628308691454,46.913619875862885
RO_119206,Saschiz,24.969505385988892,46.19289055492652
RO_119242,Oraş Sărmaşu,24.164726345758787,46.75093621456381
RO_119331,Oraş Sângeorgiu de Pădure,24.8438445093488,46.4284087494128
RO_119386,Sânger,24.150915985815864,46.54852869215531
RO_11940,Secusigiu,21.00111002499595,46.10524352792145
RO_119466,Sânpaul,24.35308613133915,46.455280047887555
RO_119527,Sânpetru de Câmpie,24.25568236750472,46.72602270135827
RO_119590,Solovăstru,24.75287042367532,46.777449778401994
RO_119625,Stânceni,25.223246777103423,46.96034828756819
RO_119661,Suplac,24.495559128272063,46.382254027097524
RO_119723,Suseni,24.72654725685855,46.81864383576308
RO_119750,Şăulia,24.211345338875415,46.63911582648625
RO_119803,Şincai,24.380706451633127,46.65654974178248
RO_119858,Tăureni,24.079704036939045,46.583805325337934
RO_119894,Oraş Ungheni,24.45685147064657,46.486568038405665
RO_11995,Seleuş,21.722177972416556,46.38128050426935
RO_119974,Valea Largă,24.072975059514004,46.618850323739345
RO_120076,Vărgata,24.79949278149061,46.57718234702906
RO_120138,Vătava,24.7756768936193,46.9515110443672
RO_120174,Veţca,24.79896051476679,46.348318813698896
RO_120218,Viişoara,24.569970234345494,46.29799754272901
RO_120254,Vânători,24.947662442766813,46.239127915981705
RO_120316,Voivodeni,24.628119351344075,46.70732169855035
RO_120343,Zagăr,24.621833982716105,46.34357777289759
RO_12037,Semlac,20.92910667236019,46.11204601944048
RO_120370,Zau de Câmpie,24.130132342088306,46.611642504910485
RO_120478,Chibed,24.964616895717104,46.53189175030435
RO_120487,Corunca,24.59746721358749,46.523120526535074
RO_120496,Sărăţeni,25.016870797501344,46.56208631408614
RO_120502,Madaraş,24.420320442901023,46.608982383350494
RO_120511,Bereni,24.86836310467957,46.56648699233458
RO_12055,Sintea Mare,21.607528246599816,46.512606387691214
RO_120726,Municipiul Piatra Neamţ,26.375640744398126,46.931599932572226
RO_120771,Dumbrava Roşie,26.429599828421733,46.88857518802122
RO_120824,Săvineşti,26.475460859397966,46.85544879561314
RO_120860,Municipiul Roman,26.932839542777664,46.92509539079223
RO_120888,Cordun,26.85178488541093,46.99869720779861
RO_12091,Oraş Sântana,21.510420696602758,46.34740750747225
RO_120922,Horia,26.921433163186684,46.9133571895388
RO_120968,Oraş Bicaz,26.09012271663034,46.91893416859288
RO_121055,Oraş Târgu Neamţ,26.36416520838354,47.20485379594905
RO_121108,Agapia,26.284564815888103,47.159241939283575
RO_121153,Bahna,26.798117713797012,46.76035422890871
RO_121242,Bălţăteşti,26.29874223775736,47.12328052746594
RO_12126,Socodor,21.435142954143117,46.50976886039504
RO_121297,Bicaz-Chei,25.889688507149593,46.8322269935198
RO_1213,Municipiul Aiud,23.72204294139255,46.308508294045765
RO_121340,Bicazu Ardelean,25.916815741979285,46.86646292418575
RO_121386,Bira,27.026786203131792,47.03555249413373
RO_12144,Şagu,21.30142768229431,46.05713688220537
RO_121466,Bârgăuani,26.64562884134415,46.99593302737877
RO_121607,Bodeşti,26.42339478512396,47.034507317330636
RO_121652,Borca,25.78625991735271,47.18368937193395
RO_121732,Borleşti,26.5232609886454,46.78969637611957
RO_121796,Boteşti,26.759962774797213,47.06835228477011
RO_121876,Bozieni,27.18993071755921,46.82919171669299
RO_121938,Brusturi,26.362657034368386,47.285189928774436
RO_122025,Ceahlău,25.950007766769353,47.04184795951966
RO_12206,Şeitin,20.843777924633034,46.11011709454607
RO_122061,Cândeşti,26.58039064112418,46.72582183271126
RO_122132,Costişa,26.655852299260363,46.75883077010306
RO_122187,Crăcăoani,26.282972094992946,47.09861432340512
RO_12224,Şepreuş,21.737104450694513,46.56997828133308
RO_122249,Dămuc,25.906937948781177,46.78812527946988
RO_122285,Dobreni,26.413793190539174,47.00081766581318
RO_122347,Doljeşti,26.971134174482312,47.0059609883676
RO_122392,Dragomireşti,26.583524027571073,47.030410014583985
RO_12242,Şicula,21.753181543048136,46.450331649840784
RO_122463,Dulceşti,26.795095827221488,46.97267704234887
RO_122551,Farcaşa,25.8432614414512,47.154789550029555
RO_122613,Făurei,26.713879300792332,46.92828183398755
RO_122668,Gherăeşti,26.81951585288319,47.03467085510239
RO_122702,Girov,26.490099256936034,46.9501301873863
RO_122828,Gârcina,26.399480915282947,46.94682620113531
RO_122864,Grinţieş,25.878690285720598,47.03039751339663
RO_12288,Şilindia,21.91388774087437,46.341871058031515
RO_122908,Grumăzeşti,26.38686471160921,47.14622530216755
RO_122953,Hangu,26.051772766806042,47.05194055063209
RO_123013,Icuşeşti,27.0026658309956,46.80818150250411
RO_123102,Ion Creanga,26.99687986252833,46.86584504742821
RO_123175,Mărgineni,26.647132298712094,46.88935855303002
RO_123228,Moldoveni,26.789079744113092,46.82214246720683
RO_123255,Oniceni,27.162723095432053,46.78065413343981
RO_123371,Păstrăveni,26.54856627476965,47.154382771866665
RO_12340,Şimand,21.45378105417036,46.425614350599936
RO_123424,Petricani,26.44381455475505,47.15482043599453
RO_123479,Piatra Şoimului,26.457859901163186,46.843172122315245
RO_123521,Pipirig,26.083381271018347,47.23292389011559
RO_123601,Pângăraţi,26.200799011879585,46.927355135468915
RO_123674,Podoleni,26.61707374041728,46.79554597663655
RO_12368,Şiria,21.65175464812983,46.28656427672745
RO_123709,Poienari,27.121313918486702,46.880122217315716
RO_123790,Poiana Teiului,25.936024185790533,47.11924208046635
RO_123914,Răuceşti,26.36810927046503,47.254651997528065
RO_123969,Războieni,26.559303133304404,47.080111213217606
RO_12402,Şiştarovăţ,21.735367978244145,46.00188961630955
RO_124028,Rediu,26.565052276381977,46.755432369202055
RO_124073,Români,26.706604209094245,46.79919226399821
RO_124117,Oraş Roznov,26.51037338533911,46.83745533987709
RO_124153,Sagna,27.010950168837518,46.968399212688766
RO_124206,Săbăoani,26.867244058640406,47.01068863624479
RO_124233,Secuieni,26.84167317161777,46.862943813206236
RO_124331,Stăniţa,27.159391707287963,47.0254302428892
RO_124411,Ştefan cel Mare,26.520090140441287,46.98942386919922
RO_124493,Tarcău,26.132929466948777,46.89378462609096
RO_124563,Taşca,26.00103108016559,46.88437924035606
RO_12457,Tauţ,21.93409237602883,46.257361055736304
RO_124616,Tazlău,26.47158092703011,46.71739361646054
RO_124634,Tămăşeni,26.955322497135313,47.00202250549497
RO_124661,Timişeşti,26.503368236539387,47.227412192373905
RO_124723,Trifeşti,26.84046400334641,46.90642780147176
RO_124750,Tupilaţi,26.645023351535922,47.07817400203775
RO_124803,Tibucani,26.560589665842194,47.11666128791256
RO_124849,Urecheni,26.51864646009671,47.16243398521947
RO_124885,Valea Ursului,27.061234100826425,46.79952812439024
RO_124938,Alexandru cel Bun,26.279721584416333,46.946107445621436
RO_125016,Vânători-Neamţ,26.30938306178884,47.214517515546405
RO_125061,Zăneşti,26.548523352853003,46.81818105048805
RO_12509,Târnova,21.79639155196618,46.30113933160912
RO_125098,Dochia,26.567763324490276,46.90647921416844
RO_125105,Ruginoasa,26.70620763695461,46.98177762646969
RO_125114,Ghindăoani,26.332275123172565,47.10901109794931
RO_125123,Văleni,26.726402217742695,47.03098090717131
RO_125132,Drăgăneşti,26.409503766237375,47.30948750369617
RO_125141,Pânceşti,27.158822416167155,46.89897120956449
RO_125150,Gadinţi,26.988836441926964,46.92553372544243
RO_125169,Negreşti,26.367276010787972,47.03696508266024
RO_125178,Boghicea,27.09541088700531,47.06231982166693
RO_125347,Municipiul Slatina,24.372212952050088,44.427680271188294
RO_125374,Slătioara,24.323413148506887,44.402330259808224
RO_125418,Oraş Balş,24.11482207851472,44.345699759270204
RO_125472,Municipiul Caracal,24.35139799410428,44.111175327002044
RO_125490,Drăghiceni,24.252492853996525,44.12459001502932
RO_125542,Oraş Corabia,24.497897847274164,43.7774409910934
RO_125588,Gârcov,24.62720770104211,43.775064747257986
RO_125622,Oraş Drăgăneşti-Olt,24.517840903291155,44.1705544717646
RO_125659,Băbiciu,24.56752136779494,44.031383857435486
RO_125677,Baldovineşti,24.042995105862648,44.392550444653814
RO_12572,Vărădia de Mureş,22.15019548159498,46.03614242164976
RO_125757,Bărăşti,24.648595613643995,44.711664478250896
RO_125846,Bârza,24.16528523141317,44.32556439931137
RO_125873,Bobiceşti,24.13508340350585,44.37858893305251
RO_125962,Brastavăţu,24.407762236178453,43.90982635694704
RO_125999,Brebeni,24.445985929254963,44.365765264310774
RO_126022,Brâncoveni,24.322726337719885,44.31613082060739
RO_126077,Bucinişu,24.250660792748732,43.945776482173116
RO_126102,Cezieni,24.265046047520922,44.18532037911029
RO_126148,Cilieni,24.614566320603455,43.9004597196644
RO_126166,Cârlogani,24.16668252743586,44.508615507261965
RO_126228,Coloneşti,24.678294792814384,44.62165987011517
RO_126326,Corbu,24.711656680845064,44.47859506613169
RO_126380,Coteana,24.458405843244776,44.30022874253025
RO_126406,Crâmpoia,24.7373625904702,44.302044385248095
RO_12643,Vinga,21.196635917965192,46.01651956230879
RO_126433,Curtişoara,24.34199651030474,44.48773982862901
RO_126503,Cungrea,24.391402297168632,44.68326423836563
RO_126585,Dăneasa,24.551492317466423,44.11604888135283
RO_126647,Deveselu,24.38761384652004,44.05878181851859
RO_126674,Dobreţu,23.953545704770267,44.491338456073684
RO_126718,Dobrosloveni,24.37821591604121,44.17162134524809
RO_126772,Dobroteasa,24.327389933698488,44.76965435782087
RO_126825,Dobrun,24.227859619547406,44.25690535593371
RO_12689,Vârfurile,22.527446049182853,46.32556716759999
RO_126905,Făgeţelu,24.537129768606256,44.778705392874
RO_126978,Fălcoiu,24.368386721071662,44.22994819265402
RO_127019,Fărcaşele,24.43865134365986,44.14524426380828
RO_127064,Găneasa,24.269886702555663,44.41629560722945
RO_127126,Giuvărăşti,24.6897738623373,43.79279759266854
RO_127144,Gostavăţu,24.531339256054824,44.077172549393815
RO_127171,Grădinari,24.272078356199955,44.57678614728075
RO_127224,Grojdibodu,24.260668856174266,43.75605038624758
RO_127251,Ianca,24.183187225510554,43.77959800384635
RO_127288,Iancu Jianu,24.030426604762404,44.49621722350123
RO_127322,Icoana,24.721453369077775,44.40984268853697
RO_127368,Izbiceni,24.666566267798125,43.82373961193
RO_127386,Izvoarele,24.535260569608365,44.25884052045937
RO_127411,Leleasca,24.442202722768982,44.772531693113855
RO_127493,Mărunţei,24.468654078035705,44.226680348345255
RO_127536,Mihăeşti,24.79233906898076,44.11831046430145
RO_127563,Milcov,24.380877287729444,44.3769017911603
RO_127625,Morunglav,24.107900168713748,44.46806126305714
RO_127689,Movileni,24.641487308509102,44.37639009541307
RO_127714,Nicolae Titulescu,24.75521124799201,44.27832739041177
RO_127750,Obârşia,24.321458404699484,43.886695261725706
RO_12778,Zăbrani,21.571293539443193,46.06686317581926
RO_127812,Oboga,24.09528261688534,44.41000731838709
RO_127858,Oporelu,24.423136246493474,44.58469418627566
RO_127901,Optaşi-Măgura,24.65722714776763,44.574351925953245
RO_127938,Orlea,24.370733316762006,43.752039934800884
RO_127983,Osica de Sus,24.317048983004156,44.25668759938801
RO_128052,Perieţi,24.551706187455352,44.41151362077385
RO_128105,Oraş Piatra-Olt,24.281667235461292,44.365364955824894
RO_12812,Zărand,21.64725565645749,46.40679632280761
RO_128178,Pârşcoveni,24.21978135631899,44.297221141355124
RO_128221,Pleşoiu,24.242016249124422,44.47559590341799
RO_128301,Poboru,24.474796444661063,44.68314059487004
RO_128374,Oraş Potcoava,24.630302221977118,44.48036139543546
RO_128436,Priseaca,24.43766468447032,44.510980565305715
RO_128472,Radomireşti,24.680460133395187,44.109000600993426
RO_12849,Zerind,21.512477888603495,46.626826718400096
RO_128524,Redea,24.3012566161564,44.05088543174688
RO_128560,Rotunda,24.311422309244396,43.98599986374063
RO_128588,Rusăneşti,24.594544555814092,43.93991084204392
RO_128613,Scărişoara,24.576193300352262,43.98881137606029
RO_128659,Schitu,24.55642336887999,44.36483039322521
RO_128711,Oraş Scorniceşti,24.549284007328417,44.585692658379955
RO_12876,Zimandu Nou,21.389202268964592,46.274841192574
RO_128864,Seaca,24.76033033454629,44.15406819079291
RO_128882,Sâmbureşti,24.400256146735565,44.820913025119445
RO_128962,Spineni,24.559123545267436,44.72494743165232
RO_129040,Sprâncenata,24.635096802651177,44.0459758057915
RO_129095,Stoeneşti,24.49442126176632,44.11588799877629
RO_129111,Stoicăneşti,24.64161448797953,44.184931560972316
RO_12912,Dorobanţi,21.23631927968563,46.343651422468675
RO_129139,Strejeşti,24.245882996620143,44.534943683029915
RO_129184,Studina,24.417696848779865,43.96314093772669
RO_12920,Frumuşeni,21.467652125713304,46.099277092092144
RO_129246,Şerbăneşti,24.694060812594255,44.32458748811533
RO_129282,Ştefan cel Mare,24.22055785125874,43.81090237626599
RO_129317,Tătuleşti,24.611577818693597,44.643139139984456
RO_12938,Zădăreni,21.2178150357012,46.13400013752863
RO_129380,Teslui,24.345339279282395,44.529927694412066
RO_129460,Tia Mare,24.63562701028227,43.86493533323946
RO_129503,Topana,24.511713443718566,44.83564546269407
RO_129567,Traian,24.451741972149872,44.02081258697746
RO_129585,Tufeni,24.787531706011674,44.37017959606784
RO_129629,Urzica,24.28317894078239,43.857181752474496
RO_129656,Valea Mare,24.453349147781207,44.4568671547578
RO_129718,Vădastra,24.376803925371064,43.86561261228565
RO_129745,Vădăstriţa,24.338674522719888,43.856131352053524
RO_129763,Văleni,24.785255766073206,44.23605308551164
RO_129816,Verguleasa,24.325267835380597,44.66273120088529
RO_129898,Vişina,24.45345313053754,43.86617901440478
RO_129914,Vitomireşti,24.369529626542263,44.85082235790236
RO_129987,Vâlcele,24.545173841221153,44.284541178672114
RO_130026,Vlădila,24.410492790082458,43.99706421530467
RO_130062,Voineasa,24.147211258143518,44.29834786730224
RO_130124,Vulpeni,23.933287465836276,44.45217117379885
RO_130231,Vultureşti,24.32616841884744,44.726466524237985
RO_130286,Bălţeni,24.537031444208957,44.44655460192124
RO_130295,Calui,24.05635742504156,44.45682846536782
RO_130302,Găvăneşti,24.00721316363998,44.41443168431266
RO_130311,Ghimpeţeni,24.77949353610332,44.283973557602
RO_130320,Grădinile,24.402075934184097,43.94992168025576
RO_130339,Gura Padinii,24.314383868416336,43.7605901346181
RO_130348,Ipoteşti,24.395977137685577,44.325511925668316
RO_130357,Osica de Jos,24.281654195546064,44.24148772996714
RO_130366,Sârbii - Măgura,24.700180774159534,44.53756038331589
RO_130375,Vişina Nouă,24.405127400512598,43.871098575408205
RO_130384,Sopârliţa,24.27691589508775,44.277087623990376
RO_130534,Municipiul Ploieşti,26.005205090910707,44.939643000530126
RO_130552,Bărcăneşti,26.04836638781963,44.88319978708999
RO_130614,Berceni,26.115668367075063,44.9280960345855
RO_130678,Blejoi,25.993971228138957,44.96233088759602
RO_130712,Brazi,26.00628828922611,44.861980914437865
RO_130785,Bucov,26.078334894348753,44.975692424317586
RO_130847,Păuleşti,25.962633422033807,45.026533651862366
RO_130892,Târgşoru Vechi,25.95573508869843,44.911399240584736
RO_130954,Oraş Azuga,25.569383832525233,45.44514218662441
RO_130981,Oraş Băicoi,25.896330422987155,45.03751253450585
RO_131069,Oraş Boldeşti-Scăeni,26.02889899104554,45.02522495798568
RO_131103,Oraş Breaza,25.665212303784795,45.181375597667135
RO_131210,Oraş Buşteni,25.535745577973742,45.410829680104996
RO_131256,Municipiul Câmpina,25.738068195592533,45.125950491674324
RO_131274,Poiana Câmpina,25.72856032160789,45.11590952566409
RO_131336,Oraş Comarnic,25.637132392045128,45.24339823738957
RO_131407,Oraş Mizil,26.440721374144633,45.00236920848926
RO_131443,Oraş Plopeni,25.948733097969924,45.04535462834775
RO_131461,Dumbrăveşti,25.994553700552352,45.08226109480514
RO_131540,Oraş Sinaia,25.555551595675205,45.33253108620901
RO_131577,Oraş Slănic,25.939859671634192,45.23118659451461
RO_131620,Oraş Urlaţi,26.230084327953723,44.989838216804486
RO_13169,Municipiul Piteşti,24.86888851085484,44.85352179127152
RO_131817,Oraş Vălenii de Munte,26.03940858034246,45.18342369131193
RO_131835,Gura Vitioarei,26.030237655699967,45.15076856379842
RO_13187,Bascov,24.809102693719527,44.89232960975845
RO_131899,Adunaţi,25.605561454646896,45.183218029573915
RO_131933,Albeşti-Paleologu,26.219245401148346,44.94004207129273
RO_131988,Aluniş,25.878799373207602,45.20351341939143
RO_132011,Apostolache,26.25608110784578,45.12164804918965
RO_132075,Ariceştii Rahtivani,25.840297137685106,44.94505726468529
RO_132137,Ariceştii Zeletin,26.17956387411146,45.22058712648753
RO_132164,Baba Ana,26.45934680014971,44.972544921800996
RO_132226,Balta Doamnei,26.184490416547337,44.75674836196547
RO_132271,Bălţeşti,26.126272937788848,45.09937814482417
RO_132315,Băneşti,25.769081915403884,45.10124481203077
RO_132342,Bertea,25.878748665213347,45.234231956594215
RO_132379,Boldeşti-Gradiştea,26.528939152960366,44.8774230724286
RO_132404,Brebu,25.76622484829268,45.18335697895028
RO_132459,Călugăreni,26.372236685614542,45.08329456367183
RO_132486,Cărbuneşti,26.2002354480236,45.22388271757991
RO_132510,Ceptura,26.32383277348721,45.0198046745793
RO_132574,Ceraşu,26.037331178344576,45.34801895280337
RO_132645,Chiojdeanca,26.27003764697969,45.162416045726374
RO_132681,Ciorani,26.402745777998245,44.82929604528016
RO_132716,Cocorăştii Mislii,25.929842365579866,45.08875571504425
RO_132752,Colceag,26.35865952578132,44.94413117351466
RO_13276,Bradu,24.896515250604146,44.83461451501624
RO_132805,Cornu,25.695624463278097,45.163306629792665
RO_132841,Cosminele,25.889630627531158,45.164514872262146
RO_132896,Drajna,26.063584266159488,45.23429221944742
RO_13301,Oraş Mioveni,24.945663186463957,44.958500432482985
RO_133018,Drăgăneşti,26.298240225178308,44.83431514232933
RO_133090,Dumbrava,26.20323667468197,44.85665023109782
RO_133161,Filipeştii de Pădure,25.740210717521038,44.986864149955615
RO_133214,Filipeştii de Târg,25.783739020900853,44.96521626331546
RO_133278,Fântânele,26.377393207958207,45.0087025056655
RO_133330,Floreşti,25.790843097755133,45.02782653651286
RO_133394,Fulga,26.445351041867685,44.88969393618759
RO_133429,Gherghiţa,26.260274127086614,44.799175037148515
RO_133508,Gorgota,26.072078554713517,44.78142513397318
RO_133562,Gornet,26.07953945935571,45.11998383286408
RO_133615,Gornet-Cricov,26.262200227536432,45.07999346236116
RO_13365,Mărăcineni,24.88236722203956,44.89576538949484
RO_133688,Gura Vadului,26.43768229575522,45.04471081022921
RO_133722,Iordăcheanu,26.21777806602082,45.05026536706888
RO_133795,Izvoarele,25.99911986868759,45.2782938970216
RO_133866,Jugureni,26.423496840569516,45.099264710325414
RO_133919,Lapoş,26.400570631533682,45.147850646482375
RO_13392,Oraş Ştefăneşti,24.900416145672057,44.85311737476487
RO_133964,Lipăneşti,26.01866579033136,45.04776699394776
RO_134014,Măgurele,26.037789283220327,45.100428503698545
RO_134050,Măgureni,25.753824777018263,45.047745060639734
RO_134096,Măneciu,25.995518720868315,45.31053297789267
RO_134194,Măneşti,25.83844083097417,44.87168700563189
RO_134336,Păcureţi,26.139555812001113,45.14609025128588
RO_134390,Plopu,26.148265966251454,45.01746479990174
RO_134443,Podenii Noi,26.188415833533405,45.1069689843095
RO_134559,Poienarii Burchii,26.020114150002684,44.757367362655714
RO_134648,Poseşti,26.14647476266343,45.28170685665642
RO_134755,Predeal-Sărari,26.091290847453354,45.17643679452024
RO_1348,Municipiul Blaj,23.916682242842622,46.17489557822142
RO_134853,Proviţa de Jos,25.673899718176948,45.11880148839393
RO_134899,Proviţa de Sus,25.633952516055068,45.13891907767827
RO_13490,Municipiul Câmpulung,25.055287134992394,45.27828265441986
RO_134942,Puchenii Mari,26.084747562034135,44.821559881566714
RO_135020,Râfov,26.148586349639302,44.852234565087194
RO_135128,Salcia,26.322804193643837,45.17939303695086
RO_135146,Sălciile,26.489806601243956,44.816806230157695
RO_135164,Scorţeni,25.836204911867664,45.09129032712999
RO_135226,Secăria,25.686983925519048,45.27528854512454
RO_13524,Valea Mare Pravăţ,25.10473524061754,45.30387460962773
RO_135244,Sângeru,26.351479880694395,45.133695480701824
RO_135315,Starchiojd,26.181612600588576,45.32453588312029
RO_135404,Surani,26.186531066246364,45.1964833991443
RO_135431,Şirna,25.95964639017437,44.795389156460566
RO_135501,Şoimari,26.205560268149117,45.17309015063009
RO_135547,Şotrile,25.7439794991984,45.19159006812198
RO_135618,Ştefeşti,25.900708251237727,45.2326691166144
RO_135654,Talea,25.56812570632431,45.225066746130146
RO_135681,Tătaru,26.315848860507288,45.10593174331196
RO_135725,Teişani,26.02202160348629,45.22822517496477
RO_135789,Telega,25.796287925077895,45.12301127296037
RO_135850,Tinosu,26.008444164186578,44.81453270138143
RO_135896,Tomşani,26.29692135012441,44.94425152547756
RO_135949,Valea Călugărească,26.14454532273365,44.954920072465306
RO_136107,Valea Doftanei,25.725006352257143,45.31399325842283
RO_136134,Vărbilău,25.96004347280692,45.17236086097883
RO_136198,Vâlcăneşti,25.940596728986854,45.121930208400975
RO_13622,Municipiul Curtea de Arges,24.67505566626286,45.15208467503462
RO_136241,Cocoraştii Colt,25.885091734730203,44.84291029923171
RO_136250,Olari,26.207492059489258,44.791407873558576
RO_136269,Vadu Săpat,26.40692337637316,45.01886325324381
RO_136278,Bătrâni,26.149148009088158,45.31412422763476
RO_136483,Municipiul Satu Mare,22.872152163953185,47.78491449225403
RO_136526,Municipiul Carei,22.46767334152516,47.682586386639926
RO_136553,Căpleni,22.49718323650549,47.70434776873387
RO_136599,Oraş Negreşti-Oaş,23.425634628655455,47.8696741163409
RO_136642,Oraş Tăşnad,22.589049111577218,47.476372219986395
RO_13668,Oraş Costeşti,24.881138261746063,44.67102366119434
RO_136713,Acâş,22.77448109706757,47.53414218719833
RO_136768,Andrid,22.363381639384542,47.52912736707001
RO_136802,Apa,23.196624214522977,47.761052890226395
RO_136848,Oraş Ardud,22.885522407051955,47.64260723601414
RO_136919,Bătarci,23.152942949045684,48.038654068686895
RO_136964,Beltiug,22.84194715960019,47.56086027930373
RO_137032,Berveni,22.472482380960457,47.747294489877106
RO_137069,Bixad,23.385646007429656,47.92245607064685
RO_137103,Bârsău,23.2277576234405,47.59280987063766
RO_137130,Bogdand,22.94093355694529,47.40654229849495
RO_137185,Botiz,22.948618301335184,47.828556212549714
RO_137229,Călineşti-Oaş,23.282355836449266,47.90696493765093
RO_137274,Cămărzana,23.307038270269793,47.99338047530431
RO_137292,Căuaş,22.530146388271486,47.60893385143977
RO_137363,Cehal,22.581240426214965,47.40453280901484
RO_137407,Certeze,23.470387107071954,47.91125674969911
RO_137443,Craidorolţ,22.702484030207668,47.593091238109665
RO_137504,Crucişor,23.248744516991284,47.63304792397625
RO_137540,Culciu,23.058439204386417,47.750318766209496
RO_13757,Oraş Topoloveni,25.086010113632653,44.81267732276776
RO_137611,Doba,22.699485104082886,47.744922788286374
RO_137675,Dorolţ,22.791134143501317,47.83690633653991
RO_137728,Foieni,22.38772457200251,47.69840960947089
RO_137746,Gherţa Mică,23.21964570225657,47.93763888190504
RO_137764,Halmeu,23.019617318451214,47.97831058850177
RO_137844,Hodod,23.04356894347369,47.401627680422564
RO_137899,Homoroade,23.063709838799475,47.640334790782106
RO_137960,Lazuri,22.872779123699345,47.86416049323663
RO_138039,Oraş Livada,23.120752537231063,47.86585130250702
RO_138084,Medieşu Aurit,23.134053400802298,47.78775237565777
RO_138164,Micula,22.960432392688773,47.90007752018206
RO_13819,Albeştii de Argeş,24.668671034927257,45.21655497273255
RO_138208,Moftin,22.60757362061224,47.68822592331689
RO_138280,Odoreu,22.96837831367348,47.7976565160706
RO_138351,Oraşu Nou,23.285509178617815,47.85446788570389
RO_138431,Păuleşti,22.90136505886459,47.77610773986004
RO_138501,Petreşti,22.365484793060133,47.60483462600147
RO_138538,Pir,22.372915384710698,47.45999891352849
RO_138574,Pişcolt,22.290402072593267,47.58544995715836
RO_138618,Pomi,23.321641263862972,47.687888488396425
RO_138663,Sanislău,22.319330196830833,47.639612320726286
RO_138734,Santău,22.49981798772293,47.5079977345682
RO_138770,Săcăşeni,22.683177812763482,47.47834517952647
RO_138805,Săuca,22.485396234816044,47.46057561510075
RO_138869,Socond,22.966177998296725,47.524420965710846
RO_13891,Albeştii de Muscel,24.990337383871392,45.30653850913945
RO_138921,Supur,22.803189481203642,47.46811920713842
RO_139009,Tarna Mare,23.17713404143457,48.08675313248797
RO_139054,Terebeşti,22.74640874938063,47.67097721673628
RO_139107,Tiream,22.453025170547225,47.5981401415021
RO_139143,Târşolţ,23.335791543268908,47.95189468017366
RO_139170,Turţ,23.202353915107114,47.986968580731954
RO_139214,Turulung,23.08238481327837,47.9292994473544
RO_139250,Urziceni,22.403562297432014,47.73313346164093
RO_139287,Valea Vinului,23.19398860701421,47.700786852640775
RO_139330,Vama,23.39496203319758,47.84244125902776
RO_13935,Albota,24.856440398205383,44.79277527888643
RO_139358,Vetiş,22.75192984963433,47.79567459561174
RO_139394,Viile Satu Mare,22.971012376869982,47.66984991154089
RO_139704,Municipiul Zalău,23.055960982788974,47.18987088016401
RO_139740,Oraş Cehu Silvaniei,23.181045444391863,47.41256164736391
RO_139811,Oraş Jibou,23.256232653586615,47.26003314845592
RO_139884,Oraş Şimleu Silvaniei,22.789867661916333,47.230978162972264
RO_139937,Agrij,23.101261551001556,47.063964453243614
RO_139982,Almaşu,23.118819868704577,46.93749443839583
RO_13999,Aninoasa,24.912230000138276,45.20136835721239
RO_140084,Băbeni,23.3714508959466,47.29716893054803
RO_140146,Bălan,23.303951760285603,47.15927548004836
RO_140208,Bănişor,22.833084708626842,47.11113594569865
RO_140244,Benesat,23.269314384690386,47.40398316537134
RO_140280,Bobota,22.78915838019646,47.384125823977584
RO_140324,Bocşa,22.92209829692354,47.292967598731046
RO_140379,Buciumi,23.041196601677335,47.04127013527473
RO_140440,Camăr,22.615507777061467,47.29973848299954
RO_140477,Carastelec,22.690815550662563,47.30119328215233
RO_14049,Arefu,24.627370049108567,45.328123278374925
RO_140501,Chieşd,22.87977077728207,47.377416694343346
RO_140547,Cizer,22.86490633445933,47.064629671900555
RO_140583,Coşeiu,22.985285333364065,47.32547799691568
RO_140627,Crasna,22.863855086172734,47.16082527021756
RO_140672,Creaca,23.214408426979745,47.184542815596664
RO_140770,Cristolţ,23.431417529035013,47.21677683263243
RO_140823,Crişeni,23.05384092435405,47.240960624766615
RO_14085,Băbana,24.722263913857873,44.87454372731553
RO_140869,Cuzăplac,23.187915278901777,46.94821805593135
RO_140958,Dobrin,23.104314565894512,47.302210881291835
RO_141027,Dragu,23.38686413583662,47.04512747385642
RO_141081,Fildu de Jos,23.010211504802893,46.91392710587411
RO_141134,Gâlgău,23.693712805454236,47.2739191464388
RO_141232,Gârbou,23.423539544398306,47.151184035744535
RO_141312,Halmăşd,22.5861423982878,47.16114609678438
RO_141376,Hereclean,22.989758096131688,47.25482553300334
RO_141447,Hida,23.31300075360607,47.07810802409949
RO_141535,Horoatu Crasnei,22.910855063072873,47.107498899568775
RO_141580,Ileanda,23.60984243593223,47.325770524183966
RO_14165,Băiculeşti,24.67706595169373,45.06030092707598
RO_141722,Ip,22.615355283185824,47.22259945650224
RO_141786,Letca,23.454427053628464,47.34118102956695
RO_141884,Lozna,23.483117589468318,47.327554954891575
RO_141946,Marca,22.556228579592382,47.23965339117286
RO_142006,Măerişte,22.768480394805096,47.295200319822726
RO_142079,Meseşenii de Jos,22.99819765233293,47.15612116058933
RO_142122,Mirşid,23.14732336925212,47.23619956970154
RO_142177,Năpradea,23.32119088001072,47.36398793856907
RO_142239,Nuşfalău,22.714758309990923,47.20969101943596
RO_142284,Pericei,22.87597699509828,47.224777932611374
RO_142337,Plopiş,22.655742934162138,47.117277017969656
RO_142373,Poiana Blenchii,23.755661663717955,47.30912981296778
RO_142426,Românaşi,23.176762458570394,47.10938852718145
RO_142499,Rus,23.587044975640378,47.272688288437756
RO_142550,Sălăţig,23.173912476595373,47.35783421863347
RO_142612,Sâg,22.78332525420361,47.061643194908164
RO_142676,Sânmihaiu Almaşului,23.247548917136914,47.037113428415296
RO_142710,Someş-Odorhei,23.23270087414225,47.33401837937006
RO_14272,Bălileşti,24.93942313529033,45.05335668257185
RO_142774,Surduc,23.34620448918129,47.242880571180756
RO_142854,Şamşud,22.95060449168489,47.33522782441601
RO_142881,Şărmăşag,22.826316568190887,47.34994242112932
RO_142952,Valcău de Jos,22.732141621922615,47.11191994058248
RO_143021,Vârşolţ,22.91788738557172,47.20784300788215
RO_143067,Zalha,23.5273121294957,47.18834110963481
RO_143147,Zimbor,23.278634178959532,46.99089705087197
RO_143450,Municipiul Sibiu,24.152622957210422,45.786933340803486
RO_143487,Cristian,24.028666452531926,45.782239419624005
RO_143502,Poplaca,24.046648950506775,45.72572841580191
RO_14352,Beleţi-Negreşti,25.080396012060984,44.931582297679384
RO_143520,Răşinari,24.067475196811742,45.70756078907378
RO_143557,Şelimbăr,24.168361294676156,45.77873637630319
RO_143619,Municipiul Mediaş,24.3409473302321,46.16100981509743
RO_143646,Târnava,24.288985052792906,46.1396723604886
RO_143682,Oraş Agnita,24.621377782806274,45.97666914858925
RO_143735,Oraş Cisnădie,24.14945086516684,45.761411533651284
RO_143771,Oraş Copşa Mică,24.228916673978226,46.108163684835944
RO_143806,Oraş Dumbrăveni,24.568041312922063,46.2234580908513
RO_143851,Oraş Ocna Sibiului,24.052342043945547,45.87925279448217
RO_143888,Alţina,24.468343597990565,45.93352351735318
RO_143922,Apoldu de Jos,23.84720561039378,45.88065301845266
RO_143959,Arpaşu de Jos,24.617077923890758,45.76252603893862
RO_143995,Aţel,24.46931007272496,46.16391716890553
RO_14405,Berevoeşti,24.93719380959,45.25077587453903
RO_144054,Oraş Avrig,24.380156211122387,45.71975070392088
RO_144116,Axente Sever,24.222733486851535,46.10256744582076
RO_144152,Bazna,24.25706472208817,46.20757600453719
RO_144198,Biertan,24.522177283104764,46.13116090002287
RO_144232,Bîrghiş,24.517663022563212,46.013517547545895
RO_144303,Blăjel,24.331566723440197,46.20825619638807
RO_144349,Brateiu,24.420099093762197,46.16193278791217
RO_144376,Brădeni,24.836202408142714,46.07330972072711
RO_144410,Bruiu,24.693351902709637,45.869188307960094
RO_144456,Chirpăr,24.602606802664425,45.89715732563804
RO_14450,Bârla,24.78391395210077,44.43351358693536
RO_144508,Cârţa,24.570288181847253,45.784175200492584
RO_144535,Cârţişoara,24.577178398308448,45.72678081863306
RO_144553,Dârlos,24.407644280405115,46.201166595424006
RO_144599,Gura Râului,23.982947692027544,45.730184131603266
RO_144615,Hoghilag,24.602187819564552,46.2213688324629
RO_144651,Iacobeni,24.73568651364263,46.051026663158055
RO_144713,Jina,23.686619143021364,45.79051095022641
RO_144731,Laslea,24.651045988699057,46.16222983657444
RO_144795,Loamneş,24.039157712431276,45.94801084701948
RO_144866,Ludoş,23.901351313039257,45.92804482035246
RO_144893,Marpod,24.49775612555346,45.8707309136012
RO_144928,Oraş Miercurea Sibiului,23.80609823692288,45.86670164582309
RO_144964,Merghindeal,24.70694298727781,45.97478769507798
RO_144991,Micăsasa,24.100739266452887,46.08421440043614
RO_145042,Mihăileni,24.37164470874684,46.006189995516806
RO_145104,Moşna,24.403078884279964,46.089214770314015
RO_145140,Nocrich,24.454136634794786,45.87484935893255
RO_145202,Orlat,23.968406285097995,45.75243766891918
RO_145220,Păuca,23.914819619433395,45.99957211111806
RO_145275,Poiana Sibiului,23.71150497108617,45.80143642968712
RO_145293,Porumbacu de Jos,24.48208929159136,45.74202875552494
RO_145355,Racoviţa,24.362696861389708,45.69356867751432
RO_145382,Râu Sadului,24.059459722030105,45.62508538482056
RO_145408,Roşia,24.29663796359453,45.81765737303045
RO_145471,Sadu,24.16820198247595,45.69330195905133
RO_145499,Oraş Sălişte,23.885996241780674,45.793989426251365
RO_1455,Oraş Câmpeni,23.04933547799146,46.36415539463792
RO_145603,Slimnic,24.147912813205703,45.92944394968295
RO_145667,Şeica Mare,24.168002928513996,46.01952935469373
RO_145738,Şeica Mica,24.122051850124805,46.05059533851464
RO_145765,Şura Mare,24.16866375124408,45.852594574155674
RO_145792,Şura Mica,24.047534123495176,45.831143690413846
RO_145827,Oraş Tălmaciu,24.257112914052705,45.66574435437657
RO_14584,Bogaţi,25.136403472967196,44.87097731010824
RO_145907,Tilişca,23.835115421582014,45.797907004485715
RO_145934,Turnu Roşu,24.30247553139686,45.640334483002434
RO_145961,Valea Viilor,24.295007964389995,46.07656554243638
RO_145998,Vurpăr,24.341866329329843,45.89954999107813
RO_146012,Alma,24.46242090601239,46.22048146589716
RO_146021,Boita,24.24936814261297,45.635905060318024
RO_146263,Municipiul Suceava,26.252513160946343,47.64951400635061
RO_146281,Ipoteşti,26.28425698659801,47.625106925807074
RO_146325,Mitocu Dragomirnei,26.250582080900458,47.71570940908788
RO_146370,Oraş Salcea,26.361795977676575,47.64621214746695
RO_146432,Şcheia,26.230473698993098,47.64100423608797
RO_146502,Municipiul Câmpulung Moldovenesc,25.56340415448039,47.5270134072236
RO_146539,Municipiul Fălticeni,26.29969020421692,47.458816482574406
RO_146584,Oraş Gura Humorului,25.891097873523343,47.55317935538104
RO_146628,Municipiul Rădăuţi,25.920506938301653,47.84025012287032
RO_146655,Oraş Siret,26.060644769150368,47.94877300221211
RO_146708,Oraş Solca,25.834104620565302,47.70010753444557
RO_14673,Boteni,25.12584540900863,45.17219953043235
RO_146744,Municipiul Vatra Dornei,25.360416579904488,47.34590956340869
RO_146799,Adâncata,26.29731822005079,47.7398495857602
RO_146860,Arbore,25.921470392976698,47.73116608843875
RO_146904,Baia,26.212646657807714,47.41810085648796
RO_146931,Oraş Milişăuţi,25.9976106937323,47.790723636889716
RO_146995,Bălcăuţi,26.074105636933762,47.903290643711856
RO_147036,Bilca,25.758998011104975,47.920832836974306
RO_147054,Bogdăneşti,26.278770495961524,47.36397990546051
RO_147072,Boroaia,26.331377912705825,47.34406170169347
RO_147134,Bosanci,26.314813628889304,47.588447364970634
RO_147161,Botoşana,25.939256004588447,47.69103463977043
RO_147205,Breaza,25.322236156466854,47.62212340628089
RO_147241,Brodina,25.42991057772363,47.89069189013663
RO_14726,Boţeşti,25.134853258275136,45.008346100525586
RO_147358,Oraş Broşteni,25.70370194196323,47.24229628850023
RO_147465,Buneşti,26.300172485053157,47.516969447470956
RO_147526,Cacica,25.904489186576225,47.647559705545355
RO_14753,Brăduleţ,24.772104766427343,45.2798525665052
RO_147580,Calafindeşti,26.11494042201017,47.85597331966768
RO_147633,Oraş Cajvana,25.96460674113511,47.70580717759931
RO_147660,Ilişesti,26.045866771748106,47.61035524520304
RO_147713,Cârlibaba,25.11882185001842,47.575370808345944
RO_147786,Cornu Luncii,26.121665079892804,47.46323833583294
RO_147884,Crucea,25.61033624441121,47.35489810691416
RO_147937,Dărmăneşti,26.137212721661765,47.75129655057543
RO_148006,Oraş Dolhasca,26.616640283052785,47.413992504882735
RO_148097,Dolheşti,26.51897580383843,47.44280116889262
RO_148131,Dorna-Arini,25.427248418708096,47.34264453493318
RO_148202,Dorna Candrenilor,25.240676661712172,47.34749575687075
RO_148293,Dorneşti,26.002833508186747,47.871692976609005
RO_148328,Drăgoieşti,26.078092001475685,47.54690587625368
RO_148382,Drăguşeni,26.49369432137302,47.29879813621061
RO_148426,Dumbrăveni,26.42222337993066,47.659002897546564
RO_148453,Fântânele,26.518080963800795,47.593517113832185
RO_14851,Budeasa,24.82164538306764,44.93090872395414
RO_148514,Forăşti,26.461405967227787,47.364045757836344
RO_148612,Oraş Frasin,25.796866941461662,47.52811020292633
RO_148667,Frătăuţii Noi,25.85446666853374,47.9286679393674
RO_148694,Frătăuţii Vechi,25.903448659487456,47.904766525411134
RO_148729,Frumosu,25.63833368756885,47.6116889537259
RO_148765,Fundu Moldovei,25.38747310237341,47.5391229768234
RO_148872,Gălăneşti,25.81628196832874,47.91528622333138
RO_148916,Grămeşti,26.15091747063005,47.90697066618672
RO_148970,Grăniceşti,26.06025043858698,47.78680022628047
RO_149049,Horodniceni,26.175442641699323,47.51791285736921
RO_149101,Horodnic de Jos,25.8258105307735,47.855336654238734
RO_149138,Iacobeni,25.307677142198493,47.422152474956455
RO_149183,Izvoarele Sucevei,25.207434476414456,47.76673941593324
RO_14922,Bughea de Jos,25.000440146826442,45.27758810329926
RO_149227,Oraş Liteni,26.525656884983434,47.511993117116155
RO_149290,Marginea,25.81040888814968,47.81279461872088
RO_149316,Mălini,26.067793574586943,47.44333251386828
RO_149370,Mănăstirea Humorului,25.844593352118768,47.60578775535635
RO_14940,Buzoeşti,24.90190635012829,44.628675057298004
RO_149414,Moara,26.219992527437626,47.61750811307286
RO_149502,Moldova-Suliţa,25.24056096307329,47.69229936419903
RO_149539,Moldoviţa,25.52805461678534,47.70185941862254
RO_149584,Muşeniţa,25.967960398070456,47.96318197902495
RO_149655,Ostra,25.75062179807375,47.397821510162785
RO_149682,Panaci,25.394683894408946,47.227295900301996
RO_149753,Păltinoasa,25.984532486775965,47.5408157014493
RO_149780,Pârteştii de Jos,25.951051043654754,47.64047148429214
RO_149833,Pătrăuţi,26.176838143431198,47.73181531519724
RO_149851,Poiana Stampei,25.133821867350914,47.310847688176494
RO_149931,Pojorâta,25.47031726590933,47.52351525982432
RO_149968,Preuteşti,26.41778337325048,47.45508805622183
RO_150043,Putna,25.608539347717063,47.88615226373627
RO_150070,Rădăşeni,26.25408038396293,47.47354097668985
RO_150114,Râşca,26.21437699764395,47.367815316926304
RO_150178,Sadova,25.498883525653756,47.54769514901386
RO_150196,Satu Mare,26.003497926054862,47.828883403811986
RO_150221,Siminicea,26.3913274441556,47.70052756538893
RO_150258,Slatina,25.970489889869313,47.43359030776364
RO_150294,Straja,25.5422640344711,47.91879911144183
RO_150310,Stroieşti,26.130637397466394,47.612202172640174
RO_150356,Stulpicani,25.767032635540833,47.44531394955189
RO_150418,Suceviţa,25.74292195833686,47.79319888062458
RO_150445,Saru Dornei,25.338649613270025,47.25361747843819
RO_150524,Todireşti,26.05746114114762,47.695184855412336
RO_150588,Udeşti,26.409886428019707,47.57870149696043
RO_15064,Căldăraru,24.94022273857574,44.44994711125878
RO_150702,Ulma,25.252657344542353,47.85657618472729
RO_150766,Vadu Moldovei,26.382778914525034,47.38442103110188
RO_150891,Valea Moldovei,26.01853798343354,47.48458842075121
RO_150935,Vama,25.68542134418009,47.563297344653336
RO_150980,Vatra Moldoviţei,25.56993953551783,47.64602673054514
RO_151022,Vereşti,26.466465690028063,47.624679498830545
RO_151077,Vicovu de Jos,25.721955707408025,47.895334093230616
RO_15108,Călineşti,25.014240401669184,44.858693064206015
RO_151095,Oraş Vicovu de Sus,25.656616427800397,47.92553813832694
RO_151120,Volovăţ,25.905113244603307,47.82360763225338
RO_151157,Vultureşti,26.420950492139657,47.51391772280386
RO_151246,Zamostea,26.229392132527813,47.87305485443017
RO_151344,Zvoriştea,26.28381138616933,47.82432596946137
RO_151433,Comăneşti,25.99577496367783,47.65942671871467
RO_151442,Iaslovăţ,25.968072883692287,47.75928036242941
RO_151451,Ciocaneşti,25.270991397268652,47.48677086632579
RO_151460,Serbăuţi,26.143150177977535,47.81902925007427
RO_151479,Horodnic de Sus,25.809270283931973,47.837400158988906
RO_151488,Fântâna Mare,26.30237661396163,47.41265955491321
RO_151497,Cosna,25.1762099333453,47.37285615893748
RO_151503,Capu Câmpului,25.89735249108677,47.54698009277024
RO_151512,Hânţeşti,26.348052068100067,47.759769835525695
RO_151521,Burla,25.925301195141497,47.783660010844144
RO_151530,Bălăceana,26.038728773694565,47.64085035306205
RO_151549,Hartop,26.361035051140426,47.481007380577395
RO_151558,Voitinel,25.74939355721118,47.88292988296946
RO_151567,Ciprian Porumbescu,26.064089403656403,47.57211673109303
RO_151576,Berchisesti,26.030315283766818,47.52890147985335
RO_151585,Poieni-Solca,25.86613458763825,47.69039541285373
RO_151683,Municipiul Turnu Măgurele,24.869274096056984,43.75316711863048
RO_151709,Ciuperceni,24.938678566002512,43.75331978838872
RO_151736,Islaz,24.75385597263921,43.73132664019742
RO_151763,Lita,24.829090898790852,43.785920915432804
RO_151790,Municipiul Alexandria,25.33163938846619,43.96952991963408
RO_151816,Nanov,25.30659792835871,43.98120800656626
RO_151834,Poroschia,25.35550060550198,43.94152573650052
RO_151870,Municipiul Roşiori de Vede,24.99314062393155,44.11133531621346
RO_151905,Oraş Videle,25.531066822973127,44.276244149250076
RO_151932,Crevenicu,25.567659596412465,44.25153044357036
RO_151978,Oraş Zimnicea,25.36311788483118,43.65661277643574
RO_151996,Balaci,24.902556172674675,44.34698994135548
RO_152038,Băbăiţa,25.389053368376715,44.149259106963704
RO_152083,Blejeşti,25.459026898808276,44.306122131328
RO_152127,Bogdana,25.092053100186916,43.920088954946486
RO_152172,Botoroaga,25.550143762013594,44.15276602786559
RO_152234,Bragadiru,25.51466236783734,43.76357673014963
RO_152252,Brânceni,25.395603503712152,43.87985620904224
RO_152270,Bujoreni,25.665765386759972,44.103840625426585
RO_152314,Bujoru,25.562018455115194,43.71080153623014
RO_15233,Căteasca,25.031950449819657,44.76538499410126
RO_152332,Buzescu,25.225493359446396,44.01288660393907
RO_152350,Călineşti,25.22796266235385,44.10172186798666
RO_152412,Călmăţuiu,24.852978407664516,43.960569043411574
RO_152467,Călmăţuiu de Sus,24.810294800013747,44.03230585855027
RO_152500,Cervenia,25.454049764425676,43.83709866202228
RO_152528,Ciolăneşti,25.084816627010234,44.311588877540224
RO_152564,Conţeşti,25.49051571767028,43.78993036371439
RO_152582,Cosmeşti,25.38143250835098,44.3142034516974
RO_152617,Crângeni,24.801005009302912,44.01829872813556
RO_152662,Crângu,25.064460037583135,43.84618348160204
RO_152724,Dideşti,24.88168268071536,44.221324527667996
RO_152760,Dobroteşti,24.884702544138477,44.272837430779795
RO_152797,Drăcşenei,24.990693695827392,44.21535257512147
RO_152868,Drăgăneşti de Vede,25.04276652676303,44.12944348942108
RO_152902,Drăgăneşti-Vlaşca,25.59677870540202,44.09998028576299
RO_152948,Furculeşti,25.135792288806446,43.87041590758424
RO_152993,Frumoasa,25.468980499342102,43.79113598945162
RO_153026,Gălăteni,25.359426135364146,44.22540434982748
RO_153062,Gratia,25.440143308975255,44.435677158074284
RO_153106,Izvoarele,25.39541055174765,43.824051279625955
RO_153124,Lisa,25.145346963966176,43.78221873459043
RO_15313,Cepari,24.538001706903124,45.20802286707906
RO_153151,Lunca,24.77020211828733,43.83726536903709
RO_153204,Mavrodin,25.235517937280616,44.03474825909869
RO_153240,Măgura,25.393966289364904,44.04312361285003
RO_153277,Măldăeni,24.967347329375286,44.12089164676268
RO_153295,Mereni,25.641150653226582,44.236571380712995
RO_153339,Mârzăneşti,25.45706741248794,43.923018365114956
RO_153384,Moşteni,25.50421579765384,44.197022053813484
RO_153400,Năsturelu,25.446753291010463,43.66736723430124
RO_153437,Necşeşti,25.14612862343201,44.25531407504426
RO_153473,Olteni,25.282765885345,44.18602447771088
RO_153507,Orbeasca,25.323024333259454,44.119141490658755
RO_153543,Peretu,25.09111646084023,44.04463610330412
RO_153561,Piatra,25.161170580652435,43.8075149605022
RO_153589,Pietroşani,25.6346284812307,43.71413652071415
RO_153605,Plosca,25.147529086801462,44.02385659558199
RO_153623,Plopii-Slăviteşti,24.684704439514526,43.95517131585185
RO_153696,Poeni,25.343549158604908,44.41594487088212
RO_153776,Vităneşti,25.42832739050436,43.99608401403985
RO_153829,Putineiu,24.97099233182151,43.909545620150546
RO_153865,Rădoieşti,25.14809007511428,44.14712865816046
RO_153909,Răsmireşti,25.560267334656167,43.99801531397516
RO_153936,Salcia,24.92473956589558,43.942859228190876
RO_153972,Săceni,25.055265069259946,44.23689944053972
RO_154013,Scrioaştea,24.95580645938549,44.15199611730455
RO_15402,Cetăţeni,25.20542776647393,45.194880274792894
RO_154068,Scurtu Mare,25.261583756792216,44.35076228787098
RO_154139,Seaca,25.067998886113894,43.75207105438043
RO_154166,Sfinţeşti,25.09952641480007,44.185008984137355
RO_154184,Segarcea-Vale,24.80753739070369,43.8235928365224
RO_154228,Siliştea,25.362084340011595,44.37886834013203
RO_154282,Siliştea-Gumeşti,25.013494435047537,44.37989278621133
RO_154308,Sârbeni,25.399812828893655,44.46823877333647
RO_154344,Slobozia Mândra,24.695002688262324,43.92388489702626
RO_154380,Smârdioasa,25.42484792307115,43.8311997209444
RO_154415,Stejaru,24.869702387403173,44.19107917503237
RO_154460,Suhaia,25.248422439238983,43.7413989104062
RO_15448,Cicăneşti,24.60423372568799,45.24952136145007
RO_154497,Ştorobăneasa,25.422674668959797,43.881218841939365
RO_154521,Talpa,25.30732766825205,44.27574281116579
RO_154585,Tătărăştii de Jos,25.177500322108127,44.37563771848857
RO_154665,Tătărăştii de Sus,25.13773206508297,44.4022958258892
RO_154709,Toporu,25.65232457093369,44.007293920370344
RO_154736,Traian,25.003896759861796,43.764851596759215
RO_154754,Trivalea-Moşteni,25.22573443878974,44.262719590800316
RO_154790,Troianul,25.014831749184147,44.00045783085905
RO_154834,Ţigăneşti,25.373420694782283,43.90426166368241
RO_154852,Vedea,25.005127766796527,44.11995942624808
RO_154914,Viişoara,25.166108832016437,43.78150767864005
RO_15493,Ciofrângeni,24.542626072294578,45.10688629724359
RO_154932,Vârtoape,25.20030794856213,44.19258665032539
RO_154978,Zâmbreasca,24.99649595494108,44.3028701852591
RO_154996,Nenciulesti,25.200778655190724,44.022381507048635
RO_155083,Beciu,24.659926151577633,44.01214853461983
RO_155092,Beuca,24.964305566453667,44.255037187002785
RO_155109,Dracea,25.04437677774656,43.85535929771661
RO_155118,Fântânele,25.289442670121073,43.72097845092733
RO_155127,Frăsinet,25.38639534611064,44.17960438657342
RO_155136,Purani,25.40823768736922,44.36448813442967
RO_155145,Saelele,24.744573411967572,43.849743333103554
RO_155154,Uda-Clocociov,24.718345687832564,43.87287164141054
RO_155243,Municipiul Timişoara,21.225714510868798,45.749767308161346
RO_155261,Dumbrăviţa,21.241495506917992,45.78320149471217
RO_155289,Ghiroda,21.296568148007893,45.771333597584785
RO_155314,Giroc,21.229635909600667,45.70909036566063
RO_155350,Municipiul Lugoj,21.90404317973375,45.688104703193325
RO_155403,Oraş Buziaş,21.595000806945993,45.65010604325869
RO_155458,Oraş Deta,21.226274034541763,45.39540059924857
RO_155494,Oraş Jimbolia,20.715463480515847,45.79358830191288
RO_155528,Oraş Sânnicolau Mare,20.620959042773553,46.071201763036086
RO_15554,Ciomăgeşti,24.469935205312222,44.85369640214298
RO_155546,Balint,21.865014159136518,45.81842904693488
RO_155591,Banloc,21.138379316607434,45.38383615420952
RO_155662,Bara,21.883595264783793,45.897450416045324
RO_155724,Beba Veche,20.321005403369654,46.12819091693613
RO_155760,Becicherecu Mic,21.051091966766847,45.83440294015228
RO_155797,Belinţ,21.75232160796132,45.755229549301376
RO_155840,Bethausen,21.963323112265297,45.835621532716694
RO_155911,Biled,20.95970545220875,45.88595489965031
RO_155957,Bârna,22.057304522626424,45.71732954470701
RO_156035,Bogda,21.539740103735056,45.96074342349123
RO_156106,Boldur,21.758478476006893,45.69615336560805
RO_156151,Brestovăţ,21.681744705753253,45.8702929444754
RO_156213,Cărpiniş,20.906288269001063,45.795931056502425
RO_156259,Cenad,20.579421360894102,46.132790593493475
RO_156277,Cenei,20.917477077286673,45.72530433579094
RO_156311,Chevereşu Mare,21.477193558507164,45.67079435231895
RO_156357,Oraş Ciacova,21.115629143953832,45.5186439985466
RO_156437,Comloşu Mare,20.62794925520426,45.887007047596
RO_156473,Coşteiu,21.85537610705568,45.74461718200318
RO_15652,Cocu,24.656365761679996,44.8690056812286
RO_156534,Criciova,22.08028168008157,45.627785227677855
RO_156589,Curtea,22.308574670182615,45.83775342957266
RO_156623,Darova,21.765302494356625,45.63495549300935
RO_156669,Denta,21.24660039693332,45.36270203958078
RO_156712,Dudeştii Vechi,20.472554682514527,46.04796351978074
RO_156767,Dumbrava,22.11575937358187,45.819965636030595
RO_156801,Oraş Făget,22.17799044688219,45.85617066756504
RO_156927,Fârdea,22.193026266149417,45.74861662521878
RO_157004,Foeni,20.874533099940123,45.490994650461566
RO_157031,Gavojdia,22.01541529959871,45.62645531140616
RO_157086,Oraş Gătaia,21.425902180824355,45.42524354877131
RO_157193,Ghizela,21.74211831893812,45.815775164819776
RO_157246,Giarmata,21.308633901806452,45.84027590549972
RO_157273,Giera,20.980133696313167,45.41033343692053
RO_157317,Giulvăz,20.9864017681853,45.53275093473331
RO_157362,Jamu Mare,21.423237072725435,45.261776148380974
RO_15741,Corbeni,24.65651055266357,45.275984326950166
RO_157424,Jebel,21.2174052194569,45.55973175961337
RO_157451,Lenauheim,20.781582100894827,45.886143545719335
RO_157497,Liebling,21.3212255185856,45.57920609441024
RO_157530,Lovrin,20.766758086634482,45.96846220281087
RO_157585,Margina,22.269348414866787,45.864330985487406
RO_157683,Maşloc,21.471439067133467,46.00844816902378
RO_157736,Mănăştiur,22.058105533710677,45.84009388799846
RO_157781,Moraviţa,21.262460911022952,45.27009753636135
RO_157834,Moşniţa Nouă,21.313464173571333,45.72127266771706
RO_157898,Nădrag,22.185697060710154,45.647296472613846
RO_157923,Niţchidorf,21.534576329603272,45.57918007249255
RO_157969,Ohaba Lungă,21.98945280474517,45.91243561426284
RO_158010,Orţişoara,21.199539512121206,45.96290610270418
RO_158065,Peciu Nou,21.03507031143249,45.612147731952675
RO_158109,Periam,20.871028703142038,46.04377340858716
RO_158136,Pietroasa,22.427340107642397,45.8148712885462
RO_158181,Pişchia,21.371575561783583,45.90164511550131
RO_158243,Racoviţa,21.635162345282993,45.70257084845314
RO_15830,Corbi,24.81956920955292,45.2503781821144
RO_158314,Oraş Recaş,21.503625413990115,45.800235251696925
RO_158396,Remetea Mare,21.386780075085582,45.79645065495953
RO_158449,Sacoşu Turcesc,21.397056184640125,45.648176977210596
RO_158528,Satchinez,21.057912455661246,45.93451806111602
RO_158564,Săcălaz,21.08925881177696,45.7599292531097
RO_158608,Secaş,21.822024741333816,45.88755059626488
RO_158653,Sânandrei,21.177786773422078,45.865548982061235
RO_158699,Sânmihaiu Român,21.099270207953456,45.71048028837296
RO_158733,Sânpetru Mare,20.80869955648946,46.06242344451172
RO_158779,Şag,21.167591577834383,45.65208354313958
RO_158804,Ştiuca,21.97830579456025,45.567543241579074
RO_158859,Teremia Mare,20.52855178611174,45.94447760052934
RO_158895,Tomeşti,22.313941387084316,45.782489573534704
RO_158966,Topolovăţu Mare,21.62233019976206,45.777012778708304
RO_15901,Coşeşti,24.86794556042976,45.07204351919792
RO_159035,Tormac,21.47350047973004,45.51885029450308
RO_159071,Traian Vuia,22.039863448354136,45.79604134782565
RO_159142,Uivar,20.885710795808418,45.645189058342545
RO_159213,Variaş,20.977101728722065,46.009784513848416
RO_159259,Victor Vlad Delamarina,21.86335568009287,45.61951416149035
RO_159339,Voiteg,21.24177763700996,45.47197263587637
RO_159366,Birda,21.332759317450122,45.41746145615309
RO_159375,Checea,20.832195876325546,45.75133679147149
RO_159384,Dudeştii Noi,21.09801805406237,45.83974414804052
RO_159393,Fibis,21.423656040905733,45.973629640011815
RO_159400,Ghilad,21.1023842215547,45.47118695639491
RO_159419,Gottlob,20.706622901199452,45.934903322747786
RO_159428,Iecea Mare,20.892720073868148,45.85079249183159
RO_159437,Parta,21.135154725427682,45.62808993248011
RO_159446,Pădureni,21.215425393792792,45.59904895017799
RO_159455,Saravale,20.739145809409894,46.06904951192915
RO_159464,Şandra,20.88725654967989,45.9236984123629
RO_159473,Tomnatic,20.6582357162597,45.98739266528893
RO_159482,Valcani,20.396168097525408,46.001949651902414
RO_159491,Livezile,21.056195348139315,45.39816776580098
RO_159507,Pesac,20.833797601409476,45.994371097967516
RO_159516,Bucovăţ,21.379770026943547,45.7529938241074
RO_159525,Otelec,20.857623293198635,45.595121022397635
RO_159614,Municipiul Tulcea,28.79565358142849,45.173245266483164
RO_159650,Oraş Babadag,28.730010024803462,44.89368021752084
RO_159687,Oraş Isaccea,28.455120956801675,45.27076451539689
RO_159730,Oraş Măcin,28.13451470371594,45.24477171424116
RO_159767,Oraş Sulina,29.653101398769255,45.15690579583895
RO_159785,Baia,28.66234487466631,44.731819518139815
RO_15983,Cotmeana,24.626098058134232,44.98484228049526
RO_159847,Beidaud,28.534289772016344,44.71859939327575
RO_159883,C.A. Rosetti,29.545127709498505,45.32907071057565
RO_159945,Carcaliu,28.14680363800763,45.187815546048284
RO_159963,Casimcea,28.37113919670562,44.73463141310894
RO_160047,Ceatalchioi,28.78370953698595,45.27636600160471
RO_160092,Ceamurlia de Jos,28.747777021864618,44.73766111380961
RO_160127,Cerna,28.291311398148014,45.066595088650246
RO_160172,Chilia Veche,29.285364265076772,45.417277726074886
RO_160225,Ciucurova,28.48300569356465,44.91149908167541
RO_160261,Crişan,29.30980865430296,45.18574857820798
RO_160305,Dăeni,28.127602270371153,44.84759163007174
RO_160323,Dorobanţu,28.303276006743776,44.95964525255489
RO_160387,Frecăţei,28.66064681710256,45.11171482308395
RO_160430,Greci,28.23396123932106,45.18980823820901
RO_160458,Grindu,28.197913549604685,45.40678131184575
RO_160476,Hamcearca,28.379788143387707,45.13601047841434
RO_160528,Horia,28.450271441867073,45.033033194701396
RO_160564,Izvoarele,28.529703423777473,45.0409496461056
RO_160617,Jijila,28.15210612450424,45.30832102194644
RO_160644,Jurilovca,28.87298589114848,44.764128639141134
RO_160680,Luncaviţa,28.27937529140113,45.28796500435794
RO_160724,Mahmudia,29.086855135082367,45.08711703911397
RO_160779,Maliuc,29.041749828981846,45.18704558437489
RO_160831,Mihai Bravu,28.644912274616523,44.9637199067759
RO_160877,Mihail Kogălniceanu,28.734505970609455,45.030925063526844
RO_160911,Murighiol,29.14741079147506,45.02518889990386
RO_160993,Nalbant,28.595175043557862,45.021396657105754
RO_161035,Niculiţel,28.478752650039407,45.18439882368604
RO_161053,Nufăru,28.910938661768753,45.14306750566763
RO_161106,Ostrov,28.151048100177952,44.921404223231114
RO_161133,Pardina,29.069740682883854,45.27540475962561
RO_161151,Peceneaga,28.143413561542282,45.008869474491085
RO_161179,Sarichioi,28.832683040668197,44.932713322331566
RO_161231,Sfântu Gheorghe,29.59523757470237,44.89892698237034
RO_161259,Slava Cercheză,28.57769324103529,44.876135229290625
RO_161286,Smârdan,28.00625616590563,45.28239109446899
RO_161302,Somova,28.679071055671237,45.18363300505929
RO_16132,Cuca,24.506532368267575,44.956776809828135
RO_161348,Stejaru,28.538480724242614,44.78082091921783
RO_161384,Topolog,28.371675283950417,44.87243013479084
RO_161464,Turcoaia,28.18740740212451,45.10879460665647
RO_161482,Valea Nucarilor,28.906635459299245,45.03236806314281
RO_161525,I.C.Brătianu,28.04625574494695,45.41876128179098
RO_161543,Văcăreni,28.19476774918734,45.323743987133604
RO_161552,Bestepe,29.0130985818619,45.09355485548807
RO_161561,Valea Teilor,28.488652339339247,45.10839140260545
RO_161794,Municipiul Bîrlad,27.669976225178992,46.22494781947541
RO_161829,Municipiul Huşi,28.062020363322116,46.673906326272224
RO_161856,Oraş Negreşti,27.455862869802697,46.83419667799224
RO_161945,Municipiul Vaslui,27.73300829527838,46.63908968533291
RO_162014,Albeşti,27.86430981161795,46.508958313303644
RO_162069,Alexandru Vlahuţă,27.634569894902274,46.43254566968426
RO_162149,Arsura,28.030777455218928,46.79371026074025
RO_162194,Banca,27.82266654711027,46.335758412909115
RO_162327,Băcani,27.681263482360603,46.328580894661116
RO_162381,Băceşti,27.242447714394117,46.82460929014536
RO_162452,Bălteni,27.63207960318463,46.670589415526926
RO_162498,Berezeni,28.14627616661279,46.37030156834961
RO_162559,Blăgeşti,28.010161696376663,46.13835315215148
RO_162595,Bogdana,27.619288595926502,46.54455249176177
RO_162693,Bogdăneşti,27.726099884753978,46.42365707660922
RO_162791,Bogdăniţa,27.672933681007944,46.4313194246738
RO_16285,Davideşti,25.01350113854647,44.991805794088584
RO_162871,Boţeşti,27.891422166158613,46.77305122267252
RO_162924,Buneşti-Avereşti,27.979012064216565,46.81667433931987
RO_163002,Codăeşti,27.765644986026732,46.87952245460657
RO_163057,Coroieşti,27.50136473789153,46.28519270378891
RO_163137,Costeşti,27.76673497732294,46.49017293136495
RO_163208,Creţeşti,27.9714516184359,46.63777893030753
RO_163253,Dăneşti,27.67291209731417,46.85592214137447
RO_16329,Dâmbovicioara,25.20893380339849,45.41473172405581
RO_163324,Deleni,27.757198806576834,46.5427180787851
RO_163379,Deleşti,27.552850199911266,46.69317497921355
RO_163486,Dragomireşti,27.34563800125277,46.63016702796411
RO_163618,Drânceni,28.110415418718834,46.80205166407743
RO_16365,Dârmăneşti,24.9023586057226,45.00700622018201
RO_163681,Duda-Epureni,28.06990787773036,46.71281505661129
RO_163734,Dumeşti,27.30110537865601,46.837399059117054
RO_163789,Epureni,27.912555509656375,46.24041002664236
RO_163832,Fălciu,28.131377205208253,46.30021105690786
RO_163903,Găgeşti,27.977807002799626,46.31655225923117
RO_163967,Ghergheşti,27.52656006392382,46.50772579908749
RO_164062,Gârceni,27.28051772974623,46.75306570946073
RO_164133,Griviţa,27.66927685694912,46.1726964970487
RO_164197,Hoceni,27.983223727583752,46.51436975298125
RO_16427,Dobreşti,25.115084559897333,44.94454578304158
RO_164277,Dimitrie Cantemir,28.051520065094635,46.49997043418122
RO_164339,Iana,27.551668256090267,46.39461248871818
RO_164393,Ivăneşti,27.455197195214705,46.646055886823625
RO_16454,Domneşti,24.836739469100237,45.207163067288526
RO_164543,Iveşti,27.537270488578798,46.19433746358352
RO_164598,Laza,27.603610632649964,46.64381211757257
RO_164687,Lipovăţ,27.70889833493646,46.57208623565684
RO_16472,Dragoslavele,25.167604225556268,45.34262948617252
RO_164749,Lunca Banului,28.172796131658377,46.590720384725586
RO_164829,Măluşteni,27.920146976021204,46.17328239272936
RO_164892,Micleşti,27.839089715948557,46.830099844546126
RO_164936,Muntenii de Jos,27.77328890714035,46.61262437758659
RO_164981,Oraş Murgeni,28.0208626879286,46.201920771723174
RO_16506,Drăganu,24.712984757397155,44.925842410760254
RO_165069,Olteneşti,27.87960782139508,46.582601054946856
RO_165130,Oşeşti,27.44931842275211,46.761357700430416
RO_165185,Pădureni,28.075874089330988,46.6094135535361
RO_165274,Perieni,27.63400455177006,46.25755137183515
RO_165336,Poieneşti,27.558452138943796,46.603553394994606
RO_165416,Pogana,27.559524805823663,46.333823386113714
RO_165470,Puieşti,27.469538532831905,46.44440280391065
RO_16551,Godeni,24.98947565298518,45.20228048524956
RO_165611,Pungeşti,27.36688169713498,46.6986430259198
RO_165719,Rebricea,27.583071391840832,46.871829955308314
RO_165817,Roşieşti,27.908982531904446,46.447905880709214
RO_165899,Soleşti,27.790867575793122,46.78138406876565
RO_165979,Stănileşti,28.168370815492608,46.62496746082781
RO_166057,Ştefan cel Mare,27.609588360419057,46.72762337712938
RO_16613,Hârseşti,24.77954677233659,44.51902198448543
RO_166137,Şuletea,27.91910374439683,46.299401197306985
RO_166182,Tanacu,27.817719692336023,46.68286588478835
RO_166235,Tăcuta,27.659597160253185,46.93077350548596
RO_166315,Tătărăni,27.9359225954217,46.69831087834763
RO_166413,Todireşti,27.390337903683612,46.84267176837857
RO_166529,Tutova,27.54948192199806,46.10696520334366
RO_16659,Hârtieşti,25.11181313882035,45.12686276420218
RO_166636,Văleni,27.75977703343429,46.73905416659187
RO_166672,Vetrişoaia,28.208414485588467,46.429497568923296
RO_166707,Viişoara,27.88787630561243,46.37854244221259
RO_166770,Vinderei,27.802873160330897,46.15306796037086
RO_166869,Voineşti,27.422726018182818,46.5671400773298
RO_166985,Vultureşti,27.527123186171245,46.80341222495088
RO_167035,Vutcani,27.957892026905036,46.46740052122849
RO_167071,Zăpodeni,27.65821957484739,46.74580488499705
RO_167179,Zorleni,27.69818415783776,46.237405287884904
RO_167222,Ibaneşti,27.618371758156645,46.41437049169821
RO_167231,Fruntişeni,27.77006942019568,46.19950243573563
RO_167240,Rafaila,27.363047054109835,46.79947121663332
RO_167259,Pogoneşti,27.531032800376895,46.15270637758299
RO_167268,Ciocani,27.640024624989138,46.227755548146185
RO_167277,Cozmeşti,27.462724147934807,46.72780613182533
RO_167286,Dodeşti,27.902096615813782,46.35264645198377
RO_167295,Fereşti,27.701461743199324,46.77954706871504
RO_167302,Muntenii de Sus,27.750129070251987,46.69701777956271
RO_167311,Pochidia,27.573212447017678,46.06099431278501
RO_167320,Puşcasi,27.631892803563645,46.61873314184893
RO_16739,Izvoru,25.063526726717562,44.491477750137726
RO_167473,Municipiul Râmnicu Vâlcea,24.36895853020114,45.10428414876573
RO_16757,Leordeni,25.154547516317912,44.781772361464526
RO_167641,Oraş Băile Govora,24.194338676861655,45.0833443242741
RO_167696,Oraş Băile Olăneşti,24.243633134213233,45.194454079374545
RO_167794,Oraş Brezoi,24.243994848271406,45.3417924168432
RO_167909,Oraş Călimăneşti,24.342849155730093,45.238859634261196
RO_167981,Municipiul Drăgăşani,24.261762775468224,44.65858824830062
RO_168041,Oraş Horezu,23.98816404787589,45.152713155185936
RO_168130,Oraş Ocnele Mari,24.29281475459735,45.08296621199363
RO_168229,Alunu,23.81590497034839,45.011066531747424
RO_168309,Amărăşti,24.15483034975696,44.75508593004011
RO_168372,Oraş Băbeni,24.234384515877682,44.962614643052575
RO_168452,Oraş Bălceşti,23.944251505300194,44.62023876771646
RO_168559,Bărbăteşti,24.112241793575297,45.14646946717643
RO_168602,Oraş Berbeşti,23.870047329047555,44.98990723984587
RO_168675,Berislăveşti,24.42775164543473,45.26747690497104
RO_168755,Boişoara,24.374268374916586,45.44188988227317
RO_168791,Budeşti,24.373358601092548,45.06475929300955
RO_168880,Bujoreni,24.368687907784235,45.1360413635521
RO_168960,Buneşti,24.20208451578256,45.10407887397649
RO_169039,Cernişoara,24.006857225762943,45.0281544430801
RO_16908,Lereşti,25.06955452655333,45.30998421529996
RO_169119,Câineni,24.303397958686947,45.48962427194491
RO_169182,Copăceni,23.976867024119414,44.99112857885301
RO_169253,Costeşti,24.055913333840937,45.16315931606504
RO_169306,Creţeni,24.180539040066858,44.69970785622154
RO_169351,Dăeşti,24.381025392934788,45.168296442518724
RO_169404,Dănicei,24.446327520878683,44.90393376598381
RO_16944,Lunca Corbului,24.75270477183164,44.674152091062346
RO_169547,Drăgoeşti,24.293406059142278,44.8147245720835
RO_169583,Făureşti,24.007891938370225,44.57147145194162
RO_1696,Oraş Cugir,23.35907268674592,45.84159885475692
RO_169681,Fârtăţeşti,23.975609246197305,44.76625042078784
RO_169896,Frânceşti,24.169979384722414,45.01451281051884
RO_169994,Galicea,24.289222797018272,44.94237277505609
RO_170097,Ghioroiu,23.848414950068328,44.678163113383675
RO_170168,Glăvile,24.127478610380976,44.81821473501328
RO_170220,Goleşti,24.450183222420854,45.083804612268715
RO_170346,Grădiştea,23.816374065781424,44.89981688523381
RO_170444,Guşoeni,24.133680972411494,44.71568701812049
RO_17049,Mălureni,24.774772450473606,45.05192582985912
RO_170514,Ioneşti,24.232801692456043,44.85926473348966
RO_170612,Laloşu,24.03998778981593,44.52954488205415
RO_170685,Lădeşti,24.03979005705392,44.87122616975684
RO_170792,Lăpuşata,24.01306033548419,44.91985504890367
RO_170872,Livezi,23.826902212608637,44.8342342559146
RO_170952,Lungeşti,24.207010198386843,44.569439605296175
RO_17101,Merişani,24.752638564489054,44.961014338483146
RO_171021,Malaia,24.02966556813501,45.358115558576
RO_171067,Mateeşti,23.858385822221514,45.0608657400534
RO_171101,Măciuca,24.033033997384308,44.7486287534411
RO_171209,Mădulari,24.096610500106586,44.67569227671296
RO_171272,Măldăreşti,23.999718913679125,45.11838944325708
RO_171325,Mihăeşti,24.25881159720401,45.032031930917455
RO_171469,Milcoiu,24.486145496314254,45.0373782052964
RO_171539,Muereasca,24.311000779315535,45.19514264161665
RO_171628,Nicolae Bălcescu,24.404079048747818,44.9785702965291
RO_171806,Olanu,24.29037474131741,44.86375157557759
RO_171879,Orleşti,24.23370558573431,44.789242439553405
RO_171931,Oteşani,24.032411235763256,45.063457358745545
RO_171995,Păuşeşti,24.140274883069843,45.06949405424361
RO_172082,Păuşeşti-Măglaşi,24.255940031305748,45.1402964701824
RO_17209,Miceşti,24.87636311382377,44.95595889078744
RO_172153,Perişani,24.41722584386416,45.37297472667165
RO_172279,Pesceana,24.13322964399573,44.8862968131831
RO_172340,Pietrari,24.108154520527457,45.10842716482195
RO_172377,Popeşti,24.094840665761772,44.98758306326589
RO_172457,Prundeni,24.24406631476148,44.73101557955791
RO_172509,Racoviţa,24.305269304464638,45.41206843861352
RO_17254,Mihăeşti,25.012177592553037,45.12344623292985
RO_172581,Roeşti,24.071679301773074,44.910884781151424
RO_172698,Roşiile,23.92053422769738,44.89544795670541
RO_172812,Runcu,24.456981832807816,45.174122636318636
RO_172894,Sălătrucel,24.387521607469463,45.24989323780184
RO_172947,Scundu,24.18698573138869,44.84127545353958
RO_172992,Sineşti,23.831245872073545,44.935607428683824
RO_173061,Slătioara,23.88913019795629,45.118749091774966
RO_173132,Stăneşti,24.0409627786541,44.815053269945096
RO_173230,Stoeneşti,24.143442407287058,45.15185783528495
RO_17334,Mioarele,25.08729140933326,45.23309910934337
RO_173374,Stoileşti,24.351440690936474,44.912947395829335
RO_173533,Stroeşti,23.922754933600196,45.07588696459344
RO_173597,Suteşti,24.204365153153574,44.672880783538446
RO_173686,Şirineasa,24.17856990164484,44.93957814435518
RO_173748,Ştefăneşti,24.242387101487388,44.603789494594956
RO_173793,Şuşani,24.102055249011222,44.59610540913225
RO_173855,Tetoiu,23.91645094179952,44.77585857122129
RO_173935,Tomşani,24.052019380535324,45.110673673776006
RO_17398,Miroşi,24.946446386793678,44.4094438074242
RO_174021,Vaideeni,23.919679861161526,45.176103191524575
RO_174085,Valea Mare,23.99690106792266,44.67814945070607
RO_174156,Vlădeşti,24.300415038515467,45.122781144461605
RO_174218,Voiceşti,24.29110089320393,44.60415018013298
RO_17423,Morăreşti,24.535567980365595,45.011651052477916
RO_174254,Voineasa,23.959180608960704,45.41750108002975
RO_174290,Zătreni,23.848620077497777,44.769580104357395
RO_174496,Titeşti,24.392026311108694,45.414117699966155
RO_174502,Diculeşti,23.98517348134674,44.60945709810963
RO_174511,Lacusteni,23.89515924493197,44.70919810712002
RO_174520,Mitrofani,24.21134270261068,44.72836769235709
RO_174744,Municipiul Focşani,27.185695941487936,45.693955112009725
RO_174780,Câmpineanca,27.132887819162466,45.70884030443856
RO_174824,Goleşti,27.16947369020927,45.66591306553092
RO_174860,Municipiul Adjud,27.182730339569606,46.09968030497465
RO_174922,Oraş Mărăşeşti,27.228716914125297,45.87899078940758
RO_17496,Moşoaia,24.84686051398455,44.842850858568816
RO_175019,Oraş Odobeşti,27.107105999681668,45.74129100836396
RO_175055,Oraş Panciu,27.090084016710332,45.90644761810543
RO_175126,Andreiaşu de Jos,26.814404992517897,45.73753484682578
RO_175206,Băleşti,27.235070800385888,45.440401015670865
RO_175224,Bârseşti,26.742586576043827,45.906634157519996
RO_175260,Bogheşti,27.39508106275529,46.186209927962636
RO_175368,Boloteşti,27.064917464771405,45.84849166379155
RO_175439,Bordeşti,27.0430915250479,45.54603297790319
RO_175466,Broşteni,27.022694691115834,45.76289198276723
RO_175509,Chiojdeni,26.827023520609284,45.562066082244115
RO_175590,Ciorăşti,27.31858070782618,45.43842283341021
RO_175670,Câmpuri,26.76852000889276,46.02416441159872
RO_175732,Cârligele,27.059665447206488,45.688068808548955
RO_17575,Mozăceni,25.178989789774874,44.556556681467946
RO_175787,Corbiţa,27.302464400716623,46.15660259337906
RO_175885,Coteşti,27.059595423511364,45.6402907902269
RO_175938,Dumbrăveni,27.122838878662918,45.571837300233376
RO_175983,Dumitreşti,26.922454807803078,45.55898700447542
RO_176150,Fitioneşti,27.078874816596432,45.96662911636672
RO_17619,Muşăteşti,24.781132813587938,45.17742230065101
RO_176212,Garoafa,27.24421567905533,45.78984747693177
RO_176301,Gugeşti,27.128739088962654,45.56975123816255
RO_176338,Gura Caliţei,26.997231646261465,45.602349764076116
RO_176445,Homocea,27.239205749298907,46.13571689505798
RO_176506,Jariştea,27.056342138099403,45.784488219057145
RO_176551,Jitia,26.78149013509092,45.57353936255703
RO_176613,Măicăneşti,27.466476081664204,45.5024036578468
RO_176686,Mera,26.932874788161868,45.76393959553551
RO_176748,Milcovul,27.262460213483287,45.643144460002674
RO_176793,Moviliţa,27.104760876527262,45.95554709234435
RO_176855,Năneşti,27.501324732136187,45.5665325866716
RO_176891,Năruja,26.765479206058124,45.81984213428302
RO_176944,Nereju,26.709734312150747,45.71100697228238
RO_177003,Nistoreşti,26.688473308723783,45.81732476933012
RO_177101,Paltin,26.72736458036529,45.778880652413115
RO_177236,Păuneşti,27.106822771850663,46.03307495297017
RO_17726,Negraşi,25.108426351811552,44.61203193728832
RO_177263,Poiana Cristei,26.984055840696353,45.660380590666094
RO_177352,Pufeşti,27.20076593071736,46.0121162163165
RO_177405,Răcoasa,26.882394085407075,45.999681573324295
RO_177469,Reghiu,26.88800327723208,45.78893409187519
RO_177557,Rugineşti,27.12093389002588,46.07579752427397
RO_177600,Sihlea,27.138878680688414,45.49024730517788
RO_177655,Slobozia Bradului,27.049206291705996,45.497014397923394
RO_17771,Nucşoara,24.789121313557306,45.339252635914114
RO_177726,Slobozia Ciorăşti,27.23506138573687,45.61038322335348
RO_177762,Soveja,26.658218363251425,45.99753090985763
RO_177799,Străoane,27.044672951960752,45.934713397494605
RO_177842,Suraia,27.384305511574194,45.6783768053079
RO_177879,Tănăsoaia,27.37703307270756,46.10216906667643
RO_177986,Tătăranu,27.312771455597584,45.522978323769294
RO_178046,Tâmboeşti,27.049323946917703,45.50652576804827
RO_178117,Tulnici,26.6679550674553,45.914471097124604
RO_178180,Ţifeşti,27.113970291118985,45.84819002505544
RO_17824,Oarja,24.974518253970565,44.76573979497649
RO_178279,Urecheşti,27.07697101262689,45.599990439350314
RO_178313,Valea Sării,26.817768010792715,45.88597875273945
RO_178377,Vidra,26.914221051553127,45.913418755020245
RO_178475,Vintileasca,26.715612939439627,45.62351652785206
RO_17851,Pietroşani,24.847762917668373,45.15255497870823
RO_178545,Vizantea-Livezi,26.794021060194364,45.9744622039251
RO_178607,Vânători,27.260847032110703,45.725444372223244
RO_178689,Vârteşcoiu,27.082264032851064,45.73573095496447
RO_178750,Vrâncioaia,26.723250837653804,45.87621068898756
RO_178821,Vulturu,27.41855919070158,45.614861400390936
RO_178885,Negrileşti,26.701600258815624,45.93720189104419
RO_178894,Ploscuţeni,27.26755686214827,46.07419617080754
RO_178901,Popeşti,27.10171497565088,45.58468024459983
RO_178910,Pauleşti,26.680624701841953,45.88878898340368
RO_178929,Bilieşti,27.33134576866953,45.726165529306094
RO_178938,Gologanu,27.269318599237252,45.60978352429793
RO_178947,Obrejiţa,27.081071360614864,45.49767254853955
RO_178956,Răstoaca,27.284898677413803,45.66154264765901
RO_178965,Spulber,26.741361214940916,45.738443007604495
RO_17913,Poienarii de Argeş,24.526107880666327,45.06741363605789
RO_179132,Municipiul Bucureşti,26.098148849053135,44.42276328708962
RO_179221,Oraş Bragadiru,26.01128856557336,44.38625243963746
RO_179249,Chiajna,26.012664678534883,44.445161549909244
RO_179285,Oraş Chitila,25.984454305509985,44.50240414528042
RO_179310,Dobroieşti,26.17992984921742,44.45205188712887
RO_179347,Glina,26.231412365605607,44.3920986185833
RO_179383,Jilava,26.080158512293778,44.333878650784314
RO_1794,Oraş Ocna Mureş,23.85618495622385,46.385779792149414
RO_179409,Oraş Măgurele,26.031489587620015,44.35681575303919
RO_179463,Mogoşoaia,26.000118369940594,44.513730004932356
RO_179481,Oraş Otopeni,26.073277393447697,44.550238514041446
RO_179515,Oraş Pantelimon,26.209838110393115,44.44286795892522
RO_179533,Oraş Popeşti Leordeni,26.175201673809056,44.37991959186727
RO_179551,Oraş Voluntari,26.17365064888213,44.49046339262004
RO_179588,Copăceni,26.081414732350584,44.270812712308505
RO_179604,Poienile Izei,24.11297202878286,47.69965872346799
RO_179613,Şieu,24.218740008704554,47.72236427793567
RO_179622,Groşii Ţibleşului,24.06561809258095,47.489498887727734
RO_179631,Treznea,23.11800856972387,47.10075601356064
RO_179640,Vulcana-Pandele,25.39387529338801,45.01902867253895
RO_179659,Negrileşti,24.050543467257842,47.29365248537211
RO_179677,Camin,22.480068642629924,47.73392478707533
RO_17968,Poienarii de Muscel,25.04810461558743,45.21902050104383
RO_179686,Dumitriţa,24.64883731830209,47.0641480506933
RO_179695,Şimişna,23.618910080327392,47.22847585194522
RO_179702,Traian,27.34194247778089,44.76202217682655
RO_179711,Vlădeni,25.784926611468382,44.881191904463705
RO_179720,Poiana  Ilvei,24.741820251001528,47.35915764355117
RO_179739,Malu,25.816403373882526,43.81519832226782
RO_179748,Cosoba,25.819147584043968,44.52109379312747
RO_179757,Herăşti,26.359904802095237,44.21149334845769
RO_179766,Isvoarele,26.316193301348786,44.171199367172754
RO_179775,Săbăreni,25.879206429841663,44.508726728852395
RO_179784,Boraneşti,26.601773507903687,44.66104633741495
RO_179793,Bueşti,27.184937807119812,44.546564180889725
RO_179800,Maia,26.402240811197334,44.73891128132079
RO_179819,Ograda,27.56929413093919,44.61580384533173
RO_179828,Roşiori,26.53188220173369,44.612163620867904
RO_179837,Coas,23.582242188327243,47.53703287361445
RO_179846,Coltău,23.525166424106047,47.59694602321402
RO_179855,Gărdani,23.31216077069596,47.550066827345255
RO_179864,Onceşti,23.977109051392187,47.84938812600709
RO_179873,Agriş,22.997761363249413,47.87978901584678
RO_179882,Ciumeşti,22.33807619879925,47.662531236842106
RO_179891,Raciu,25.441573714099004,44.81436577085759
RO_179908,Pietrari,25.29222598614603,45.100478157217985
RO_179917,Râu Alb,25.3425787472034,45.14769113246454
RO_179926,Răscăeţi,25.271637970297224,44.58991117089366
RO_179935,Perşinari,25.49760037114358,44.794191282701945
RO_179944,Runcu Salvei,24.323799995716357,47.344258754925704
RO_179953,Ciceu - Mihaieşti,23.971783902356286,47.187918187403895
RO_179962,Gălbinaşi,26.41912433289259,44.31540884752632
RO_179971,Colelia,27.005612815839573,44.76142971495054
RO_179980,Mărculeşti,27.51035922289176,44.57760946693703
RO_179999,Moldoveni,26.52605246245514,44.74717457214905
RO_180000,Platoneşti,27.684939875002698,44.61527327652093
RO_180019,Sărateni,26.928942406414613,44.63506310395976
RO_180028,Porumbeşti,22.973035333133694,47.98251953943933
RO_180037,Boghis,22.73641752622746,47.15060322503262
RO_180046,Gura Ialomiţei,27.738993489191195,44.735733429891845
RO_180055,Crivăţ,26.461935352430245,44.22395625761475
RO_180064,Bărbuleşti,26.6009404074379,44.725725553207624
RO_180091,Racşa,23.333443994641822,47.81919589473714
RO_18028,Poiana Lacului,24.7196805791243,44.8087810534079
RO_18162,Popeşti,25.121704579446103,44.44171278796868
RO_18242,Priboieni,25.08547533435774,44.87348590728512
RO_18331,Răteşti,25.14992825189483,44.72721747115968
RO_18411,Recea,25.031335887967643,44.52644518255515
RO_18475,Rociu,25.003367382783715,44.66995750628763
RO_18527,Rucăr,25.164253961414556,45.39249752227815
RO_18554,Sălătrucu,24.51929936010925,45.29080756917413
RO_18581,Săpata,24.74562550885023,44.74558568693826
RO_18670,Schitu Goleşti,24.999425010645805,45.17881814746707
RO_1874,Municipiul Sebeş,23.567762761980422,45.95484432348698
RO_18741,Slobozia,25.237776965394087,44.51873341220992
RO_18778,Stâlpeni,24.989039137712044,45.05215129992411
RO_18858,Stoeneşti,25.187787986986688,45.247606416957986
RO_18938,Stolnici,24.77289625178239,44.57479584122681
RO_19007,Suseni,24.959661952189514,44.70299000590378
RO_19114,Ştefan cel Mare,25.24479117127733,44.49159519865725
RO_19141,Şuici,24.536395418368954,45.24419572665022
RO_19212,Teiu,25.12826998226582,44.65491925063659
RO_19249,Tigveni,24.560413937618833,45.147937779789636
RO_19338,Ţiţeşti,24.985423911255214,45.01270969587859
RO_1936,Oraş Zlatna,23.22777370305352,46.11145137392908
RO_19392,Uda,24.589862962420405,44.85691522877162
RO_19560,Ungheni,24.94673501827578,44.51125406879322
RO_19631,Valea Danului,24.659464368181418,45.16802528911208
RO_19695,Valea Iaşului,24.68583119922187,45.19282558845201
RO_19793,Vedea,24.636816858795985,44.77899035970186
RO_19999,Vlădeşti,24.919408274830246,45.15397080992087
RO_20048,Raca,25.040543486732027,44.43709348332981
RO_20055,Vultureşti,25.087362549543244,45.06431014025566
RO_20063,Bughea de Sus,25.045144569319522,45.29834378255107
RO_20297,Municipiul Bacău,26.913043530690004,46.55933609064219
RO_20313,Hemeiuş,26.871429547442304,46.61978450348774
RO_20359,Letea Veche,26.932149152490155,46.55146307392792
RO_20411,Măgura,26.870826443263756,46.56531657529986
RO_20466,Mărgineni,26.86348147669016,46.58249093108723
RO_20563,Municipiul Oneşti,26.763997939090945,46.247266946571195
RO_20607,Gura Văii,26.859262109727535,46.28652992200148
RO_20670,Ştefan cel Mare,26.848243268298983,46.21625104351657
RO_20778,Oraş Buhuşi,26.70433747264752,46.71772338646245
RO_20821,Oraş Comăneşti,26.438774129076712,46.42357562060779
RO_20876,Municipiul Moineşti,26.483435439899534,46.4707802331696
RO_20910,Oraş Slănic Moldova,26.510960969563627,46.23515633707189
RO_20965,Oraş Târgu Ocna,26.610332229628224,46.27694957396199
RO_21007,Agăş,26.22394760126693,46.481101653799705
RO_21098,Ardeoani,26.613593043684716,46.52461794821554
RO_21123,Asău,26.412437157716674,46.43325904569771
RO_21196,Balcani,26.537165026756274,46.65560098330627
RO_21249,Bereşti-Bistriţa,26.85158362296725,46.71132396239647
RO_2130,Albac,22.959286648698537,46.45494687045894
RO_21338,Bereşti-Tazlău,26.668925621839403,46.47672455269809
RO_21418,Berzunţi,26.637508846967826,46.4112119254275
RO_21454,Bârsăneşti,26.681761394912996,46.32580020789369
RO_21506,Blăgeşti,26.655532001407153,46.68539390834408
RO_21560,Bogdăneşti,26.688645066591107,46.21382137464018
RO_21597,Brusturoasa,26.18681026789908,46.50873733655292
RO_21668,Buhoci,27.00835493561645,46.58642983066737
RO_21720,Caşin,26.759001319682817,46.23972871389955
RO_21757,Căiuţi,26.917535234572206,46.169041473736584
RO_21855,Cleja,26.917142439714596,46.40751969621222
RO_21891,Coloneşti,27.289244063981805,46.56826056729164
RO_21971,Corbasca,27.14895689923268,46.30916248354795
RO_22059,Coţofăneşti,26.989418465060094,46.142597914654154
RO_22111,Dămieneşti,27.0031175166621,46.741755215185016
RO_22166,Oraş Dărmăneşti,26.477913527237,46.3684057748058
RO_22237,Dealu Morii,27.292056117295814,46.279624639977854
RO_22380,Dofteana,26.526355975784877,46.32134990638984
RO_22460,Faraoani,26.89555900486969,46.43797914212977
RO_22488,Filipeni,27.18515655260633,46.545131323835946
RO_22576,Filipeşti,26.874968819347224,46.76604675814074
RO_22665,Găiceana,27.203935752066656,46.347526119013644
RO_22718,Ghimeş-Făget,26.063879882727786,46.585216781193395
RO_22781,Gârleni,26.773491091700095,46.66218355062437
RO_22834,Glăvăneşti,27.38037837742099,46.25334246603818
RO_22898,Helegiu,26.76869208716666,46.354414082471614
RO_22941,Horgeşti,27.062267652560724,46.409250066845814
RO_23047,Huruieşti,27.236567810392863,46.25742047269001
RO_2309,Almaşu Mare,23.146209004472773,46.07501984999019
RO_23127,Izvoru Berheciului,27.225012549617798,46.57875118246234
RO_23207,Lipova,27.220425438749906,46.72614073298796
RO_23289,Livezi,26.731430038787696,46.407455044105376
RO_23350,Luizi-Călugăra,26.844561677126794,46.53604453313002
RO_23387,Măgireşti,26.49759688292636,46.49156121608198
RO_23449,Mănăstirea Caşin,26.696382476026066,46.15265037063284
RO_23494,Motoşeni,27.415791652833946,46.33597474809268
RO_23644,Negri,26.995927514393816,46.70197928056596
RO_23715,Nicolae Bălcescu,26.91012365432352,46.474212576583156
RO_23797,Oituz,26.61755946910468,46.204852595251864
RO_2381,Arieşeni,22.749315213424765,46.480153155359254
