gisco_id,lau_name,longitude,latitude
BG_BGS01,Айтос,27.254633017144904,42.70468606325934
BG_BGS04,Бургас,27.44416120174307,42.517492716117374
BG_BGS06,Средец,27.1828470185771,42.346099778633025
BG_BGS08,Камено,27.274386032367556,42.55013318568586
BG_BGS09,Карнобат,26.98259821085441,42.64663356617001
BG_BGS12,Малко Търново,27.524219315038,41.99458838409014
BG_BGS13,Царево,27.857342652810754,42.1605274635137
BG_BGS15,Несебър,27.7119477001067,42.67811711178076
BG_BGS17,Поморие,27.605888335581056,42.59472027490714
BG_BGS18,Руен,27.275203941818646,42.840415589006575
BG_BGS21,Созопол,27.604076160494834,42.39317882634487
BG_BGS23,Сунгурларе,26.804028076972042,42.78546476762025
BG_BGS27,Приморско,27.709660848190413,42.26910278185941
BG_BLG01,Банско,23.497232951771267,41.83057913262179
BG_BLG02,Белица,23.58837701620599,41.93185963350669
BG_BLG03,Благоевград,23.095875315030074,42.013128061509036
BG_BLG11,Гоце Делчев,23.723432517960315,41.58184201610377
BG_BLG13,Гърмен,23.802661755659987,41.63620387110374
BG_BLG28,Кресна,23.164656124412733,41.71968142910703
BG_BLG33,Петрич,23.202987195272677,41.4017098871058
BG_BLG37,Разлог,23.470076342888685,41.88937612197212
BG_BLG40,Сандански,23.278788755120527,41.559489217898886
BG_BLG42,Сатовча,24.007542416219103,41.5633469632689
BG_BLG44,Симитли,23.123327308737775,41.88432862494206
BG_BLG49,Струмяни,23.19298122804539,41.6305796546707
BG_BLG52,Хаджидимово,23.88614710245723,41.522093578655266
BG_BLG53,Якоруда,23.68192245219258,42.01740145112015
BG_DOB03,Балчик,28.145053887662495,43.41763774760879
BG_DOB12,Генерал Тошево,28.044791555955094,43.702533811228456
BG_DOB15,Добрич-селска,27.73756216627634,43.604698977128116
BG_DOB17,Каварна,28.339802819104932,43.432977304934205
BG_DOB20,Крушари,27.738625990533425,43.82174765475623
BG_DOB27,Тервел,27.402389554285715,43.737166182151526
BG_DOB28,Добрич,27.83037507176686,43.571538395623456
BG_DOB29,Шабла,28.534061003173857,43.54238784565685
BG_GAB05,Габрово,25.318082418131258,42.87621568648315
BG_GAB12,Дряново,25.474084966290793,42.97648572475609
BG_GAB29,Севлиево,25.10121106514883,43.02501886157593
BG_GAB35,Трявна,25.493707844176548,42.86809824388637
BG_HKV09,Димитровград,25.583795254671685,42.05909329310732
BG_HKV11,Ивайловград,26.11303111388604,41.52238822402573
BG_HKV17,Любимец,26.081559785566167,41.8426077234529
BG_HKV18,Маджарово,25.8358542877242,41.66106521539877
BG_HKV19,Минерални бани,25.32551394657358,41.862838643917
BG_HKV28,Свиленград,26.199741320168357,41.76964773687461
BG_HKV29,Симеоновград,25.843460152498903,42.05253832940016
BG_HKV30,Стамболово,25.671964939855147,41.75468921248685
BG_HKV32,Тополовград,26.341690320827254,42.08126644454822
BG_HKV33,Харманли,25.904803255281404,41.925435330222186
BG_HKV34,Хасково,25.55454380862374,41.93341057501615
BG_JAM03,Болярово,26.82053507169224,42.15298817665483
BG_JAM07,Елхово,26.57080477170428,42.173121299395774
BG_JAM22,Стралджа,26.686437732602254,42.59275691821814
BG_JAM25,Тунджа,26.44448657581787,42.433549505821325
BG_JAM26,Ямбол,26.51006596481623,42.483408498862296
BG_KNL04,Бобов дол,23.002608582948294,42.363102649252404
BG_KNL05,Бобошево,23.02369851235732,42.16544541110081
BG_KNL27,Кочериново,23.06429978302683,42.083787779188896
BG_KNL29,Кюстендил,22.693396553885655,42.283952707947805
BG_KNL31,Невестино,22.848059928644997,42.233701035422214
BG_KNL38,Рила,23.131559242386867,42.12582545200495
BG_KNL41,Сапарева баня,23.255483989865954,42.28753493657151
BG_KNL48,Дупница,23.119548795203333,42.26198662567022
BG_KNL50,Трекляно,22.59132131113718,42.5449403932754
BG_KRZ02,Ардино,25.130146126752177,41.5818380717524
BG_KRZ08,Джебел,25.29455189125471,41.4928838396034
BG_KRZ14,Кирково,25.322574002920117,41.352813754061835
BG_KRZ15,Крумовград,25.655754294312935,41.46756458066312
BG_KRZ16,Кърджали,25.368830007090693,41.63952159385971
BG_KRZ21,Момчилград,25.41411736903244,41.52766338631387
BG_KRZ35,Черноочене,25.305470950191197,41.773922437084316
BG_LOV02,Априлци,24.918089900151568,42.83657150212742
BG_LOV17,Летница,25.057051185197096,43.30076090790793
BG_LOV18,Ловеч,24.710313155540913,43.13977126367873
BG_LOV19,Луковит,24.182397160309893,43.196497020593284
BG_LOV33,Тетевен,24.263679633096583,42.9409913075912
BG_LOV34,Троян,24.709088666377205,42.885008692035065
BG_LOV36,Угърчин,24.410404295642447,43.073233798126985
BG_LOV38,Ябланица,24.11653319176016,43.04398030317566
BG_MON02,Берковица,23.130739530582737,43.235153695113894
BG_MON04,Бойчиновци,23.421823598884266,43.51879533843731
BG_MON07,Брусарци,23.09812376261876,43.69599651352813
BG_MON11,Вълчедръм,23.470649739678194,43.722680689049334
BG_MON12,Вършец,23.285874946176406,43.19522948541064
BG_MON14,Георги Дамяново,22.985877759427744,43.354005691743275
BG_MON24,Лом,23.236954760703394,43.81360332251818
BG_MON26,Медковец,23.189743539112463,43.652740981762975
BG_MON29,Монтана,23.22340037861405,43.41010335736725
BG_MON36,Чипровци,22.88162754028811,43.39159101861474
BG_MON38,Якимово,23.31705947850263,43.64739080045962
BG_PAZ03,Батак,24.24567316565164,41.93751730356377
BG_PAZ04,Белово,24.00788797143723,42.22099855095449
BG_PAZ06,Брацигово,24.393493279977438,42.04996741862496
BG_PAZ08,Велинград,23.981462005129178,42.0312111956407
BG_PAZ14,Лесичово,24.172837042200793,42.32043606652897
BG_PAZ19,Пазарджик,24.335916141945066,42.19285101295873
BG_PAZ20,Панагюрище,24.18512843549085,42.50271515712869
BG_PAZ21,Пещера,24.30270147502256,42.032758417385956
BG_PAZ24,Ракитово,24.09620010122289,42.00354584282656
BG_PAZ29,Септември,24.124431808896915,42.22003457742858
BG_PAZ32,Стрелча,24.321401496817614,42.5034762523125
BG_PAZ39,Сърница,23.999467943338807,41.75452467449485
BG_PDV01,Асеновград,24.874327341901658,42.01251626474707
BG_PDV07,Брезово,25.027272233652404,42.34924255465726
BG_PDV12,Калояново,24.75036944846342,42.360501677961444
BG_PDV13,Карлово,24.79099528181155,42.639052824603496
BG_PDV15,Лъки,24.830605414630863,41.83419316194243
BG_PDV17,Марица,24.786280599577577,42.20914333697376
BG_PDV22,Пловдив,24.749998937674423,42.14218868962407
BG_PDV23,Първомай,25.218362947037097,42.09077806912534
BG_PDV25,Раковски,24.958203877798184,42.26342724588539
BG_PDV26,Родопи,24.697578132594067,42.0897818954908
BG_PDV28,Садово,24.944692559604572,42.10539122622324
BG_PDV33,Съединение,24.554427135762666,42.28314085555758
BG_PDV37,Хисаря,24.68837548618155,42.50229051396984
BG_PDV39,Кричим,24.46965576350027,42.04388234692821
BG_PDV40,Перущица,24.543986717843755,42.0588554614065
BG_PDV41,Стамболийски,24.530948024955475,42.129232467251654
BG_PDV42,Куклен,24.786366997249655,42.03457078199181
BG_PDV43,Сопот,24.758980545346404,42.65205149596294
BG_PER08,Брезник,22.90506694189819,42.74020690747391
BG_PER19,Земен,22.748845782646345,42.48173043897268
BG_PER22,Ковачевци,22.82719488922698,42.52957193368973
BG_PER32,Перник,23.052521597524667,42.60396455581014
BG_PER36,Радомир,22.96555692947022,42.541639735888296
BG_PER51,Трън,22.646338040525247,42.83233329078323
BG_PVN03,Белене,25.122506696295066,43.642965156992844
BG_PVN08,Гулянци,24.6537383122075,43.64929077691215
BG_PVN10,Долна Митрополия,24.476276493019032,43.51537642984961
BG_PVN11,Долни Дъбник,24.422419109006857,43.36733302521448
BG_PVN16,Левски,25.13693734993254,43.36488457547903
BG_PVN21,Никопол,24.901665701326174,43.6771177894244
BG_PVN23,Искър,24.25341334289825,43.47445621546927
BG_PVN24,Плевен,24.620792583329777,43.41026402035176
BG_PVN27,Пордим,24.878957310082004,43.3661477852272
BG_PVN37,Червен бряг,24.09496010371988,43.28596043438945
BG_PVN39,Кнежа,24.083188587528543,43.492371582022045
BG_RAZ11,Завет,26.638117657905823,43.75279571095958
BG_RAZ14,Исперих,26.840107908145214,43.710199536115645
BG_RAZ16,Кубрат,26.49347445859383,43.80731677628957
BG_RAZ17,Лозница,26.609163317884903,43.395375201001215
BG_RAZ26,Разград,26.524565303439555,43.53043617742938
BG_RAZ29,Самуил,26.789359242769898,43.56398791672746
BG_RAZ36,Цар Калоян,26.264422979190183,43.59038924835464
BG_RSE03,Борово,25.78846513369514,43.55137466246778
BG_RSE04,Бяла,25.734656344755997,43.45545845603396
BG_RSE05,Ветово,26.314993359698256,43.72232437499472
BG_RSE08,Две могили,25.882793336572476,43.57698423727741
BG_RSE13,Иваново,25.982033140181,43.701960131594085
BG_RSE27,Русе,25.961261544765406,43.839717260459445
BG_RSE33,Сливо поле,26.26483864524396,43.93952061813081
BG_RSE37,Ценово,25.63905405935049,43.55023170370344
BG_SFO06,Божурище,23.1948837169143,42.76499183578304
BG_SFO07,Ботевград,23.79246940660222,42.90884501126463
BG_SFO09,Годеч,23.04571915268715,43.014657129105444
BG_SFO10,Горна Малина,23.73104755043862,42.689154911900765
BG_SFO16,Драгоман,22.926417530598382,42.922140321949684
BG_SFO17,Елин Пелин,23.60031684634597,42.66126503374842
BG_SFO18,Етрополе,23.997894870804913,42.833247618353774
BG_SFO20,Ихтиман,23.815308877099728,42.43890647070123
BG_SFO24,Копривщица,24.361045878620168,42.63633092172177
BG_SFO25,Костенец,23.845492184560786,42.2910650506114
BG_SFO26,Костинброд,23.20413298535679,42.819788283241635
BG_SFO34,Правец,23.934368088766636,42.90640478206732
BG_SFO39,Самоков,23.558979483899627,42.33739219454229
BG_SFO43,Своге,23.34543029023093,42.967760056469444
BG_SFO45,Сливница,23.035992569398072,42.85183725349532
BG_SFO47,Златица,24.137644996686042,42.714330584182655
BG_SFO54,Антон,24.260429982414365,42.73296967257038
BG_SFO55,Пирдоп,24.178817730238084,42.70149418918471
BG_SFO56,Мирково,23.98263825257601,42.69382903983816
BG_SFO57,Чавдар,24.0561363484772,42.66106291213549
BG_SFO58,Челопеч,24.08494283887018,42.702743941791304
BG_SFO59,Долна баня,23.763567347550165,42.30902041626189
BG_SHU07,Венец,26.876018394961026,43.54229991098688
BG_SHU10,Върбица,26.691251622337255,43.00443511723982
BG_SHU11,Хитрино,26.893858631570208,43.42282630724244
BG_SHU18,Каолиново,27.101226548782563,43.63914726722434
BG_SHU19,Каспичан,27.155917817142022,43.306745568590024
BG_SHU21,Никола Козлево,27.240681550501108,43.57109207318327
BG_SHU22,Нови пазар,27.194783907218437,43.34706548390389
BG_SHU23,Велики Преслав,26.822343432688257,43.164499611488296
BG_SHU25,Смядово,27.022748994721823,43.06011876095511
BG_SHU30,Шумен,26.926972469862985,43.26691499674715
BG_SLS01,Алфатар,27.3115718825546,43.898964814706375
BG_SLS07,Главиница,26.847577553645646,43.91696510857195
BG_SLS10,Дулово,27.110470894907287,43.82007143154932
BG_SLS15,Кайнарджа,27.541613447689617,43.931293477360825
BG_SLS31,Силистра,27.2613742098119,44.111813451279076
BG_SLS32,Ситово,26.981338914477845,43.994605451303265
BG_SLS34,Тутракан,26.59811954706106,44.03476193726547
BG_SLV11,Котел,26.505739487919644,42.86968998046582
BG_SLV16,Нова Загора,26.007540224164497,42.49164708293537
BG_SLV20,Сливен,26.324365543592574,42.67399247293562
BG_SLV24,Твърдица,25.959527831307216,42.693708299805216
BG_SML02,Баните,24.997910158224318,41.63460550684515
BG_SML05,Борино,24.294764913568123,41.68116686683602
BG_SML09,Девин,24.397637550631867,41.73749207107908
BG_SML10,Доспат,24.161800547662097,41.61845614226579
BG_SML11,Златоград,25.08889623506699,41.38932187162836
BG_SML16,Мадан,24.942452650398156,41.50349324449095
BG_SML18,Неделино,25.081853247795795,41.45763697958511
BG_SML27,Рудозем,24.847799637155614,41.47242737722533
BG_SML31,Смолян,24.715171761322182,41.57705311195015
BG_SML38,Чепеларе,24.682052316822165,41.73224228645439
BG_SOF46,Столична,23.31810583845599,42.68824713697592
BG_SZR04,Братя Даскалови,25.19615867696192,42.22062324878545
BG_SZR07,Гълъбово,25.88677548831425,42.140030188275134
BG_SZR12,Казанлък,25.393577010662444,42.62045518691609
BG_SZR22,Мъглиж,25.573399537459792,42.59535714271249
BG_SZR23,Опан,25.685138259205473,42.22331051757117
BG_SZR24,Павел баня,25.153739484716183,42.61370254597056
BG_SZR27,Раднево,25.92866591738028,42.288029931895714
BG_SZR31,Стара Загора,25.62523926424735,42.4243406720977
BG_SZR36,Чирпан,25.328285154394262,42.19891976040756
BG_SZR37,Гурково,25.813176923121876,42.64158561185374
BG_SZR38,Николаево,25.792518496279122,42.62371658283855
BG_TGV02,Антоново,26.199659469502667,43.13584304715284
BG_TGV22,Омуртаг,26.43055217252094,43.10215189877294
BG_TGV23,Опака,26.14588302459384,43.457368925388906
BG_TGV24,Попово,26.22724432833388,43.35120544957063
BG_TGV35,Търговище,26.564020853564923,43.247710453891756
BG_VAR01,Аврен,27.707118297697285,43.099834113656506
BG_VAR02,Аксаково,27.828795780987836,43.256112301294436
BG_VAR04,Белослав,27.714117771976916,43.1901213009357
BG_VAR05,Бяла,27.86902487550529,42.87067045740828
BG_VAR06,Варна,27.919207159268325,43.21822299450153
BG_VAR08,Ветрино,27.37839710959699,43.337656179781696
BG_VAR09,Вълчи дол,27.524939773603432,43.423367012485436
BG_VAR13,Долни чифлик,27.699731243271543,42.997771179493135
BG_VAR14,Девня,27.576519230330284,43.219720429259596
BG_VAR16,Дългопол,27.31704777830561,43.03272363494248
BG_VAR24,Провадия,27.43799035559767,43.17472698417737
BG_VAR26,Суворово,27.59687572762884,43.32449311110356
BG_VID01,Белоградчик,22.680860152992445,43.62850882003344
BG_VID03,Бойница,22.50041108957149,43.99024263957868
BG_VID06,Брегово,22.655195576832856,44.14566135748568
BG_VID09,Видин,22.871420643398622,43.991546561163936
BG_VID15,Грамада,22.657970387003594,43.83207959098565
BG_VID16,Димово,22.868104733952944,43.77847385092664
BG_VID22,Кула,22.523017464602734,43.89020596604049
BG_VID25,Макреш,22.541444868352812,43.76627407048696
BG_VID30,Ново село,22.819054089697996,44.123308985017125
BG_VID33,Ружинци,22.923599864772072,43.661001328739474
BG_VID37,Чупрене,22.719143239433446,43.50173269954183
BG_VRC05,Борован,23.735472307075845,43.45546459823155
BG_VRC08,Бяла Слатина,23.93169738223537,43.46839873685084
BG_VRC10,Враца,23.551788408014573,43.20985142279291
BG_VRC20,Козлодуй,23.73430059045917,43.76136611833985
BG_VRC21,Криводол,23.469060926308302,43.377467814637
BG_VRC27,Мездра,23.708298107917376,43.14524618091329
BG_VRC28,Мизия,23.83306926009223,43.664870306016894
BG_VRC31,Оряхово,23.982060284192446,43.7139006554193
BG_VRC32,Роман,23.922411669614135,43.15200361621304
BG_VRC35,Хайредин,23.652409551543325,43.573769745743384
BG_VTR04,Велико Търново,25.62235525955735,43.07864492889152
BG_VTR06,Горна Оряховица,25.6881109334986,43.128064096719406
BG_VTR13,Елена,25.9089178979651,42.930697101794074
BG_VTR14,Златарица,25.894555243038823,43.05007816393871
BG_VTR20,Лясковец,25.725092885974938,43.10934205702387
BG_VTR22,Павликени,25.3033869027333,43.24123707095252
BG_VTR26,Полски Тръмбеш,25.63163675237307,43.358972795353345
BG_VTR28,Свищов,25.345254527803906,43.615977394689196
BG_VTR31,Стражица,25.953317264305507,43.235174007829904
BG_VTR32,Сухиндол,25.16899356836739,43.18234888280051
