gisco_id,lau_name,longitude,latitude
DE_01001000,"Flensburg, Stadt",9.441571778750522,54.792125625591765
DE_01002000,"Kiel, Landeshauptstadt",10.128819974547428,54.32766480450235
DE_01003000,"Lübeck, Hansestadt",10.696140341413676,53.870814160487036
DE_01004000,"Neumünster, Stadt",9.983617922128529,54.0754695389787
DE_01051001,Albersdorf,9.28657187235379,54.14423334534293
DE_01051002,Arkebek,9.251707360250315,54.159650652316124
DE_01051003,Averlak,9.186945694890873,53.938569926715246
DE_01051004,Bargenstedt,9.152465371247372,54.09532580200976
DE_01051005,Barkenholm,9.176976154661036,54.24400490159056
DE_01051006,Barlt,9.072669657039071,54.01902796902038
DE_01051008,Bergewöhrden,9.195431193340314,54.31590454689436
DE_01051010,Brickeln,9.242309363768525,54.00678889642964
DE_01051011,"Brunsbüttel, Stadt",9.12965648343879,53.90083577149779
DE_01051012,Buchholz,9.241566364647943,53.99222577049723
DE_01051013,Büsum,8.85956409108033,54.1353670726669
DE_01051014,Büsumer Deichhausen,8.88299783166061,54.13706139847609
DE_01051015,Bunsoh,9.316514086761678,54.162544932301934
DE_01051016,Burg (Dithmarschen),9.258895666889675,53.9977272595409
DE_01051017,Busenwurth,9.043629653123046,54.04006032622137
DE_01051019,Dellstedt,9.366802073969389,54.238610774653964
DE_01051020,Delve,9.235150249725578,54.33076780603003
DE_01051021,Diekhusen-Fahrstedt,9.021974022615996,53.94755563044995
DE_01051022,Dingen,9.150594600188878,53.96371306874405
DE_01051023,Dörpling,9.30702287755255,54.26316743583969
DE_01051024,Eddelak,9.14927888936871,53.953852120728236
DE_01051026,Eggstedt,9.258591343613665,54.051347444463744
DE_01051027,Elpersbüttel,9.056849174707171,54.0730627066045
DE_01051028,Epenwöhrden,9.061110656796252,54.109385255229235
DE_01051030,Fedderingen,9.133067962377364,54.28726939124669
DE_01051032,Frestedt,9.182886242801318,54.02935838640213
DE_01051033,Friedrichsgabekoog,8.928093169418675,54.17052487960543
DE_01051034,Friedrichskoog,8.881485586980826,54.00619424000581
DE_01051035,Gaushorn,9.235494154420389,54.19118803257677
DE_01051036,Glüsing,9.217096499261187,54.26861607308957
DE_01051037,Großenrade,9.258669960647719,54.02241998416425
DE_01051038,Groven,9.016596084516546,54.33206902746185
DE_01051039,Gudendorf,9.106779808452188,54.02448692040566
DE_01051043,Hedwigenkoog,8.860738296273277,54.166479311575024
DE_01051044,"Heide, Stadt",9.09567759277502,54.19478295987321
DE_01051045,Hellschen-Heringsand-Unterschaar,8.873609444374736,54.19635882142376
DE_01051046,Helse,9.01836021222334,53.963269038425054
DE_01051047,Hemme,9.008131106663038,54.28002081943393
DE_01051048,Hemmingstedt,9.08006738886883,54.1550031160143
DE_01051049,Hennstedt,9.163200373846609,54.28490384231978
DE_01051050,Hillgroven,8.875000208036006,54.22639187088854
DE_01051051,Hochdonn,9.278892670650665,54.02340067372633
DE_01051052,Hövede,9.286791762953857,54.241976197542265
DE_01051053,Hollingstedt,9.225860591218458,54.29231989539382
DE_01051054,Immenstedt,9.311959994422944,54.172472474422186
DE_01051057,Kaiser-Wilhelm-Koog,8.935769284330433,53.940543684939364
DE_01051058,Karolinenkoog,8.955073826567435,54.31417943618825
DE_01051060,Kleve,9.132810100918649,54.290503046425954
DE_01051061,Krempel,9.02854634830807,54.32404868371918
DE_01051062,Kronprinzenkoog,8.982699703926347,53.95595156654059
DE_01051063,Krumstedt,9.183330809373148,54.07034783911282
DE_01051064,Kuden,9.196207673229656,53.9699343587399
DE_01051065,Lehe,9.023861283641631,54.338244099440196
DE_01051067,Lieth,9.068392882470114,54.15254164105769
DE_01051068,Linden,9.183124486393815,54.25091638715242
DE_01051069,Lohe-Rickelshof,9.080995114643484,54.19461737750385
DE_01051071,Lunden,9.02417993824577,54.3302043494784
DE_01051072,"Marne, Stadt",9.008692850489695,53.95112148275744
DE_01051073,Marnerdeich,8.996697080803298,53.94768517868288
DE_01051074,"Meldorf, Stadt",9.076167220543132,54.088198607606586
DE_01051075,Neuenkirchen,9.000605107919982,54.23392138716802
DE_01051076,Neufeld,9.002011988780211,53.92248204209787
DE_01051077,Neufelderkoog,9.013828959298888,53.906942415171535
DE_01051078,Nindorf,9.100690348926081,54.085965266520766
DE_01051079,Norddeich,8.912127926229257,54.21272446515046
DE_01051080,Norderheistedt,9.14903577944844,54.24233429197819
DE_01051081,Norderwöhrden,9.052870566356985,54.18505871049141
DE_01051082,Nordhastedt,9.180875996106725,54.172509821568994
DE_01051083,Odderade,9.189938278144423,54.142592761719015
DE_01051084,Oesterdeichstrich,8.889267368946685,54.159549216439565
DE_01051085,Offenbüttel,9.351211803833172,54.16988720370297
DE_01051086,Osterrade,9.31399996926438,54.172735197136475
DE_01051087,Ostrohe,9.110574967332882,54.21624232001512
DE_01051088,Pahlen,9.294986858882144,54.26345256937146
DE_01051089,Quickborn,9.213998102433816,54.01293737965492
DE_01051090,Ramhusen,9.09611037957614,53.941591716584284
DE_01051092,Rehm-Flehde-Bargen,9.041134669934783,54.29786120446616
DE_01051093,Reinsbüttel,8.910168348100653,54.17690041370164
DE_01051096,Sankt Annen,9.0899309183463,54.36930141877851
DE_01051097,Sankt Michaelisdonn,9.11982737210585,53.99184624632406
DE_01051098,Sarzbüttel,9.181761347294373,54.11430687799609
DE_01051099,Schafstedt,9.297487461614278,54.07845025858521
DE_01051100,Schalkholz,9.254556263275402,54.24761715775105
DE_01051102,Schlichting,9.107611534215057,54.29870013138062
DE_01051103,Schmedeswurth,9.03067078481344,53.925766110140884
DE_01051104,Schrum,9.25740090372268,54.185642997032225
DE_01051105,Schülp,8.93280841231658,54.24661930350767
DE_01051107,Stelle-Wittenwurth,9.059616067066381,54.26362908336566
DE_01051108,Strübbel,8.965543589669393,54.261048901009374
DE_01051109,Süderdeich,8.912259415861348,54.20890574502999
DE_01051110,Süderhastedt,9.208212857713077,54.05422028848053
DE_01051113,Wöhrden,9.014482595160505,54.171145675952985
DE_01051114,Tellingstedt,9.284334565509003,54.221530267743866
DE_01051117,Tielenhemme,9.358222201908696,54.27687304506678
DE_01051118,Trennewurth,9.02545812125707,54.00372700274213
DE_01051119,Volsemenhusen,9.076071157458388,53.97642904895416
DE_01051120,Wallen,9.270820455324147,54.284890231215456
DE_01051121,Warwerort,8.921485624374538,54.13860760163654
DE_01051122,Weddingstedt,9.09274764466924,54.221325153840624
DE_01051125,Welmbüttel,9.240152332285108,54.19618915688378
DE_01051126,Wennbüttel,9.310514832996843,54.14599317370086
DE_01051127,"Wesselburen, Stadt",8.922348635929463,54.21060358097905
DE_01051128,Wesselburener Deichhausen,8.92768138015274,54.17984519043712
DE_01051129,Wesselburenerkoog,8.890696994923024,54.241241499873375
DE_01051130,Wesseln,9.08537652714691,54.20611867999708
DE_01051131,Westerborstel,9.265500491898438,54.2205208064095
DE_01051132,Westerdeichstrich,8.858172792051136,54.16041671556934
DE_01051133,Wiemerstedt,9.119827401079117,54.26550971798439
DE_01051134,Windbergen,9.118288070096828,54.03928733830145
DE_01051135,Wolmersdorf,9.104421044147882,54.08286503141563
DE_01051136,Wrohm,9.380313414563778,54.213582888969704
DE_01051137,Nordermeldorf,9.053265566728015,54.100287489085446
DE_01051138,Tensbüttel-Röst,9.238935150298605,54.107130469677
DE_01051139,Süderdorf,9.345552092487877,54.196811340106954
DE_01051140,Oesterwurth,8.942459174948574,54.21500940626179
DE_01051141,Süderheistedt,9.14780415437656,54.23592563256129
DE_01053001,Albsfelde,10.700413433752985,53.688306413747185
DE_01053002,Alt-Mölln,10.664244101777046,53.61362441546014
DE_01053003,Aumühle,10.31069377363849,53.52295516673987
DE_01053004,Bäk,10.786661483938484,53.70457004617815
DE_01053005,Bälau,10.626138534562685,53.61451238854964
DE_01053006,Basedow,10.584623103033335,53.41667820521618
DE_01053007,Basthorst,10.484241965097798,53.57768561439081
DE_01053008,Behlendorf,10.653852386847154,53.70094256539767
DE_01053009,Berkenthin,10.641934262899774,53.73263464690266
DE_01053010,Besenthal,10.744750722342419,53.53264378929284
DE_01053011,Bliestorf,10.583492215308425,53.77228760555363
DE_01053012,Börnsen,10.264772025288423,53.483795748732376
DE_01053013,Borstorf,10.561164963905595,53.61237912637644
DE_01053014,Breitenfelde,10.639583483017347,53.607621888726854
DE_01053015,Bröthen,10.661162641712217,53.476752210610634
DE_01053016,Brunsmark,10.739816775920238,53.6135933672501
DE_01053017,Brunstorf,10.448876946902205,53.49537895778005
DE_01053018,Buchholz,10.741730408018478,53.733486223596366
DE_01053019,Buchhorst,10.565798927119978,53.38051639925747
DE_01053020,Büchen,10.611493262278197,53.48373456367262
DE_01053021,Dahmker,10.446858902568893,53.59093292026465
DE_01053022,Dalldorf,10.608415091926542,53.44523508584524
DE_01053023,Dassendorf,10.357164206098979,53.495413993663206
DE_01053024,Düchelsdorf,10.577472213749347,53.742415168361624
DE_01053025,Duvensee,10.565997498893369,53.69363470723404
DE_01053026,Einhaus,10.73406354607386,53.71011526785458
DE_01053027,Elmenhorst,10.536444822636957,53.54753693896023
DE_01053028,Escheburg,10.307670151504775,53.467639602436655
DE_01053029,Fitzen,10.636021094776753,53.49693849705549
DE_01053030,Fredeburg,10.733043925371252,53.67541527479141
DE_01053031,Fuhlenhagen,10.527938063801715,53.57635659482351
DE_01053032,"Geesthacht, Stadt",10.376234894696072,53.43850048885316
DE_01053033,Giesensdorf,10.727175333833138,53.69083907071942
DE_01053034,Göldenitz,10.6385004890245,53.72594656833839
DE_01053035,Göttin,10.690286886849995,53.53970933549075
DE_01053036,Grabau,10.49698690076057,53.51737227372188
DE_01053037,Grambek,10.69449305570916,53.587679721640114
DE_01053038,Grinau,10.553230828998721,53.773585969192865
DE_01053039,Groß Boden,10.44771667572561,53.75252666047336
DE_01053040,Groß Disnack,10.69418376534066,53.742467443078084
DE_01053041,Groß Grönau,10.727541052791759,53.82008679925819
DE_01053042,Groß Pampau,10.575562297318912,53.51709796176635
DE_01053043,Groß Sarau,10.745209018016459,53.791078088571936
DE_01053044,Groß Schenkenberg,10.576640001744108,53.79617884883018
DE_01053045,Grove,10.489839154605109,53.51717223147803
DE_01053046,Gudow,10.772283563482315,53.55764135708749
DE_01053047,Gülzow,10.49348767728462,53.45591611029766
DE_01053048,Güster,10.677681872381635,53.538659927833194
DE_01053049,Hamfelde,10.421098198844426,53.60054749017864
DE_01053050,Hamwarde,10.404863807496048,53.443078643653195
DE_01053051,Harmsdorf,10.727430767107634,53.695309596914285
DE_01053052,Havekost,10.480624367538125,53.54032064321928
DE_01053053,Hohenhorn,10.365832455904604,53.48384476297111
DE_01053054,Hollenbek,10.82296902570481,53.59238309560534
DE_01053056,Hornbek,10.645114438795424,53.559192222175774
DE_01053057,Horst,10.756324735319337,53.61613464745544
DE_01053058,Juliusburg,10.512855481931412,53.41500989601409
DE_01053059,Kankelau,10.565801306206552,53.549853153659065
DE_01053060,Kasseburg,10.408633802999239,53.5686652143214
DE_01053061,Kastorf,10.568992420385047,53.74595796217598
DE_01053062,Kittlitz,10.915887898761458,53.664006332660435
DE_01053064,Klein Pampau,10.576015622468384,53.5102968261208
DE_01053066,Klein Zecher,10.857037853497706,53.5814200749659
DE_01053067,Klempau,10.649357677754569,53.771516018686064
DE_01053068,Klinkrade,10.552152130475493,53.71944473600336
DE_01053069,Koberg,10.521678814201172,53.63486016437241
DE_01053070,Köthel,10.511310282168429,53.610330183709344
DE_01053071,Kollow,10.459207606664874,53.4658093929883
DE_01053072,Kröppelshagen-Fahrendorf,10.305471413950938,53.48747402463749
DE_01053073,Krüzen,10.536450645540304,53.39136823872023
DE_01053074,Krukow,10.469262381420625,53.42707287411075
DE_01053075,Krummesse,10.644982671132732,53.777759361814674
DE_01053076,Kuddewörde,10.393419519912639,53.58121713349619
DE_01053077,Kühsen,10.617570400236282,53.68147452478149
DE_01053078,Kulpin,10.703240347386382,53.70190238656852
DE_01053079,Labenz,10.519166322101539,53.71115259898072
DE_01053080,Langenlehsten,10.74239894828307,53.495442441600886
DE_01053081,Lankau,10.682247530278921,53.64223325027636
DE_01053082,Lanze,10.58561203675876,53.38173652923765
DE_01053083,"Lauenburg/ Elbe, Stadt",10.54989992396427,53.37699307326609
DE_01053084,Lehmrade,10.746818087943783,53.593018185634605
DE_01053085,Linau,10.462818980217595,53.6410896132454
DE_01053086,Lüchow,10.523683465452763,53.69241856517677
DE_01053087,Lütau,10.550953946665956,53.432877451818634
DE_01053088,Mechow,10.796083123895757,53.70383706239957
DE_01053089,Möhnsen,10.465233178581162,53.55825649946312
DE_01053090,"Mölln, Stadt",10.688347944669971,53.61678520514128
DE_01053091,Mühlenrade,10.494455145006748,53.59659856674145
DE_01053092,Müssen,10.534663355490785,53.49707873291493
DE_01053093,Mustin,10.883235480814891,53.68595568175699
DE_01053094,Niendorf bei Berkenthin,10.629171726115805,53.709172409371305
DE_01053095,Niendorf/ Stecknitz,10.603163135917695,53.58656934803569
DE_01053096,Nusse,10.583080767228367,53.657221160336356
DE_01053097,Panten,10.62495584230879,53.64961058349448
DE_01053098,Pogeez,10.730018806449115,53.754403815651024
DE_01053099,Poggensee,10.581914360961187,53.63781899463588
DE_01053100,"Ratzeburg, Stadt",10.765357107588109,53.695918470918826
DE_01053101,Ritzerau,10.567086918603938,53.6649828327364
DE_01053102,Römnitz,10.774711913185365,53.71115039830684
DE_01053103,Rondeshagen,10.626025491833738,53.7454589928862
DE_01053104,Roseburg,10.625799651902845,53.5306464648461
DE_01053105,"Sachsenwald (Forstgutsbez.),gemfr.Geb.",10.409682128688946,53.5138219062997
DE_01053106,Sahms,10.526687325740793,53.52000218156606
DE_01053107,Salem,10.826038309813256,53.65464894388338
DE_01053108,Sandesneben,10.483110514490887,53.68776986444052
DE_01053109,Schiphorst,10.466294234976132,53.70365017884287
DE_01053110,Schmilau,10.773127915957755,53.678280472116064
DE_01053111,Schnakenbek,10.519593411531433,53.38170651628509
DE_01053112,Schönberg,10.432300975986903,53.67468753200373
DE_01053113,Schretstaken,10.558137020182055,53.579962884088154
DE_01053114,Schürensöhlen,10.484964389378648,53.764535418794246
DE_01053115,Schulendorf,10.59027667303513,53.483034262311854
DE_01053116,"Schwarzenbek, Stadt",10.48220833373521,53.50841150289915
DE_01053117,Seedorf,10.87362187842908,53.6168223795033
DE_01053118,Siebenbäumen,10.526359932810625,53.74654849302465
DE_01053119,Siebeneichen,10.60865505696148,53.49869014394293
DE_01053120,Sierksrade,10.593449587227322,53.739731193983445
DE_01053121,Sirksfelde,10.491658185228726,53.66593076633208
DE_01053122,Steinhorst,10.470615610239296,53.71890797093471
DE_01053123,Sterley,10.820497511456892,53.63507980267008
DE_01053124,Stubben,10.441667082056064,53.73757325366693
DE_01053125,Talkau,10.566822408930017,53.57610656812965
DE_01053126,Tramm,10.608787018455862,53.567504361872814
DE_01053127,Walksfelde,10.57702716235001,53.63568797768216
DE_01053128,Wangelau,10.5499227414779,53.45295758032375
DE_01053129,Wentorf bei Hamburg,10.248300752153103,53.49186411234754
DE_01053130,Wentorf (Amt Sandesneben),10.47841941860685,53.68237050970342
DE_01053131,Wiershop,10.441553016709312,53.44320042729292
DE_01053132,Witzeeze,10.61097066854291,53.453202967143916
DE_01053133,Wohltorf,10.287185254959557,53.52094267863238
DE_01053134,Woltersdorf,10.651740800983555,53.57002623820015
DE_01053135,Worth,10.40689684307736,53.45975988863513
DE_01053136,Ziethen,10.80217372442106,53.702253958796916
DE_01054001,Achtrup,8.994342059429904,54.78128843231444
DE_01054002,Ahrenshöft,9.065215110797544,54.562003302640015
DE_01054003,Ahrenviöl,9.21383707361029,54.52287857903503
DE_01054004,Ahrenviölfeld,9.276858695847714,54.532829109987205
DE_01054005,Alkersum,8.503146938449802,54.70468078999261
DE_01054006,Almdorf,9.009563923177048,54.58750002536072
DE_01054007,Arlewatt,9.08096810351519,54.53754006671133
DE_01054009,Aventoft,8.813195109460915,54.89989918627244
DE_01054010,Bargum,8.973529623991348,54.70047054371594
DE_01054011,Behrendorf,9.223662498735047,54.56326490808728
DE_01054012,Bohmstedt,9.04432861081842,54.58160326695613
DE_01054013,Bondelum,9.27601701267878,54.55028542373076
DE_01054014,Bordelum,8.949567092130938,54.62890866018038
DE_01054015,Borgsum,8.456290720631339,54.70020671033185
DE_01054016,Bosbüll,8.841402309520705,54.81265743147162
DE_01054017,Braderup,8.884784589638299,54.8387617759797
DE_01054018,Bramstedtlund,9.080429220308059,54.84341709957942
DE_01054019,"Bredstedt, Stadt",8.966952564975069,54.61823260619498
DE_01054020,Breklum,8.986686511351035,54.60863003726227
DE_01054022,Dagebüll,8.759015610981942,54.71586747845252
DE_01054023,Drage,9.121086233145904,54.3692851802196
DE_01054024,Drelsdorf,9.047303589861714,54.60664065953861
DE_01054025,Dunsum,8.423772545265233,54.735630896601094
DE_01054026,Elisabeth-Sophien-Koog,8.88211225890635,54.49880152782401
DE_01054027,Ellhöft,8.941954492504971,54.88894843354015
DE_01054032,Fresendelf,9.245563956709933,54.39469956869701
DE_01054033,"Friedrichstadt, Stadt",9.088967745235838,54.374973369879484
DE_01054034,Friedrich-Wilhelm-Lübke-Koog,8.636311167014236,54.84572230226038
DE_01054035,"Garding, Kirchspiel",8.777245729436423,54.323282816894086
DE_01054036,"Garding, Stadt",8.780786574231616,54.32946260947267
DE_01054037,Goldebek,9.149615510518592,54.68296299154415
DE_01054038,Goldelund,9.10556875791942,54.67900967779509
DE_01054039,Gröde,8.722841020922228,54.630947414562065
DE_01054040,Grothusenkoog,8.761310627941132,54.29519824678043
DE_01054041,Haselund,9.18371241265454,54.60188275356826
DE_01054042,Hattstedt,9.019929212767316,54.525544109310744
DE_01054043,Hattstedtermarsch,9.003693062317145,54.53652141520251
DE_01054045,Högel,9.063076587256571,54.64433134040524
DE_01054046,Hörnum (Sylt),8.284142299231267,54.76028066116685
DE_01054048,Holm,8.854810936743664,54.835544057614875
DE_01054050,Hallig Hooge,8.55225553487667,54.56790468853101
DE_01054052,Horstedt,9.053927452874229,54.50286231936227
DE_01054054,Hude,9.215578077343856,54.389405605118256
DE_01054055,Humptrup,8.871324316931485,54.86610724935392
DE_01054056,"Husum, Stadt",9.060559680072995,54.480553659700234
DE_01054057,Immenstedt,9.161457759652256,54.54149189490121
DE_01054059,Joldelund,9.139693603927766,54.6516465472393
DE_01054061,Kampen (Sylt),8.339796195467866,54.952412771586076
DE_01054062,Karlum,8.979590964502945,54.82250372117659
DE_01054063,Katharinenheerd,8.823093161069695,54.33484636147621
DE_01054065,Klanxbüll,8.675030001627833,54.86415649674858
DE_01054068,Klixbüll,8.889285562345899,54.796658443288635
DE_01054070,Koldenbüttel,9.078292420695597,54.37123412183549
DE_01054071,Kolkerheide,9.120052668711192,54.62114589860741
DE_01054072,Kotzenbüll,8.900752244859529,54.33646924542024
DE_01054073,Ladelund,9.02431859931458,54.84048329850312
DE_01054074,Langeneß,8.605355197237232,54.639478460356
DE_01054075,Langenhorn,8.934090544919112,54.678032277163254
DE_01054076,Leck,8.972216496902371,54.770475156136406
DE_01054077,Lexgaard,8.952206128154113,54.83727542181821
DE_01054078,List auf Sylt,8.428132893863483,55.019773465009834
DE_01054079,Löwenstedt,9.172735986959868,54.620859016292414
DE_01054080,Lütjenholm,9.031158908088015,54.688136809517744
DE_01054083,Midlum,8.52722922405862,54.71288612461759
DE_01054084,Mildstedt,9.095390918539378,54.464089574727076
DE_01054085,Nebel,8.35087242479773,54.650522785566245
DE_01054086,Neukirchen,8.730487095720706,54.86774842640491
DE_01054087,Nieblum,8.4800804450451,54.69369847810127
DE_01054088,"Niebüll, Stadt",8.828347462745405,54.786417649986724
DE_01054089,Norddorf auf Amrum,8.333748733275934,54.68019188591036
DE_01054090,Norderfriedrichskoog,8.905473666403912,54.40879971492149
DE_01054091,Nordstrand,8.87542438687195,54.48589153049046
DE_01054092,Norstedt,9.12545374348148,54.589306401696646
DE_01054093,Ockholm,8.820805246927241,54.675312009099734
DE_01054094,Oevenum,8.532075914391358,54.709412886296555
DE_01054095,Oldenswort,8.954425095535345,54.33145750898122
DE_01054096,Oldersbek,9.169695759372141,54.445620329090964
DE_01054097,Olderup,9.111759231882848,54.53678514707813
DE_01054098,Oldsum,8.451329591349747,54.728139329381875
DE_01054099,Ostenfeld (Husum),9.241193855701187,54.46364003909275
DE_01054100,Osterhever,8.76067499200149,54.38710809225487
DE_01054101,Oster-Ohrstedt,9.223390613546755,54.51764220375239
DE_01054103,Pellworm,8.667880488336806,54.52051435096695
DE_01054104,Poppenbüll,8.75513705436806,54.36437812793064
DE_01054105,Ramstedt,9.175818284859345,54.40131605293335
DE_01054106,Rantrum,9.13084212769364,54.43797319442322
DE_01054108,Reußenköge,8.908762633931305,54.60636066110494
DE_01054109,Risum-Lindholm,8.866195619934958,54.762609926943576
DE_01054110,Rodenäs,8.712146475344893,54.877130559874374
DE_01054113,Sankt Peter-Ording,8.642322300220616,54.30305565649809
DE_01054116,Schwabstedt,9.190615354027752,54.394520657213086
DE_01054118,Schwesing,9.121097111099123,54.492711373516585
DE_01054119,Seeth,9.177142411281888,54.37671802950125
DE_01054120,Simonsberg,9.00070991002197,54.452410353899225
DE_01054121,Sönnebüll,9.000037091009244,54.631635706512746
DE_01054123,Sollwitt,9.234645141322595,54.59847584971778
DE_01054124,Sprakebüll,9.010584215393468,54.77510040228527
DE_01054125,Stadum,9.039083150869592,54.743543752718885
DE_01054126,Stedesand,8.924469949266488,54.743497648854834
DE_01054128,Struckum,8.996253205477279,54.59167675966951
DE_01054129,Süderende,8.450003070130453,54.72344866296127
DE_01054130,Süderhöft,9.238512720991197,54.38296816063504
DE_01054131,Süderlügum,8.89711432833344,54.873113677238955
DE_01054132,Südermarsch,9.066093577542437,54.461576088460696
DE_01054134,Tating,8.703288874005061,54.32527505261567
DE_01054135,Tetenbüll,8.827625379861656,54.358643976849876
DE_01054136,Tinningstedt,8.934381907750867,54.8097576004689
DE_01054138,"Tönning, Stadt",8.942068742301974,54.31664335792806
DE_01054140,Tümlauer Koog,8.675256977231637,54.34504633382926
DE_01054141,Uelvesbüll,8.941988779828813,54.41683558769278
DE_01054142,Uphusum,8.861792336305442,54.83934378563432
DE_01054143,Utersum,8.40627497782822,54.71192702636283
DE_01054144,Viöl,9.18028977654602,54.57030203187407
DE_01054145,Vollerwiek,8.792421421374238,54.29410665596149
DE_01054146,Vollstedt,9.033011651599068,54.62527408629521
DE_01054148,Welt,8.791617073732546,54.300234405025456
DE_01054149,Wenningstedt-Braderup (Sylt),8.326542853665458,54.930964245581215
DE_01054150,Westerhever,8.702079724546095,54.379166979227435
DE_01054152,Wester-Ohrstedt,9.190216516778749,54.50842941670246
DE_01054154,Westre,8.990138815606317,54.858571592819885
DE_01054156,Winnert,9.188125889731266,54.44049230791434
DE_01054157,Wisch,9.14976683610683,54.41010366993263
DE_01054158,Witsum,8.450137384887716,54.69708495590856
DE_01054159,Wittbek,9.212061131834215,54.4701753549753
DE_01054160,Wittdün auf Amrum,8.388240772152287,54.62760286525513
DE_01054161,Witzwort,8.991556615496636,54.39985228043492
DE_01054162,Wobbenbüll,9.000963072352004,54.521641614493284
DE_01054163,Wrixum,8.5447781529490765,54.69430031555661
DE_01054164,"Wyk auf Föhr, Stadt",8.556616658735186,54.69104589107158
DE_01054165,Galmsbüll,8.809282997542484,54.77867612237104
DE_01054166,Emmelsbüll-Horsbüll,8.690232870578953,54.81548338518017
DE_01054167,Enge-Sande,8.963230704485133,54.731911188246436
DE_01054168,Sylt,8.316372239587242,54.90582495719274
DE_01055001,Ahrensbök,10.569131552816717,54.01138697475751
DE_01055002,Altenkrempe,10.806040177173037,54.13191971611142
DE_01055004,"Bad Schwartau, Stadt",10.687085750858841,53.91644089642777
DE_01055006,Beschendorf,10.887529073156445,54.20896889267856
DE_01055007,Bosau,10.487322938730074,54.0935887772815
DE_01055010,Dahme,11.080847873428706,54.22082437085605
DE_01055011,Damlos,10.901351877138854,54.25034423662315
DE_01055012,"Eutin, Stadt",10.606675246066732,54.133982095874195
DE_01055014,Göhl,10.9448689648731,54.28332336839432
DE_01055015,Gremersdorf,10.897689617371709,54.30581706750342
DE_01055016,Grömitz,10.959113465006443,54.153130463873104
DE_01055017,Großenbrode,11.081256062654298,54.367654063518906
DE_01055018,Grube,11.033503986759058,54.23022645191596
DE_01055020,Harmsdorf,10.834394090872053,54.23662584767912
DE_01055021,"Heiligenhafen, Stadt",10.976423825343248,54.36901317402739
DE_01055022,Heringsdorf,11.012351068853613,54.29703531234273
DE_01055023,Kabelhorst,10.928504317601941,54.22184294185985
DE_01055024,Kasseedorf,10.740029084603448,54.177409740718474
DE_01055025,Kellenhusen (Ostsee),11.061690150132668,54.19270780418258
DE_01055027,Lensahn,10.880278886501841,54.21774150823772
DE_01055028,Malente,10.562017891363677,54.17513487309541
DE_01055029,Manhagen,10.922154415516168,54.19002865098547
DE_01055031,Neukirchen,11.021960231460643,54.322832252048705
DE_01055032,"Neustadt in Holstein, Stadt",10.822398227843296,54.10340387863395
DE_01055033,"Oldenburg in Holstein, Stadt",10.892786917420853,54.2956504016667
DE_01055035,Ratekau,10.733186613793045,53.957288227970324
DE_01055036,Riepsdorf,10.980914516973142,54.22672933064818
DE_01055037,Schashagen,10.83945799570282,54.111877115076815
DE_01055038,Schönwalde am Bungsberg,10.758207712799477,54.18842865770762
DE_01055039,Sierksdorf,10.74786173741945,54.05557977702951
DE_01055040,Stockelsdorf,10.656117429455941,53.894765467166806
DE_01055041,Süsel,10.678130821510189,54.080454386104364
DE_01055042,Timmendorfer Strand,10.78514960718985,53.992918859604515
DE_01055043,Wangels,10.76445850647374,54.26202371236432
DE_01055044,Scharbeutz,10.732361336352701,54.031148891953755
DE_01055046,"Fehmarn, Stadt",11.188261945224363,54.441332201559675
DE_01056001,Appen,9.745103720168398,53.65751881655371
DE_01056002,"Barmstedt, Stadt",9.768499403481812,53.79104779518352
DE_01056003,Bevern,9.751860040088493,53.754243538311876
DE_01056004,Bilsen,9.87300836681589,53.771397545078685
DE_01056005,Bönningstedt,9.916588628292551,53.65303569248783
DE_01056006,Bokel,9.72900541204818,53.86183656516769
DE_01056008,Bokholt-Hanredder,9.697706764264119,53.779214515601176
DE_01056009,Borstel-Hohenraden,9.798870613470585,53.68269628048161
DE_01056010,Brande-Hörnerkirchen,9.700356309307663,53.8557856009407
DE_01056011,Bullenkuhlen,9.74189442070885,53.763153704260944
DE_01056013,Ellerbek,9.89977108516823,53.63973733087803
DE_01056014,Ellerhoop,9.776625433667254,53.72949774920952
DE_01056015,"Elmshorn, Stadt",9.662259965184703,53.75067475110314
DE_01056016,Groß Nordende,9.654526464680252,53.69645583258831
DE_01056017,Groß Offenseth-Aspern,9.742399415438305,53.79572560401378
DE_01056018,Halstenbek,9.855111511816927,53.62526290915722
DE_01056019,Haselau,9.578833108758898,53.650117973309
DE_01056020,Haseldorf,9.59111056635501,53.64253704957538
DE_01056021,Hasloh,9.917522415322551,53.69405836473329
DE_01056022,Heede,9.784223489222198,53.7803320076406
DE_01056023,Heidgraben,9.66870848769563,53.697493022900126
DE_01056024,Heist,9.660665476833744,53.657986370800536
DE_01056025,Helgoland,7.887551203309304,54.17927204869923
DE_01056026,Hemdingen,9.843697433838472,53.765378905449516
DE_01056027,Hetlingen,9.624452660411523,53.614892922709025
DE_01056028,Holm,9.67643642568849,53.621335950379844
DE_01056029,Klein Nordende,9.667687256479002,53.72493409917698
DE_01056030,Klein Offenseth-Sparrieshoop,9.678952742023174,53.78150693703406
DE_01056031,Kölln-Reisiek,9.689884714178918,53.7573622606211
DE_01056032,Kummerfeld,9.79086080258941,53.690651721174035
DE_01056033,Seester,9.620686114908784,53.7207382522687
DE_01056034,Langeln,9.863615944729187,53.78733648161544
DE_01056035,Lutzhorn,9.777136775822948,53.82655657091378
DE_01056036,Moorrege,9.66671641447257,53.66554864906024
DE_01056037,Neuendeich,9.626087172804453,53.68336961516892
DE_01056038,Osterhorn,9.703798327265957,53.859609047937695
DE_01056039,"Pinneberg, Stadt",9.794108668426926,53.65432212967365
DE_01056040,Prisdorf,9.774326407627738,53.66819078493303
DE_01056041,"Quickborn, Stadt",9.921535944885271,53.73776857179036
DE_01056042,Raa-Besenbek,9.611913745917436,53.75026215261376
DE_01056043,Rellingen,9.862067279152102,53.63677224204071
DE_01056044,"Schenefeld, Stadt",9.852641806940587,53.60123136772899
DE_01056045,Seestermühe,9.572900055606837,53.705610633488604
DE_01056046,Seeth-Ekholt,9.734997021804158,53.7406029985116
DE_01056047,Tangstedt,9.847229768495442,53.677533279089644
DE_01056048,"Tornesch, Stadt",9.715040791971214,53.69791682745245
DE_01056049,"Uetersen, Stadt",9.677372648727882,53.688347239988495
DE_01056050,"Wedel, Stadt",9.714212136001635,53.580292553630606
DE_01056051,Westerhorn,9.697783470287987,53.85600803273927
DE_01057001,Ascheberg (Holstein),10.34213966272863,54.15089827485555
DE_01057002,Barmissen,10.152814524871626,54.208699303077935
DE_01057003,Barsbek,10.313606160327776,54.404322874893474
DE_01057004,Behrensdorf (Ostsee),10.5869845761891,54.324362757652914
DE_01057005,Belau,10.274405313858603,54.11166981829945
DE_01057006,Bendfeld,10.41229620531213,54.37189856000636
DE_01057007,Blekendorf,10.664190579203888,54.28236944108627
DE_01057008,Bönebüttel,10.03226831387952,54.06478961371986
DE_01057009,Bösdorf,10.485595263495867,54.14883276290802
DE_01057010,Boksee,10.140663092539015,54.251908802677214
DE_01057011,Bothkamp,10.138308471824965,54.20634143859906
DE_01057012,Brodersdorf,10.247915735911247,54.38238384943053
DE_01057013,Dannau,10.545995803226049,54.24094170730022
DE_01057015,Dersau,10.331022194208256,54.1174387816913
DE_01057016,Dobersdorf,10.300952250843865,54.31552562138144
DE_01057017,Dörnick,10.362064959886009,54.155197272221
DE_01057018,Fahren,10.338206696597963,54.3511486811565
DE_01057020,Fiefbergen,10.348983107037942,54.378369734381366
DE_01057021,Giekau,10.497611790846827,54.3113794172573
DE_01057022,Grebin,10.496772642923618,54.196881365508325
DE_01057023,Großbarkau,10.174002799124201,54.224782109336545
DE_01057024,Großharrie,10.054424771206852,54.11661316181718
DE_01057025,Heikendorf,10.206056380613667,54.36877126481721
DE_01057026,Helmstorf,10.596722028986783,54.290668903899096
DE_01057027,Högsdorf,10.621508887492196,54.2461315103486
DE_01057028,Höhndorf,10.378182428177004,54.38185978125514
DE_01057029,Hohenfelde,10.49420585857224,54.36383505380724
DE_01057030,Hohwacht (Ostsee),10.653775561143858,54.31619389741618
DE_01057031,Honigsee,10.173839008982277,54.23581224482193
DE_01057032,Kalübbe,10.296218979605598,54.12388181391415
DE_01057033,Kirchbarkau,10.145579749667347,54.21153171681178
DE_01057034,Kirchnüchel,10.68023068374028,54.208655695392586
DE_01057035,Klamp,10.568914999952916,54.2916237000615
DE_01057037,Klein Barkau,10.144669640477566,54.21795280102876
DE_01057038,Kletkamp,10.627529793601372,54.24874869380513
DE_01057039,Köhn,10.471386765262213,54.34850558656349
DE_01057040,Krokau,10.357263297831212,54.395539306584766
DE_01057041,Krummbek,10.394638270654223,54.37266998158587
DE_01057042,Kühren,10.267997834662452,54.21146382897749
DE_01057043,Laboe,10.22352534516041,54.402359179676694
DE_01057044,Lammershagen,10.424180246629305,54.28198050994489
DE_01057045,Lebrade,10.42931691151714,54.207109916265374
DE_01057046,Lehmkuhlen,10.339258640010938,54.234015480985676
DE_01057047,Löptin,10.220307956680331,54.18147886253126
DE_01057048,"Lütjenburg, Stadt",10.58823801241533,54.29402985739122
DE_01057049,Lutterbek,10.282554648489873,54.39127172084565
DE_01057050,Martensrade,10.389383363142754,54.28510584738896
DE_01057051,Mönkeberg,10.192280294291583,54.342719189513694
DE_01057052,Mucheln,10.444130324842455,54.24057671721017
DE_01057053,Nehmten,10.353279433239972,54.11140451490185
DE_01057054,Nettelsee,10.191604889338922,54.17647446917273
DE_01057055,Panker,10.571589374889294,54.318568278960356
DE_01057056,Passade,10.309627907709412,54.36485896723561
DE_01057057,"Plön, Stadt",10.432123314533992,54.160579972405856
DE_01057058,Pohnsdorf,10.254334860757211,54.24617874445762
DE_01057059,Postfeld,10.208248370614776,54.20988596932037
DE_01057060,Prasdorf,10.30065337202461,54.37194598841106
DE_01057062,"Preetz, Stadt",10.277120949618348,54.23289088291746
DE_01057063,Probsteierhagen,10.278492364760803,54.359898178876676
DE_01057065,Rantzau,10.536745163056926,54.23720488679008
DE_01057066,Rastorf,10.245196716730996,54.290912949995324
DE_01057067,Rathjensdorf,10.424392214774434,54.170571420693875
DE_01057068,Rendswühren,10.155479094171325,54.07596902733077
DE_01057069,Ruhwinkel,10.206584462513463,54.099911304207154
DE_01057070,Schellhorn,10.291203465464012,54.228337759576334
DE_01057071,Schillsdorf,10.11419042695761,54.10012313228803
DE_01057072,Schlesen,10.32517895080694,54.32369415233725
DE_01057073,Schönberg (Holstein),10.376692389547163,54.39316830407768
DE_01057074,Schönkirchen,10.213120684931733,54.32947814357033
DE_01057076,Schwartbuck,10.489648140142556,54.36180068964873
DE_01057077,Selent,10.425645105022305,54.28795199846004
DE_01057078,Stakendorf,10.413613063108432,54.3956490662573
DE_01057079,Stein,10.27539254185726,54.41314447375459
DE_01057080,Stolpe,10.213650449621442,54.12044495489918
DE_01057081,Stoltenberg,10.34601193580295,54.34287635431344
DE_01057082,Tröndel,10.526475257532633,54.347919804978
DE_01057083,Tasdorf,10.030867736617859,54.096354135964695
DE_01057084,Wahlstorf,10.318216371179478,54.18986702761396
DE_01057085,Wankendorf,10.205076086823734,54.115059956741945
DE_01057086,Warnau,10.160787334860757,54.18801438948304
DE_01057087,Wendtorf,10.28691052521178,54.41228678956941
DE_01057088,Wisch,10.350445377859666,54.41004744741653
DE_01057089,Wittmoldt,10.366171754097808,54.166321028935485
DE_01057090,Fargau-Pratjau,10.385822100869394,54.32009950349486
DE_01057091,"Schwentinental, Stadt",10.213506121016941,54.293165386014266
DE_01058001,Achterwehr,9.98091839222877,54.30967447572685
DE_01058003,Alt Duvenstedt,9.641193669440563,54.35669606179791
DE_01058004,Altenhof,9.859907218630793,54.445200975722855
DE_01058005,Altenholz,10.128134772490274,54.39411477727166
DE_01058007,Arpsdorf,9.858293948074499,54.03431803705515
DE_01058008,Ascheffel,9.699540699804624,54.43089073204974
DE_01058009,Aukrug,9.793680916073892,54.08424764563038
DE_01058010,Bargstall,9.462016137448925,54.26132337085492
DE_01058011,Bargstedt,9.761582333742043,54.16158838827903
DE_01058012,Barkelsby,9.858085620944985,54.48723060166316
DE_01058013,Beldorf,9.349293704160713,54.13093568437015
DE_01058014,Bendorf,9.345898878780751,54.07457173371411
DE_01058015,Beringstedt,9.53844098981946,54.11601315097215
DE_01058016,Bissee,10.11295474194327,54.190224615212074
DE_01058018,Blumenthal,10.009962680715336,54.22706855714467
DE_01058019,Böhnhusen,10.07552021667729,54.22917228790876
DE_01058021,Bokel,9.794338673151834,54.21593721722674
DE_01058022,Bordesholm,10.041592528510707,54.173491463351205
DE_01058023,Borgdorf-Seedorf,9.870283492409847,54.17037219764846
DE_01058024,Borgstedt,9.691007046662259,54.32697477684531
DE_01058025,Bornholt,9.311252750328565,54.08605244367244
DE_01058026,Bovenau,9.861087481570234,54.32570691510109
DE_01058027,Brammer,9.762507689143128,54.19788088328221
DE_01058028,Bredenbek,9.8693307758868,54.322609248987966
DE_01058029,Breiholz,9.524277195496582,54.20659788854363
DE_01058030,Brekendorf,9.635637630838934,54.42141742505446
DE_01058031,Brinjahe,9.627878991890112,54.159212223782184
DE_01058032,Brodersby,9.987658333549392,54.63173912500309
DE_01058033,Brügge,10.058853354256588,54.1788239547458
DE_01058034,"Büdelsdorf, Stadt",9.669479689303065,54.315606223983806
DE_01058035,Bünsdorf,9.74012579084332,54.36959004336269
DE_01058036,Christiansholm,9.407122668453079,54.3216530805288
DE_01058037,Dänischenhagen,10.13216638044895,54.423696815126476
DE_01058038,Dätgen,9.931020333848384,54.18472527859061
DE_01058039,Damendorf,9.733222567307713,54.421101677022925
DE_01058040,Damp,9.977972769606493,54.57424436066862
DE_01058042,Dörphof,9.977652563388421,54.61735403015762
DE_01058043,"Eckernförde, Stadt",9.834014429557143,54.46913889373223
DE_01058044,Ehndorf,9.90783333060335,54.05244214178719
DE_01058045,Eisendorf,9.870522487049387,54.19592213304082
DE_01058046,Ellerdorf,9.838496670951104,54.19121728748905
DE_01058047,Elsdorf-Westermühlen,9.524584098100336,54.2593062985094
DE_01058048,Embühren,9.598892542959703,54.17548921180552
DE_01058049,Emkendorf,9.832839115109916,54.25007118896935
DE_01058050,Felde,9.946617657096883,54.30663004653675
DE_01058051,Felm,10.054234211272803,54.39511517396258
DE_01058052,Fleckeby,9.714349913879632,54.48296851019289
DE_01058053,Flintbek,10.06838684644899,54.24142250165697
DE_01058054,Fockbek,9.600931473869895,54.30443297354989
DE_01058055,Friedrichsgraben,9.430322505355704,54.29044336841378
DE_01058056,Friedrichsholm,9.429567697300607,54.302851732788085
DE_01058057,Gammelby,9.79231996957638,54.502335527637385
DE_01058058,Gettorf,9.97975342411517,54.40466554134428
DE_01058059,Gnutz,9.824003412321405,54.133075010074656
DE_01058061,Gokels,9.476339947813617,54.10732337454748
DE_01058062,Grauel,9.66195991345163,54.07507361254497
DE_01058063,Grevenkrug,10.013526558618384,54.220833969715635
DE_01058064,Groß Buchwald,10.078460652923448,54.165330965213904
DE_01058065,Groß Vollstedt,9.868931923234124,54.232995080087214
DE_01058066,Groß Wittensee,9.758148954053375,54.396314640175106
DE_01058067,Güby,9.692296013061307,54.488473863418676
DE_01058068,Haale,9.549077408518857,54.17175095515362
DE_01058069,Haby,9.823018137752495,54.395381343990316
DE_01058070,Hamdorf,9.516959015619022,54.21891249580796
DE_01058071,Hamweddel,9.62363771956928,54.18861125527517
DE_01058072,Hanerau-Hademarschen,9.41520944745464,54.125521285944934
DE_01058073,Haßmoor,9.809718196172323,54.29776753091887
DE_01058074,Heinkenborstel,9.747626723568455,54.13398263266931
DE_01058075,Hörsten,9.582439297620352,54.22437628254448
DE_01058076,Hoffeld,10.005372213946767,54.183235459928326
DE_01058077,Hohenwestedt,9.655950646844715,54.08974773802671
DE_01058078,Hohn,9.50257131531417,54.29856415397281
DE_01058080,Holtsee,9.842075835103854,54.3998699886656
DE_01058081,Holzbunge,9.703664238690227,54.3843402097691
DE_01058082,Holzdorf,9.905600336405456,54.557509913302844
DE_01058083,Hütten,9.752801415774815,54.44498997043765
DE_01058084,Hummelfeld,9.721122383415924,54.46516094203951
DE_01058085,Jahrsdorf,9.629106412157814,54.06405424681749
DE_01058086,Jevenstedt,9.667271750509084,54.2320527943759
DE_01058087,Karby,9.968968813727626,54.625344933501054
DE_01058088,Klein Wittensee,9.725999357970034,54.39224566263219
DE_01058089,Königshügel,9.435498193589684,54.3417367472059
DE_01058090,Kosel,9.753736397955118,54.50765849309699
DE_01058091,Krogaspe,9.931274974084113,54.13384003600782
DE_01058092,Kronshagen,10.08257237515522,54.33625322070975
DE_01058093,Krummwisch,9.906034298806896,54.33469824227979
DE_01058094,Langwedel,9.928505698383118,54.212834946787844
DE_01058096,Lindau,9.955089783041311,54.40115090996998
DE_01058097,Lohe-Föhrden,9.505630072377647,54.34564740851165
DE_01058098,Loop,9.9708137766957865,54.13756619337976
DE_01058099,Loose,9.884257906845521,54.520635349421575
DE_01058100,Lütjenwestedt,9.478685375189453,54.14908315771873
DE_01058101,Luhnstedt,9.70137672973004,54.170525480153756
DE_01058102,Goosefeld,9.830870870452515,54.444330344833766
DE_01058103,Meezen,9.712040755392795,54.05312449237373
DE_01058104,Melsdorf,10.0468429785211,54.32677615626629
DE_01058105,Mielkendorf,10.063154347923096,54.28094810876949
DE_01058106,Mörel,9.732437049525393,54.115305816131006
DE_01058107,Molfsee,10.074208545952454,54.279052065863105
DE_01058108,Mühbrook,10.015783272419766,54.166133342047516
DE_01058109,Negenharrie,10.076251386679377,54.15512112858063
DE_01058110,Neudorf-Bornstein,9.939629661653035,54.43261520678105
DE_01058111,Neu Duvenstedt,9.700684043045646,54.37347826988796
DE_01058112,Neuwittenbek,10.063462143785424,54.36234948812093
DE_01058113,Nienborstel,9.611567885708055,54.13694102568643
DE_01058115,Nindorf,9.701112791901135,54.13271787376364
DE_01058116,Noer,9.974462383470593,54.45727011286068
DE_01058117,"Nortorf, Stadt",9.854159169645762,54.166146894911314
DE_01058118,Nübbel,9.621033698135424,54.26723334118722
DE_01058119,Oldenbüttel,9.452896487000668,54.16936054531758
DE_01058120,Oldenhütten,9.733304105972625,54.16291467474029
DE_01058121,Osdorf,10.010251141679934,54.425833629878085
DE_01058122,Ostenfeld (Rendsburg),9.771375683622882,54.3139008881253
DE_01058123,Osterby,9.74814370489582,54.452501327587896
DE_01058124,Osterrönfeld,9.686837270161659,54.29301202837817
DE_01058125,Osterstedt,9.57628359067156,54.11081598789222
DE_01058126,Ottendorf,10.056568304656096,54.334919904919836
DE_01058127,Owschlag,9.587704263961136,54.394312095116945
DE_01058128,Padenstedt,9.946527412977348,54.05079173327886
DE_01058129,Prinzenmoor,9.455178866215181,54.214844709457985
DE_01058130,Quarnbek,9.997972843035935,54.32722365256427
DE_01058131,Rade b. Hohenwestedt,9.707445159304367,54.10913287878293
DE_01058132,Rade b. Rendsburg,9.722123779025022,54.335060409902766
DE_01058133,Reesdorf,10.061245792585755,54.1836752196244
DE_01058134,Remmels,9.65322690260051,54.113830187475564
DE_01058135,"Rendsburg, Stadt",9.662321311461167,54.30563375119859
DE_01058136,Rickert,9.68302960857727,54.32621233229598
DE_01058137,Rieseby,9.815428260415388,54.539395622527024
DE_01058138,Rodenbek,10.007633495948438,54.282376435231505
DE_01058139,Rumohr,10.029717585018298,54.257499584182284
DE_01058140,Schacht-Audorf,9.713263409374935,54.308626355791304
DE_01058141,Schierensee,9.978890506840491,54.259228746563565
DE_01058142,Schinkel,9.95714263193416,54.35721008807373
DE_01058143,Schmalstede,10.04202022796159,54.18286618606365
DE_01058144,Schönbek,9.975719342215056,54.161984040380105
DE_01058145,Schönhorst,10.108223695426242,54.22410523836852
DE_01058146,Schülldorf,9.736817366798054,54.30445730293582
DE_01058147,Schülp b. Nortorf,9.861023057439608,54.157655986302565
DE_01058148,Schülp b. Rendsburg,9.627408221589723,54.26506556158431
DE_01058150,Schwedeneck,10.091908638452784,54.472484643455346
DE_01058151,Seefeld,9.489395489989697,54.097473108074496
DE_01058152,Sehestedt,9.819813081559127,54.363841468442686
DE_01058153,Sören,10.001792846053409,54.21121789356365
DE_01058154,Sophienhamm,9.468769674372803,54.28073833874578
DE_01058155,Stafstedt,9.656258087202405,54.1725463947586
DE_01058156,Steenfeld,9.409930126666874,54.13598002488321
DE_01058157,Strande,10.146547865099896,54.43372764048514
DE_01058158,Tackesdorf,9.475682461395294,54.180241684294245
DE_01058159,Tappendorf,9.675878273018329,54.100499491338546
DE_01058160,Techelsdorf,10.04910250533324,54.21539145781265
DE_01058161,Thaden,9.437024923259598,54.09296013207921
DE_01058162,Thumby,9.956650730988171,54.572109064589874
DE_01058163,Timmaspe,9.890233412201288,54.14086356683818
DE_01058164,Todenbüttel,9.558650319571267,54.13117155954842
DE_01058165,Tüttendorf,9.997683302279727,54.40053983413219
DE_01058166,Waabs,9.989098868969759,54.53275427648503
DE_01058167,Wapelfeld,9.608396350110928,54.08651214035023
DE_01058168,Warder,9.890078678785708,54.209699952612034
DE_01058169,Wasbek,9.909002774701637,54.07243290996248
DE_01058170,Wattenbek,10.05063092033679,54.170766379265636
DE_01058171,Westensee,9.903248372838243,54.27381405837009
DE_01058172,Westerrönfeld,9.653744483514336,54.281317746650416
DE_01058173,Windeby,9.815302650444837,54.45871433671731
DE_01058174,Winnemark,9.954710367621683,54.62466942148681
DE_01058175,Ahlefeld-Bistensee,9.697035096427665,54.39697028355245
DE_01059001,Alt Bennebek,9.433192058196095,54.3765748669356
DE_01059002,"Arnis, Stadt",9.930344689254316,54.628761598495906
DE_01059005,Bergenhusen,9.313136502792323,54.37651386669162
DE_01059006,Böel,9.711952729281482,54.646472853660136
DE_01059008,Böklund,9.579637177460508,54.60126636968586
DE_01059009,Börm,9.379881881723792,54.40524020163526
DE_01059010,Bollingstedt,9.437184398967023,54.582926208334136
DE_01059012,Borgwedel,9.638413618642593,54.49899152990788
DE_01059018,Busdorf,9.545903408462262,54.492371790441496
DE_01059019,Dannewerk,9.528305091881554,54.49211070970966
DE_01059020,Dörpstedt,9.359110028766588,54.43506051851818
DE_01059023,Ellingstedt,9.404764642710731,54.476813227261445
DE_01059024,Erfde,9.307695941397142,54.3085378864521
DE_01059026,Fahrdorf,9.605408326248272,54.502026906349876
DE_01059032,Geltorf,9.598583695637855,54.47087168156947
DE_01059034,Grödersby,9.926426048663439,54.63230162488312
DE_01059035,Groß Rheide,9.439584484132391,54.43919869517385
DE_01059037,Havetoft,9.514075541091298,54.65021243258381
DE_01059039,Hollingstedt,9.341928059897192,54.456817068620914
DE_01059041,Hüsby,9.484648758782837,54.49932623807683
DE_01059042,Idstedt,9.510163401807942,54.57785361863183
DE_01059043,Jagel,9.54414085301551,54.45694880835969
DE_01059044,Jübek,9.397119005973227,54.5552189455227
DE_01059045,"Kappeln, Stadt",9.932955448653326,54.66315784646765
DE_01059049,Klappholz,9.52247967652475,54.63194643575855
DE_01059050,Klein Bennebek,9.482674622028435,54.40328291414124
DE_01059051,Klein Rheide,9.493673866555971,54.42707378223008
DE_01059053,Kropp,9.504747337956896,54.41160104583343
DE_01059055,Loit,9.695727674241692,54.60399802028591
DE_01059056,Lottorf,9.574718239014748,54.448252227200925
DE_01059057,Lürschau,9.511397181155898,54.54259104174767
DE_01059058,Meggerdorf,9.39697698278956,54.33995271600981
DE_01059060,Mohrkirch,9.710881412181694,54.67895434461708
DE_01059062,Neuberend,9.528397231085854,54.54942817261582
DE_01059063,Norderbrarup,9.765107972340656,54.64883197873029
DE_01059065,Nottfeld,9.766064803513418,54.61613736681657
DE_01059067,Oersberg,9.832221116071633,54.674812782405795
DE_01059068,Rabenkirchen-Faulück,9.867977575375816,54.64112766307178
DE_01059070,Rügge,9.759805998323039,54.68866229024721
DE_01059072,Saustrup,9.75852132580255,54.66459560172403
DE_01059073,Schaalby,9.633164297074469,54.5430010293116
DE_01059074,Scheggerott,9.818460404743664,54.662661405378216
DE_01059075,"Schleswig, Stadt",9.55818944595058,54.517895343703124
DE_01059076,Schnarup-Thumby,9.64338227609081,54.647214866654814
DE_01059077,Schuby,9.479830296084232,54.51293621555225
DE_01059078,Selk,9.582152134474757,54.47461517307168
DE_01059079,Silberstedt,9.365177329078364,54.52430522353988
DE_01059080,Steinfeld,9.744414154007737,54.60067265720241
DE_01059081,Stolk,9.560609492419209,54.60023379512252
DE_01059082,Struxdorf,9.626491889713362,54.62699872038586
DE_01059083,Süderbrarup,9.776463431135,54.6363969398216
DE_01059084,Süderfahrenstedt,9.58698543274895,54.59431666854834
DE_01059086,Taarstedt,9.684142235102858,54.57210957555539
DE_01059087,Tetenhusen,9.499082325552699,54.34888281761315
DE_01059088,Tielen,9.323114940965114,54.298874166526446
DE_01059090,Tolk,9.627577885824888,54.58225002761351
DE_01059092,Treia,9.315194485217958,54.51649786171624
DE_01059093,Uelsby,9.604126016134586,54.631556292628424
DE_01059094,Ulsnis,9.744003169813269,54.570685849950344
DE_01059095,Wagersrott,9.792096829766272,54.655623215914545
DE_01059096,Wohlde,9.298474533726463,54.40280089903213
DE_01059097,Twedt,9.680905800705327,54.59448695671743
DE_01059098,Nübel,9.57724011671673,54.56678652792218
DE_01059101,Tastrup,9.479572015963187,54.76877397710998
DE_01059102,Ahneby,9.7235045706571,54.703697329091774
DE_01059103,Ausacker,9.575762937439649,54.73273187448955
DE_01059105,Böxlund,9.181041365606381,54.84462314201956
DE_01059106,Dollerup,9.677774804131005,54.78142046950637
DE_01059107,Eggebek,9.376643590686573,54.61964684980716
DE_01059109,Esgrus,9.803309425901183,54.71357310903323
DE_01059112,Gelting,9.902779857346696,54.742838213442575
DE_01059113,"Glücksburg (Ostsee), Stadt",9.541777497715252,54.83100029302314
DE_01059115,Großenwiehe,9.247759969397904,54.7055330197402
DE_01059116,Großsolt,9.521292442582205,54.70439593328779
DE_01059118,Grundhof,9.632050355672057,54.78925446028513
DE_01059120,Harrislee,9.392391306723404,54.804755665960364
DE_01059121,Hasselberg,9.945622648016796,54.71645174562473
DE_01059123,Hörup,9.103791982556116,54.7441865856083
DE_01059124,Holt,9.140774887229998,54.81125452564612
DE_01059126,Hürup,9.527639958183036,54.751637800289735
DE_01059127,Husby,9.574653505096329,54.76850432681905
DE_01059128,Janneby,9.29306392279099,54.63141370765677
DE_01059129,Jardelund,9.199539928095243,54.82849233858556
DE_01059131,Jerrishoe,9.383323124734988,54.66223564305993
DE_01059132,Jörl,9.282555451737538,54.611294693832754
DE_01059136,Kronsgaard,9.961853722369996,54.72996518828844
DE_01059137,Langballig,9.643449277479203,54.806011979882435
DE_01059138,Langstedt,9.37712489496773,54.61496966798874
DE_01059141,Maasbüll,9.53642591820816,54.7868201043722
DE_01059142,Maasholm,9.994013298160246,54.686927423855536
DE_01059143,Medelby,9.174843113762206,54.81456052925402
DE_01059144,Meyn,9.212680751162694,54.757772517351256
DE_01059145,Munkbrarup,9.56773190692339,54.808959560425045
DE_01059147,Nieby,9.944353947953598,54.76840904785195
DE_01059148,Niesgrau,9.818997792136182,54.74483534240447
DE_01059149,Nordhackstedt,9.18361658059551,54.74775678761042
DE_01059151,Osterby,9.20865719471095,54.7972009400842
DE_01059152,Pommerby,9.93630030221366,54.745279026376366
DE_01059154,Rabel,9.945440896542147,54.68857981441263
DE_01059155,Rabenholz,9.91264259629214,54.71339594936171
DE_01059157,Ringsberg,9.599419180736197,54.80671913583368
DE_01059158,Schafflund,9.183506806065468,54.75829363133771
DE_01059159,Sieverstedt,9.45791834329462,54.64945158275899
DE_01059161,Sörup,9.667287224681198,54.718412997970745
DE_01059162,Sollerup,9.321625640963498,54.58000818760886
DE_01059163,Stangheck,9.860401469285959,54.71918613978751
DE_01059164,Steinberg,9.793520131528338,54.757915735120214
DE_01059167,Sterup,9.734638811747503,54.72620444607147
DE_01059168,Stoltebüll,9.88109162569108,54.70302046168069
DE_01059169,Süderhackstedt,9.304078907693304,54.596348656175536
DE_01059171,Tarp,9.399476150704402,54.66454314363772
DE_01059173,Wallsbüll,9.23423873739344,54.778072105414836
DE_01059174,Wanderup,9.331696670770286,54.6900041679341
DE_01059176,Wees,9.529943736590486,54.813850208068736
DE_01059177,Weesby,9.15147257817457,54.832344394456136
DE_01059178,Westerholz,9.669297341765219,54.81581240482784
DE_01059179,Lindewitt,9.208244571318424,54.68978349630839
DE_01059182,Freienwill,9.495162721019136,54.72861805309738
DE_01059183,Handewitt,9.371104167708069,54.75723523643816
DE_01059184,Oeversee,9.43131233183172,54.70907012202456
DE_01059185,Mittelangeln,9.596814897996035,54.68919399390597
DE_01059186,Steinbergkirche,9.754612867103134,54.756799638358615
DE_01059187,Boren,9.800251493278168,54.62326214250668
DE_01059188,Stapel,9.228082033939462,54.35148376991987
DE_01059189,Brodersby-Goltoft,9.713124501107924,54.53741783093492
DE_01060002,Alveslohe,9.91412487698104,53.78859639555667
DE_01060003,Armstedt,9.853962954823059,53.974972174551795
DE_01060004,"Bad Bramstedt, Stadt",9.878617253138719,53.91680852536621
DE_01060005,"Bad Segeberg, Stadt",10.304952542332108,53.94033374271811
DE_01060006,Bahrenhof,10.36511591869666,53.886698542640325
DE_01060007,Bark,10.193265451620107,53.921093067189226
DE_01060008,Bebensee,10.303867687522057,53.877298250200184
DE_01060009,Bimöhlen,9.960437189457807,53.936109494537334
DE_01060010,Blunk,10.312850428758265,54.00823097099515
DE_01060011,Boostedt,10.022204783666746,54.008723176342905
DE_01060012,Bornhöved,10.223931197016016,54.0514003503373
DE_01060013,Borstel,9.797011896098125,53.970761550946676
DE_01060014,"Buchholz (Forstgutsbez.),gemfr. Gebiet",10.122083470580877,53.91954114949422
DE_01060015,Bühnsdorf,10.387468138273444,53.890269731388386
DE_01060016,Daldorf,10.224119796753266,54.0335220863233
DE_01060017,Damsdorf,10.322413736460296,54.06436794476048
DE_01060018,Dreggers,10.354773155024839,53.87646553662514
DE_01060019,Ellerau,9.926414725781902,53.75561897564512
DE_01060020,Fahrenkrug,10.250978155266232,53.94614551292877
DE_01060021,Föhrden-Barl,9.774068520870985,53.92734460245655
DE_01060022,Fredesdorf,10.204460640289252,53.87350042528517
DE_01060023,Fuhlendorf,9.883967457469796,53.93179705962402
DE_01060024,Geschendorf,10.441347684521821,53.91673061270514
DE_01060025,Glasau,10.526638544753858,54.05306381779188
DE_01060026,Gönnebek,10.199742611719888,54.03889217070048
DE_01060027,Großenaspe,9.964508659568912,53.96890689282758
DE_01060028,Groß Kummerfeld,10.055015704503251,54.04743189069866
DE_01060029,Groß Niendorf,10.24071154831433,53.847420998854766
DE_01060030,Groß Rönnau,10.320371034288716,53.96753034735054
DE_01060031,Hagen,9.824992997068517,53.94566887398185
DE_01060033,Hardebek,9.86489712064463,53.986876921241794
DE_01060034,Hartenholm,10.061067532978408,53.90026456183348
DE_01060035,Hasenkrug,9.830583201388995,53.98800721181967
DE_01060036,Hasenmoor,10.022829735512058,53.903205987009976
DE_01060037,Heidmoor,9.813617854917052,53.86400822332758
DE_01060038,Heidmühlen,10.082562230423642,53.97020051022054
DE_01060039,Henstedt-Ulzburg,9.986419726520932,53.78151202449996
DE_01060040,Hitzhusen,9.863724115663636,53.917813917834025
DE_01060041,Högersdorf,10.278041098191736,53.926297024213646
DE_01060042,Hüttblek,10.068988501754452,53.83778420539208
DE_01060043,Itzstedt,10.158299502334629,53.81005735011747
DE_01060044,"Kaltenkirchen, Stadt",9.956507149578451,53.83214247769631
DE_01060045,Kattendorf,10.035578290256776,53.84278883422855
DE_01060046,Kayhude,10.135393890024769,53.75650547641249
DE_01060047,Kisdorf,10.001662736968132,53.807192960574746
DE_01060048,Klein Gladebrügge,10.32478936521918,53.922750145309195
DE_01060049,Klein Rönnau,10.320385411974838,53.96027263663025
DE_01060050,Krems II,10.3637353653357,53.985440730938116
DE_01060051,Kükels,10.235728847870767,53.898893668565286
DE_01060052,Latendorf,10.06845040463401,53.998912878817606
DE_01060053,Leezen,10.24717499707748,53.8647088693346
DE_01060054,Lentföhrden,9.886048838017386,53.87923894585596
DE_01060056,Mönkloh,9.788836091865289,53.89063570397405
DE_01060057,Mözen,10.24523717228105,53.90591925644142
DE_01060058,Nahe,10.13567480633482,53.79441919895391
DE_01060059,Negernbötel,10.254215388345148,53.98016055946915
DE_01060060,Nehms,10.334422452238883,54.03376685404348
DE_01060061,Neuengörs,10.380612285060836,53.90047649327036
DE_01060062,Neversdorf,10.284720032739774,53.86681069072961
DE_01060063,"Norderstedt, Stadt",9.99876389444634,53.69664585609837
DE_01060064,Nützen,9.914828866577736,53.86557131235494
DE_01060065,Oering,10.152955800609314,53.814914823253886
DE_01060066,Oersdorf,9.982323137632244,53.83794026292926
DE_01060067,Pronstorf,10.498022255154963,53.93885244865562
DE_01060068,Rickling,10.193103909899394,54.02222127890226
DE_01060069,Rohlstorf,10.37837867371931,53.96289263136622
DE_01060070,Schackendorf,10.28954721125104,53.94141005966839
DE_01060071,Schieren,10.390176984264663,53.94523564114992
DE_01060072,Schmalensee,10.271758274223515,54.08255769241022
DE_01060073,Schmalfeld,9.980372914550916,53.87855195796362
DE_01060074,Schwissel,10.295447069062321,53.8987459106829
DE_01060075,Seedorf,10.423742312623924,54.039521221901644
DE_01060076,Seth,10.174520796612196,53.84640132229633
DE_01060077,Sievershütten,10.11274334727553,53.845164873815996
DE_01060079,Stipsdorf,10.334737755022388,53.94053720810809
DE_01060080,Stocksee,10.34242375946918,54.08888991275129
DE_01060081,Strukdorf,10.496572250950202,53.917500963016806
DE_01060082,Struvenhütten,10.053706893085145,53.86533543725948
DE_01060084,Stuvenborn,10.119734665845357,53.84930181411496
DE_01060085,Sülfeld,10.21927602249183,53.80657129047743
DE_01060086,Tarbek,10.26505902656008,54.05206820900761
DE_01060087,Tensfeld,10.315859073763622,54.0435297390671
DE_01060088,Todesfelde,10.174808571431083,53.89209922940631
DE_01060089,Trappenkamp,10.210971134876209,54.038118056880414
DE_01060090,Travenhorst,10.458323699157765,54.01504581980421
DE_01060091,Traventhal,10.31413879526901,53.89674338532672
DE_01060092,"Wahlstedt, Stadt",10.211234441007514,53.95447042190346
DE_01060093,Wakendorf I,10.358600650786755,53.864860458622864
DE_01060094,Wakendorf II,10.083739391651413,53.785213365956096
DE_01060095,Weddelbrook,9.825903790631434,53.90073497661712
DE_01060096,Weede,10.330864699511595,53.92292886718051
DE_01060097,Wensin,10.413524858862038,53.995029692516376
DE_01060098,Westerrade,10.46308278968025,53.93552742867595
DE_01060099,Wiemersdorf,9.915580930675725,53.95087652917354
DE_01060100,Winsen,10.012956218012574,53.835843406114094
DE_01060101,Wittenborn,10.221453779022948,53.92606837853907
DE_01061001,Aasbüttel,9.450405381538275,54.07423218880191
DE_01061002,Aebtissinwisch,9.289596789469016,53.969181399944
DE_01061003,Agethorst,9.439917841789832,54.01920093033549
DE_01061004,Altenmoor,9.623620111009734,53.76901053792887
DE_01061005,Auufer,9.690712272043175,53.92985069023198
DE_01061006,Bahrenfleth,9.461289632409038,53.87972625604572
DE_01061007,Beidenfleth,9.41715415707005,53.86992070460376
DE_01061008,Bekdorf,9.4208633124512,53.93952324620858
DE_01061010,Bekmünde,9.454393266711282,53.92751815852213
DE_01061011,Besdorf,9.358244638497652,54.045742308164584
DE_01061012,Blomesche Wildnis,9.437974738075612,53.804849280294
DE_01061013,Bokelrehm,9.38589792155502,54.039639786093424
DE_01061014,Bokhorst,9.402621077769263,54.06042036825109
DE_01061015,Borsfleth,9.409696360327121,53.84052663512825
DE_01061016,Breitenberg,9.637556286326587,53.92381185760464
DE_01061017,Breitenburg,9.50765495975831,53.90513617286123
DE_01061018,Brokdorf,9.324285921250551,53.862960106300335
DE_01061019,Brokstedt,9.815342932246894,53.990658316497935
DE_01061020,Büttel,9.24294305097557,53.908393867167945
DE_01061021,Christinenthal,9.538159943060192,54.058553336699525
DE_01061022,Dägeling,9.524487168600059,53.8923392397498
DE_01061023,Dammfleth,9.37953717505837,53.91432839369858
DE_01061024,Drage,9.521266433444307,54.021348551400735
DE_01061025,Ecklak,9.271086548793368,53.94198992091036
DE_01061026,Elskop,9.494344824666276,53.800201000850905
DE_01061027,Engelbrechtsche Wildnis,9.466650180846761,53.78923030437119
DE_01061028,Fitzbek,9.76269814760054,53.99869220483888
DE_01061029,"Glückstadt, Stadt",9.423288254921703,53.79388776028461
DE_01061030,Grevenkop,9.498199829259546,53.83576556522033
DE_01061031,Gribbohm,9.375145960808153,54.02926568784553
DE_01061033,Hadenfeld,9.45853933174971,54.03409798292054
DE_01061034,Heiligenstedten,9.484915271093106,53.92412466137387
DE_01061035,Heiligenstedtenerkamp,9.469368350795431,53.904692101201306
DE_01061036,Hennstedt,9.719124837594038,54.02926065185656
DE_01061037,Herzhorn,9.48933866902532,53.78735985895411
DE_01061038,Hingstheide,9.735286555433113,53.899238059398876
DE_01061039,Hodorf,9.46984845278554,53.89018406024645
DE_01061040,Hohenaspe,9.526301841511225,53.98938606453462
DE_01061041,Hohenfelde,9.625788593933892,53.848132397080875
DE_01061042,Hohenlockstedt,9.61755512822259,53.96602577062491
DE_01061043,Holstenniendorf,9.33794508732821,54.04602072501168
DE_01061044,Horst (Holstein),9.624575624410875,53.800258079459034
DE_01061045,Huje,9.432054559016436,53.97825550285844
DE_01061046,"Itzehoe, Stadt",9.510481782709773,53.92936432786271
DE_01061047,Kaaks,9.478733909734578,53.98493532426897
DE_01061048,Kaisborstel,9.47525286753584,54.01602913034541
DE_01061049,"Kellinghusen, Stadt",9.720882510297939,53.95230202353383
DE_01061050,Kiebitzreihe,9.614479945886405,53.78323332088125
DE_01061052,Kleve,9.410481999078067,53.963394162686704
DE_01061053,Kollmoor,9.608843839585862,53.92676007486599
DE_01061054,Krempdorf,9.469890953960618,53.82642666773159
DE_01061055,"Krempe, Stadt",9.49141016286135,53.83635094971497
DE_01061056,Kremperheide,9.479008393723904,53.891389994585936
DE_01061057,Krempermoor,9.474518407693722,53.879489203728916
DE_01061058,Kronsmoor,9.609493765845393,53.90901861694181
DE_01061059,Krummendiek,9.414766297464013,53.94464573067969
DE_01061060,Kudensee,9.21666731272075,53.92951441117003
DE_01061061,Lägerdorf,9.57096653981065,53.88967950248914
DE_01061062,Landrecht,9.374866039279034,53.93027738823669
DE_01061063,Landscheide,9.255715967299807,53.91816105120827
DE_01061064,Lockstedt,9.686927990363262,54.00594230646798
DE_01061065,Lohbarbek,9.626693043006709,53.95961990323394
DE_01061066,Looft,9.511616500654979,54.02835541166202
DE_01061067,Mehlbek,9.441516419485293,54.00009331453867
DE_01061068,Moordiek,9.655997980481109,53.91727031162583
DE_01061070,Moorhusen,9.4079557151797,53.95951945675088
DE_01061071,Mühlenbarbek,9.670388631214252,53.95719641561217
DE_01061072,Münsterdorf,9.52859118734221,53.907976207090265
DE_01061073,Neuenbrook,9.548890305811128,53.863576091214945
DE_01061074,Neuendorf b. Elmshorn,9.56861165318344,53.72665080278897
DE_01061076,Nienbüttel,9.41429604242446,54.03389102033364
DE_01061077,Nortorf,9.363099318128699,53.92879698015129
DE_01061078,Nutteln,9.388747712879807,53.99381649213918
DE_01061079,Oelixdorf,9.537958737921832,53.91689249420021
DE_01061080,Oeschebüttel,9.717662519309114,53.985146461034695
DE_01061081,Oldenborstel,9.518447027704271,54.06162456675973
DE_01061082,Oldendorf,9.462526583359613,53.94949193559515
DE_01061083,Ottenbüttel,9.512034513112418,53.95790880695861
DE_01061084,Peissen,9.611773646824464,54.02758707336459
DE_01061085,Pöschendorf,9.492235799641307,54.04229588797749
DE_01061086,Poyenberg,9.695302106332834,54.04360542418726
DE_01061087,Puls,9.517863973500925,54.08280575936069
DE_01061088,Quarnstedt,9.769040442715898,53.940070668799656
DE_01061089,Rade,9.748429752779915,53.99353869690798
DE_01061091,Reher,9.578104673329827,54.06631574173422
DE_01061092,Rethwisch,9.58226464233586,53.872957647760785
DE_01061093,Rosdorf,9.720525361047843,53.98183402661519
DE_01061095,Sankt Margarethen,9.258281186328283,53.89008504517303
DE_01061096,Sarlhusen,9.795303089894436,54.02514316645343
DE_01061097,Schenefeld,9.480922309165493,54.04565001383075
DE_01061098,Schlotfeld,9.582651137610119,53.954459895333954
DE_01061100,Silzen,9.619321179822455,54.02733962377411
DE_01061101,Sommerland,9.564526470354423,53.790503829814824
DE_01061102,Stördorf,9.387054181353268,53.91469363387449
DE_01061103,Störkathen,9.751696161798433,53.980196775424325
DE_01061104,Süderau,9.535902464400051,53.83081587117519
DE_01061105,Vaale,9.37748318125681,53.99881756268411
DE_01061106,Vaalermoor,9.337080476261423,53.97972679529821
DE_01061107,Wacken,9.380283925501384,54.024575745079915
DE_01061108,Warringholz,9.463737904171012,54.07948260460021
DE_01061109,Westermoor,9.617569126793084,53.91291744498735
DE_01061110,Wewelsfleth,9.40216213311469,53.84516916170495
DE_01061111,Wiedenborstel,9.77026833324534,54.04219307951659
DE_01061112,Willenscharen,9.8017458156243,54.01086623562955
DE_01061113,"Wilster, Stadt",9.372814899253017,53.92391802495287
DE_01061114,Winseldorf,9.603943784299853,53.96309069213023
DE_01061115,Wittenbergen,9.677126257591025,53.929652087185204
DE_01061116,Wrist,9.741289671201926,53.94012039509626
DE_01061117,Wulfsmoor,9.718314265873818,53.90936985906385
DE_01061118,Kollmar,9.48696125438681,53.73232145257632
DE_01061119,Neuendorf-Sachsenbande,9.37005356784453,53.93707841008349
DE_01062001,"Ahrensburg, Stadt",10.231868025426273,53.67021881052705
DE_01062003,Badendorf,10.57969641433229,53.87007309932045
DE_01062004,"Bad Oldesloe, Stadt",10.373206051163834,53.80758862027053
DE_01062005,Bargfeld-Stegen,10.183805060339834,53.76458070083603
DE_01062006,"Bargteheide, Stadt",10.264690344393772,53.72983228775752
DE_01062008,Barnitz,10.46893619901447,53.8102262885711
DE_01062009,Barsbüttel,10.168084077280994,53.577446995900615
DE_01062011,Braak,10.24737537318893,53.60468363263277
DE_01062014,Delingsdorf,10.25410399942636,53.71355661103308
DE_01062016,Elmenhorst,10.26681793133178,53.7655196918693
DE_01062018,"Glinde, Stadt",10.211554819112909,53.542008954038295
DE_01062019,Grabau,10.28295563617311,53.80571861067271
DE_01062020,Grande,10.387612816803044,53.581678641608505
DE_01062021,Grönwohld,10.40980938017459,53.641009318211445
DE_01062022,Großensee,10.34048117156884,53.613558321523094
DE_01062023,Großhansdorf,10.273671048387774,53.65730037940529
DE_01062025,Hamberge,10.588523084540416,53.839561999811124
DE_01062026,Hamfelde,10.447186547985646,53.603284257581464
DE_01062027,Hammoor,10.317942469421805,53.71149924155425
DE_01062031,Heidekamp,10.508560466299947,53.85628264854956
DE_01062032,Heilshoop,10.533737257738428,53.884912714912055
DE_01062033,Hohenfelde,10.46839760100407,53.63480727754102
DE_01062035,Hoisdorf,10.3118718318422,53.65937924624892
DE_01062036,Jersbek,10.225141968426598,53.72127077159574
DE_01062039,Klein Wesenberg,10.54949008188079,53.810083343931296
DE_01062040,Köthel,10.506029789646997,53.61180058941775
DE_01062045,Lütjensee,10.369056014982664,53.64871012346413
DE_01062046,Meddewade,10.438734372889172,53.809819770141786
DE_01062048,Mönkhagen,10.546633466872374,53.902961202840416
DE_01062050,Neritz,10.284735547107323,53.78365271185492
DE_01062051,Nienwohld,10.19150397615783,53.78167419365294
DE_01062053,Oststeinbek,10.17358139058141,53.525306564691164
DE_01062056,Pölitz,10.401646729145439,53.765604766235086
DE_01062058,Rausdorf,10.301097998346185,53.58915730959763
DE_01062059,Rehhorst,10.470334525901908,53.88257426071808
DE_01062060,"Reinbek, Stadt",10.239121623590963,53.51860102822064
DE_01062061,"Reinfeld (Holstein), Stadt",10.493204155629218,53.8333544141258
DE_01062062,Rethwisch,10.44801513306009,53.78071671757501
DE_01062065,Rümpel,10.346592317881123,53.77257386693592
DE_01062069,Siek,10.285877136509077,53.645133837649624
DE_01062071,Stapelfeld,10.196008927069007,53.59653191656873
DE_01062076,Tangstedt,10.087229148513849,53.73532732620603
DE_01062078,Todendorf,10.340148089052903,53.702551766860516
DE_01062081,Tremsbüttel,10.313165962902149,53.745537582710284
DE_01062082,Trittau,10.403156992121746,53.608880137448736
DE_01062083,Westerau,10.490440944541083,53.77507211171493
DE_01062086,Witzhave,10.338611725705192,53.57037981559718
DE_01062087,Zarpen,10.512165353008152,53.8659122402677
DE_01062088,Brunsbek,10.268022932279079,53.59407980952314
DE_01062089,Lasbek,10.364727473939562,53.74292448118208
DE_01062090,Ammersbek,10.1940285905661,53.682928915003195
DE_01062091,Steinburg,10.389100860548043,53.707791684319226
DE_01062092,Travenbrück,10.311431400528814,53.83431659868576
DE_01062093,Feldhorst,10.428309250825563,53.84071976945502
DE_01062094,Wesenberg,10.513382624982984,53.830979299826105
DE_02000000,"Hamburg, Freie und Hansestadt",10.0102190944355,53.56803440949023
DE_03101000,"Braunschweig, Stadt",10.519969192465096,52.26383810773876
DE_03102000,"Salzgitter, Stadt",10.352331772131366,52.13192690479547
DE_03103000,"Wolfsburg, Stadt",10.774297925350867,52.41862017053877
DE_03151001,Adenbüttel,10.448175494370997,52.37932636262477
DE_03151002,Barwedel,10.791083687045129,52.52486841311504
DE_03151003,Bergfeld,10.847795447593782,52.54250260839893
DE_03151004,Bokensdorf,10.715145990288697,52.50421544063385
DE_03151005,"Brome, Flecken",10.9341095072583,52.59814596308062
DE_03151006,Calberlah,10.623289984786464,52.424121865386425
DE_03151007,Dedelstorf,10.552740106859865,52.69118639371511
DE_03151008,Ehra-Lessien,10.789790537106803,52.567548219232975
DE_03151009,"Gifhorn, Stadt",10.551966702855491,52.48280054051391
DE_03151010,Groß Oesingen,10.46307608047724,52.64756215421091
DE_03151011,Hankensbüttel,10.602378821023569,52.72865585838633
DE_03151012,Hillerse,10.404274640742074,52.41338306198573
DE_03151013,Isenbüttel,10.57012511646113,52.44645970203052
DE_03151014,Jembke,10.763293011729358,52.50056940956978
DE_03151015,Leiferde,10.432129477665875,52.44402572716463
DE_03151016,Meine,10.548673298674526,52.371335552239444
DE_03151017,Meinersen,10.349917588370865,52.47026769472471
DE_03151018,Müden (Aller),10.366079730952514,52.524165586074176
DE_03151019,Obernholz,10.601126260496393,52.744095644034886
DE_03151020,Osloß,10.683817029190642,52.46988212849528
DE_03151021,Parsau,10.893314853309207,52.53855148090161
DE_03151022,Ribbesbüttel,10.506559176997694,52.43453342839327
DE_03151023,Rötgesbüttel,10.533819144545156,52.40422631556455
DE_03151024,Rühen,10.88077472771732,52.4859662174193
DE_03151025,Sassenburg,10.62140746282037,52.51614506329081
DE_03151026,Schönewörde,10.631485137135526,52.63246669540024
DE_03151027,Schwülper,10.442129471265929,52.34732505257339
DE_03151028,Sprakensehl,10.5060211928596,52.78250473032443
DE_03151029,Steinhorst,10.40647102106018,52.68924976612608
DE_03151030,Tappenbeck,10.734930260074897,52.46725017277499
DE_03151031,Tiddische,10.80302370978969,52.51069148412933
DE_03151032,Tülau,10.875081352115812,52.576625263450886
DE_03151033,Ummern,10.445011822201078,52.587695734342084
DE_03151034,Vordorf,10.527294591187975,52.37596506307526
DE_03151035,Wagenhoff,10.523028907157425,52.55176535422051
DE_03151036,Wahrenholz,10.596397109343657,52.613812128857575
DE_03151037,Wasbüttel,10.599703273900895,52.41879255421171
DE_03151038,Wesendorf,10.53828542749795,52.59350805847469
DE_03151039,Weyhausen,10.721396309220198,52.46131906067628
DE_03151040,"Wittingen, Stadt",10.73129667444753,52.705805018433345
DE_03151041,Didderse,10.40526956223362,52.37710496249806
DE_03151501,"Giebel, gemfr. Gebiet",10.945294157655466,52.52122516899491
DE_03153002,"Bad Harzburg, Stadt",10.550582638148807,51.8889244282353
DE_03153006,Hahausen,10.223239408999508,51.94356830139154
DE_03153007,"Langelsheim, Stadt",10.327408972529115,51.92384876075288
DE_03153008,Liebenburg,10.415680425019362,52.00752360726026
DE_03153009,"Lutter am Barenberge, Flecken",10.2632678975151,51.98610542891206
DE_03153012,"Seesen, Stadt",10.169027150737975,51.89486882258617
DE_03153014,Wallmoden,10.279722685551903,52.01793879172005
DE_03153016,"Braunlage, Stadt",10.60918061857192,51.72418049166497
DE_03153017,"Goslar, Stadt",10.446080571249333,51.91798029923799
DE_03153018,"Clausthal-Zellerfeld, Berg- und Universitätsstadt",10.33818437026037,51.80748050685334
DE_03153504,"Harz (Landkreis Goslar), gemfr. Gebiet",10.504797162766312,51.86413260959523
DE_03154001,Bahrdorf,10.988302019726145,52.36825638428795
DE_03154002,Beierstedt,10.855538205487914,52.07425971751292
DE_03154004,Danndorf,10.918187701701722,52.423753061693745
DE_03154005,Frellstedt,10.905351315217153,52.22067156490293
DE_03154006,Gevensleben,10.826748463569418,52.07720642548843
DE_03154007,Grafhorst,10.955174559193075,52.439061558277295
DE_03154008,Grasleben,11.016801293963079,52.30552950270029
DE_03154009,Groß Twülpstedt,10.913343170870345,52.36993137621187
DE_03154012,Jerxheim,10.896174780972276,52.08124949177514
DE_03154013,"Königslutter am Elm, Stadt",10.812367888386575,52.256524076204826
DE_03154014,Lehre,10.67538760439457,52.335963962156285
DE_03154015,Mariental,10.9934024485316,52.28750206587717
DE_03154016,Querenhorst,10.960908206039546,52.33339949423787
DE_03154017,Räbke,10.881330604622582,52.19441238671215
DE_03154018,Rennau,10.897128711845024,52.30925868614295
DE_03154019,"Schöningen, Stadt",10.9670338701977,52.138940918078795
DE_03154021,Süpplingen,10.901963211256021,52.227336291118235
DE_03154022,Süpplingenburg,10.914771603442013,52.24277661813057
DE_03154024,Velpke,10.934850393799973,52.41281760779587
DE_03154025,Warberg,10.918577699546598,52.1822574260531
DE_03154026,Wolsdorf,10.941370368609656,52.188450612189335
DE_03154027,Söllingen,10.926451991747257,52.11146511467159
DE_03154028,"Helmstedt, Stadt",11.008106834624984,52.227375921872195
DE_03154501,"Brunsleberfeld, gemfr. Gebiet",10.851574968051548,52.18940485606372
DE_03154502,"Helmstedt, gemfr. Gebiet",11.024098650565943,52.237349827672936
DE_03154503,"Königslutter, gemfr. Gebiet",10.795639136435236,52.24153367470813
DE_03154504,"Mariental, gemfr. Gebiet",11.0055215523969,52.30200967602679
DE_03154506,"Schöningen, gemfr. Gebiet",10.950180476076964,52.153785427372796
DE_03155001,"Bad Gandersheim, Stadt",10.025009994733379,51.87115980763905
DE_03155002,"Bodenfelde, Flecken",9.554472073834713,51.63710143606532
DE_03155003,"Dassel, Stadt",9.716624195109514,51.79766656596783
DE_03155005,"Hardegsen, Stadt",9.826821733955514,51.64457876325627
DE_03155006,Kalefeld,10.060536511820873,51.79702435258305
DE_03155007,Katlenburg-Lindau,10.107469292727394,51.66533039884816
DE_03155009,"Moringen, Stadt",9.867184689977794,51.701655191855785
DE_03155010,"Nörten-Hardenberg, Flecken",9.935649525650142,51.624836464965064
DE_03155011,"Northeim, Stadt",9.995737475755671,51.705393075024794
DE_03155012,"Uslar, Stadt",9.644613087909292,51.658596753772585
DE_03155013,"Einbeck, Stadt",9.878296935033168,51.82108103973098
DE_03155501,"Solling (Landkreis Northeim), gemfr. Geb.",9.499104370388046,51.67147452862874
DE_03157001,Edemissen,10.245442097227528,52.386427323322074
DE_03157002,Hohenhameln,10.072456618734197,52.2616563793199
DE_03157005,Lengede,10.327235506466888,52.18622544136276
DE_03157006,"Peine, Stadt",10.227509070064428,52.32461330033023
DE_03157007,Vechelde,10.378022305467121,52.25960094217722
DE_03157008,Wendeburg,10.39601527252791,52.313447898551196
DE_03157009,Ilsede,10.216127223644458,52.25891995450982
DE_03158002,Baddeckenstedt,10.223751194542873,52.09479454210994
DE_03158004,Burgdorf,10.211912342281474,52.14727705599937
DE_03158005,Cramme,10.440783306720604,52.11120651070907
DE_03158006,Cremlingen,10.653017007853293,52.2615089949468
DE_03158007,Dahlum,10.853533211992525,52.13667757318961
DE_03158008,Denkte,10.60197965587727,52.141959786069236
DE_03158009,Dettum,10.665461264781952,52.170667561360275
DE_03158010,Dorstadt,10.564418667389225,52.10052731467396
DE_03158011,Elbe,10.275509287056032,52.09016359918196
DE_03158012,Erkerode,10.696619443880142,52.20819379179541
DE_03158013,Evessen,10.70747159129452,52.19244168270319
DE_03158014,Flöthe,10.458739433541991,52.08310607981428
DE_03158016,Haverlah,10.303176613197945,52.05143669146132
DE_03158017,Hedeper,10.704700822844767,52.06535640050746
DE_03158018,Heere,10.243619303090155,52.06919519499103
DE_03158019,Heiningen,10.556660892986995,52.069293133865784
DE_03158021,Kissenbrück,10.586736318201467,52.11226457929693
DE_03158022,Kneitlingen,10.742453467521305,52.1698722373703
DE_03158023,Ohrum,10.563719364961772,52.11897865918573
DE_03158025,Roklum,10.737991674335609,52.065114857639834
DE_03158027,"Schöppenstedt, Stadt",10.778148615788966,52.146125136611644
DE_03158028,Sehlde,10.26936534531719,52.03817967029114
DE_03158030,Sickte,10.634909096336541,52.21694761006119
DE_03158031,Uehrde,10.785170958565155,52.106044873729225
DE_03158032,Vahlberg,10.697987062116798,52.134261717244954
DE_03158033,Veltheim (Ohe),10.675014283225865,52.22584729465181
DE_03158035,Winnigstedt,10.767130689514017,52.06487681522632
DE_03158036,Wittmar,10.636970454727503,52.12897727757789
DE_03158037,"Wolfenbüttel, Stadt",10.542015899269874,52.16462420481015
DE_03158038,Börßum,10.580700187912178,52.068171839248514
DE_03158039,Schladen-Werla,10.564881234195097,52.0251378600384
DE_03158040,Remlingen-Semmenstedt,10.673326812735244,52.107929575790386
DE_03158501,"Am Großen Rhode, gemfr. Gebiet",10.754888924745067,52.18583874986028
DE_03158502,"Barnstorf-Warle, gemfr. Gebiet",10.839303545615707,52.17237804468279
DE_03158503,"Voigtsdahlum, gemfr. Gebiet",10.86675694381195,52.16571661525243
DE_03159001,"Adelebsen, Flecken",9.755119129885657,51.57543812187619
DE_03159002,Bad Grund (Harz),10.207650136813758,51.787760824748055
DE_03159003,"Bad Lauterberg im Harz, Stadt",10.453988607710572,51.62239410821879
DE_03159004,"Bad Sachsa, Stadt",10.556016289280283,51.59529752966051
DE_03159005,Bilshausen,10.156258907092623,51.628833370499216
DE_03159006,Bodensee,10.125689570947342,51.598012831187624
DE_03159007,"Bovenden, Flecken",9.931626802118895,51.584203935074406
DE_03159008,Bühren,9.678783783919036,51.482743217602014
DE_03159009,"Dransfeld, Stadt",9.762131840538236,51.50002027030597
DE_03159010,"Duderstadt, Stadt",10.256949516985113,51.51241642048954
DE_03159011,Ebergötzen,10.099969924191925,51.57674420911376
DE_03159012,Elbingerode,10.27544776209216,51.6603289453743
DE_03159013,Friedland,9.92785993257749,51.43684694121571
DE_03159014,"Gieboldehausen, Flecken",10.215863839382008,51.60933688572352
DE_03159015,Gleichen,10.022205491965398,51.48579963763282
DE_03159016,"Göttingen, Stadt",9.936123630307346,51.53517902824556
DE_03159017,"Hann. Münden, Stadt",9.655512967659304,51.42151626707363
DE_03159018,Hattorf am Harz,10.234535057452439,51.647655610974056
DE_03159019,"Herzberg am Harz, Stadt",10.33976778906335,51.648249056299704
DE_03159020,Hörden am Harz,10.282047018981116,51.66688451106613
DE_03159021,Jühnde,9.80261788989304,51.45616883509699
DE_03159022,Krebeck,10.123199083697077,51.59146935421641
DE_03159023,Landolfshausen,10.096139495409542,51.534128777986794
DE_03159024,Niemetal,9.710647722900426,51.51264570535283
DE_03159025,Obernfeld,10.24881052441532,51.55292738049589
DE_03159026,"Osterode am Harz, Stadt",10.2413594554261,51.72716373934976
DE_03159027,Rhumspringe,10.289350412134953,51.583383273782594
DE_03159028,Rollshausen,10.191663866030055,51.5670709204834
DE_03159029,Rosdorf,9.895952937233979,51.50289462015554
DE_03159030,Rüdershausen,10.281612610294534,51.579576739148806
DE_03159031,Scheden,9.726013488769649,51.456411069447775
DE_03159032,Seeburg,10.16143887538459,51.56402220370217
DE_03159033,Seulingen,10.168409875368386,51.535979061688955
DE_03159034,Staufenberg,9.62629124345274,51.337914438551685
DE_03159035,Waake,10.054163557130012,51.55698299545723
DE_03159036,Walkenried,10.618423682216958,51.596809921327086
DE_03159037,Wollbrandshausen,10.162704686874495,51.58894810119771
DE_03159038,Wollershausen,10.229992659702402,51.6124809696613
DE_03159039,Wulften am Harz,10.181345286417452,51.65806102160449
DE_03159501,"Harz (Ldkr. Göttingen), gemfr. Geb.",10.35089959676648,51.7064487882067
DE_03241001,"Hannover, Landeshauptstadt",9.742950959082783,52.37718748099887
DE_03241002,"Barsinghausen, Stadt",9.476673538504047,52.30413438483017
DE_03241003,"Burgdorf, Stadt",10.007022086519083,52.450367128203354
DE_03241004,"Burgwedel, Stadt",9.867179387170662,52.50176399520719
DE_03241005,"Garbsen, Stadt",9.598779050725724,52.426242870098285
DE_03241006,"Gehrden, Stadt",9.59969945707362,52.31231377706689
DE_03241007,"Hemmingen, Stadt",9.732830031805559,52.31023980593343
DE_03241008,Isernhagen,9.84228624964714,52.4430877363769
DE_03241009,"Laatzen, Stadt",9.815569628330822,52.30123553685036
DE_03241010,"Langenhagen, Stadt",9.732295062784194,52.44131008980806
DE_03241011,"Lehrte, Stadt",9.984587760069198,52.37271520936477
DE_03241012,"Neustadt am Rübenberge, Stadt",9.452848962674542,52.51133118058412
DE_03241013,"Pattensen, Stadt",9.76232304424319,52.25936724797035
DE_03241014,"Ronnenberg, Stadt",9.671912855758833,52.33776633539721
DE_03241015,"Seelze, Stadt",9.631553460836168,52.39873450798115
DE_03241016,"Sehnde, Stadt",9.95023835265189,52.32267693104304
DE_03241017,"Springe, Stadt",9.586894634005766,52.21154692216642
DE_03241018,Uetze,10.160026457851627,52.46317545077152
DE_03241019,Wedemark,9.724800482915793,52.54258302909196
DE_03241020,Wennigsen (Deister),9.580293944745526,52.27187248853841
DE_03241021,"Wunstorf, Stadt",9.43549429783761,52.42771021496135
DE_03251001,Affinghausen,8.878580014700587,52.782473813820914
DE_03251002,Asendorf,9.003670909782057,52.768725958731054
DE_03251003,Bahrenborstel,8.812246198147502,52.56983109968478
DE_03251004,"Barenburg, Flecken",8.796304016057201,52.623206198291506
DE_03251005,"Barnstorf, Flecken",8.502996594329078,52.71206852024857
DE_03251006,Barver,8.603470146112882,52.616712902237026
DE_03251007,"Bassum, Stadt",8.732609318131235,52.858328920527754
DE_03251008,Borstel,8.972205789039245,52.672056920504836
DE_03251009,Brockum,8.418885562458057,52.46893981924867
DE_03251011,Dickel,8.472948906289439,52.63982063644879
DE_03251012,"Diepholz, Stadt",8.369861303009213,52.60589573621753
DE_03251013,Drebber,8.428465989406872,52.65507376483482
DE_03251014,Drentwede,8.55070582031549,52.7482775036098
DE_03251015,Ehrenburg,8.70214084038265,52.74544034800598
DE_03251017,Eydelstedt,8.518791139390075,52.71067185180769
DE_03251018,Freistatt,8.649881375223037,52.6269256981674
DE_03251019,Hemsloh,8.550332104648188,52.583496861186184
DE_03251020,Hüde,8.366405445005157,52.506792682465715
DE_03251021,Kirchdorf,8.836447885087308,52.593665293019704
DE_03251022,Lembruch,8.371584363529314,52.52220703026533
DE_03251023,"Lemförde, Flecken",8.373724878605943,52.46293893166595
DE_03251024,Maasen,8.893959931414344,52.69514657038147
DE_03251025,Marl,8.363382581704581,52.484342125084765
DE_03251026,Martfeld,9.057932406274878,52.87829869347963
DE_03251027,Mellinghausen,8.901142595120108,52.70759304837625
DE_03251028,Neuenkirchen,8.750122273949101,52.773405114627366
DE_03251029,Quernheim,8.394826710289207,52.46222563471942
DE_03251030,Rehden,8.476631602839156,52.606764893744085
DE_03251031,Scholen,8.769520981560085,52.748422688128876
DE_03251032,Schwaförden,8.823941087105164,52.73563989155756
DE_03251033,Schwarme,9.0236088626314,52.89977249076049
DE_03251034,"Siedenburg, Flecken",8.948641001109948,52.688360497071486
DE_03251035,Staffhorst,8.984298428380534,52.7210866381936
DE_03251036,Stemshorn,8.355477841701582,52.45006567472025
DE_03251037,Stuhr,8.749942787891996,53.027919975349064
DE_03251038,Sudwalde,8.839476953551989,52.7968870585196
DE_03251040,"Sulingen, Stadt",8.810420702174275,52.68249124373424
DE_03251041,"Syke, Stadt",8.822773065929368,52.91995839937732
DE_03251042,"Twistringen, Stadt",8.63475222199865,52.79810654385614
DE_03251043,Varrel,8.72748610666876,52.61816261451335
DE_03251044,Wagenfeld,8.59596551104423,52.54746854838197
DE_03251045,Wehrbleck,8.680641691884226,52.63025982579864
DE_03251046,Wetschen,8.458445206267841,52.60923695470218
DE_03251047,Weyhe,8.832329136421055,52.99392472128354
DE_03251049,"Bruchhausen-Vilsen, Flecken",8.985699781326858,52.82742428170357
DE_03252001,"Aerzen, Flecken",9.277852327290425,52.05644640006996
DE_03252002,"Bad Münder am Deister, Stadt",9.453224600673494,52.199170312588876
DE_03252003,"Bad Pyrmont, Stadt",9.2509675288939075,51.9840572435642
DE_03252004,"Coppenbrügge, Flecken",9.528651871541696,52.1128440863003
DE_03252005,Emmerthal,9.38094959777498,52.04849794678231
DE_03252006,"Hameln, Stadt",9.36303627609609,52.10393114716811
DE_03252007,"Hessisch Oldendorf, Stadt",9.261459051395905,52.16194078121118
DE_03252008,"Salzhemmendorf, Flecken",9.600879044948508,52.076929465547096
DE_03254002,"Alfeld (Leine), Stadt",9.82746139364459,51.98517679998329
DE_03254003,Algermissen,9.96395489601771,52.258803076041296
DE_03254005,"Bad Salzdetfurth, Stadt",10.014206885130411,52.06147682646659
DE_03254008,"Bockenem, Stadt",10.133788147243953,52.00829833433902
DE_03254011,Diekholzen,9.945394110810868,52.11508448227276
DE_03254013,"Eime, Flecken",9.721220413707165,52.06978727088354
DE_03254014,"Elze, Stadt",9.73536197241474,52.1244456882391
DE_03254017,Giesen,9.889017621795498,52.20004599989897
DE_03254020,Harsum,9.978048071809509,52.20795356543492
DE_03254021,"Hildesheim, Stadt",9.952205725510726,52.14959060795525
DE_03254022,Holle,10.1533787813899,52.087893016904225
DE_03254026,Nordstemmen,9.794366210641206,52.166079993176595
DE_03254028,"Sarstedt, Stadt",9.858121439281117,52.23713130057032
DE_03254029,Schellerten,10.088596281858303,52.17378583871569
DE_03254032,Söhlde,10.196783475082901,52.19219856501442
DE_03254041,"Duingen, Flecken",9.697274808302675,52.009203773046174
DE_03254042,Freden (Leine),9.90560714580318,51.931300329090796
DE_03254043,"Gronau (Leine), Stadt",9.780131466677588,52.08071914868381
DE_03254044,Lamspringe,10.00491779194549,51.96847214623403
DE_03254045,Sibbesse,9.917801575276643,52.043982222433925
DE_03255001,Arholzen,9.576766685043117,51.86161146035528
DE_03255002,"Bevern, Flecken",9.49655680729966,51.8600479745425
DE_03255003,"Bodenwerder, Münchhausenstadt",9.513725816855098,51.9737625547167
DE_03255004,Boffzen,9.393482807109924,51.749510843812466
DE_03255005,Brevörde,9.42449434569329,51.908445203493756
DE_03255007,Deensen,9.592591053127986,51.85800406787261
DE_03255008,"Delligsen, Flecken",9.788873199195601,51.942910124166055
DE_03255009,Derental,9.430211256606755,51.69703574106043
DE_03255010,Dielmissen,9.605829487009565,51.968545958563084
DE_03255012,Eimen,9.753210290151525,51.88392610719922
DE_03255013,"Eschershausen, Stadt",9.63603720725915,51.931118891413256
DE_03255014,Fürstenberg,9.395160008311525,51.72809674520777
DE_03255015,Golmbach,9.536043551198517,51.8975733392905
DE_03255016,Halle,9.564673116802979,51.989702569972565
DE_03255017,Hehlen,9.469084573478906,51.98321453292377
DE_03255018,Heinade,9.62805869414783,51.82975448553496
DE_03255019,Heinsen,9.436808663150174,51.886291333736004
DE_03255020,Heyen,9.503054346105419,52.00943000393359
DE_03255021,Holenberg,9.58420009269051,51.90806840859266
DE_03255022,Holzen,9.663643493274924,51.92947156405525
DE_03255023,"Holzminden, Stadt",9.459751643772982,51.82449391402265
DE_03255025,Kirchbrak,9.567530663836116,51.96352665045128
DE_03255026,"Lauenförde, Flecken",9.380877553083936,51.65977926412214
DE_03255027,Lenne,9.684139663847231,51.89474191797843
DE_03255028,Lüerdissen,9.62355350504327,51.944567738714376
DE_03255030,Negenborn,9.5731368497723075,51.88914665554958
DE_03255031,"Ottenstein, Flecken",9.399835788471089,51.950611326755535
DE_03255032,Pegestorf,9.50144453742695,51.93236666758444
DE_03255033,"Polle, Flecken",9.418026843661602,51.89236214659435
DE_03255034,"Stadtoldendorf, Stadt",9.628892139767036,51.88417652351393
DE_03255035,Vahlbruch,9.33864194596609,51.91753892950819
DE_03255036,Wangelnstedt,9.670229225725226,51.862259146717925
DE_03255501,"Boffzen, gemfr. Gebiet",9.406211234125278,51.73763247742295
DE_03255502,"Eimen, gemfr. Gebiet",9.717695171547533,51.899884325138665
DE_03255503,"Eschershausen, gemfr. Gebiet",9.679478470048112,51.93620154757148
DE_03255504,"Grünenplan, gemfr. Gebiet",9.747776976655244,51.962709352488474
DE_03255505,"Holzminden, gemfr. Gebiet",9.511238252884757,51.79909301130314
DE_03255506,"Merxhausen, gemfr. Gebiet",9.590875155927073,51.835329047039984
DE_03255508,"Wenzen, gemfr. Gebiet",9.842729799881619,51.903905297428956
DE_03256001,Balge,9.160966790539193,52.69160009258892
DE_03256002,Binnen,9.12247848309967,52.62059946139056
DE_03256003,"Bücken, Flecken",9.130037579249677,52.78808701166395
DE_03256004,"Diepenau, Flecken",8.7351878513824,52.429486162138744
DE_03256005,"Drakenburg, Flecken",9.23330910191807,52.69282506360254
DE_03256006,Estorf,9.14622569373343,52.59012135076712
DE_03256007,Eystrup,9.223627418406169,52.779844138601895
DE_03256008,Gandesbergen,9.228007497342691,52.758309888930164
DE_03256009,Hämelhausen,9.243619496267408,52.78424324453091
DE_03256010,Hassel (Weser),9.199455741261438,52.80566571296168
DE_03256011,Haßbergen,9.235236839438913,52.729118239505986
DE_03256012,Heemsen,9.261043230069566,52.70615616275011
DE_03256013,Hilgermissen,9.162813274254756,52.82187193555816
DE_03256014,"Hoya, Stadt",9.138126691568745,52.80932693111692
DE_03256015,Hoyerhagen,9.125605859767816,52.81186652212301
DE_03256016,Husum,9.25257685455726,52.573743686810765
DE_03256017,Landesbergen,9.12861843177058,52.55690894954612
DE_03256018,Leese,9.09169815687846,52.51097311710834
DE_03256019,"Liebenau, Flecken",9.088755305216486,52.60576135465723
DE_03256020,Linsburg,9.304870894319603,52.5951273866861
DE_03256021,Marklohe,9.145176443576656,52.663328786251554
DE_03256022,"Nienburg (Weser), Stadt",9.22170838837324,52.641911692721926
DE_03256023,Pennigsehl,9.02340419467543,52.63934489382063
DE_03256024,Raddestorf,8.956756061623285,52.429993930599444
DE_03256025,"Rehburg-Loccum, Stadt",9.201011206158679,52.46173852305252
DE_03256026,Rodewald,9.489109415494763,52.66907213519916
DE_03256027,Rohrsen,9.242247299570401,52.70715668811601
DE_03256028,Schweringen,9.184851939849223,52.74904191264335
DE_03256029,Steimbke,9.392203835586631,52.65886074523395
DE_03256030,"Steyerberg, Flecken",9.022954902170609,52.57108397571643
DE_03256031,Stöckse,9.350608175015477,52.63621254428908
DE_03256032,Stolzenau,9.064203869083935,52.51766780015681
DE_03256033,"Uchte, Flecken",8.9073551495854435,52.49845522557472
DE_03256034,Warmsen,8.848346845679234,52.434333158733004
DE_03256035,Warpe,9.073652745857471,52.73773730632191
DE_03256036,Wietzen,9.075272240255591,52.71031806132222
DE_03257001,Ahnsen,9.103351724151942,52.247703902067514
DE_03257002,Apelern,9.340358924796723,52.31215544785756
DE_03257003,Auetal,9.192916909112654,52.23446496691649
DE_03257004,Auhagen,9.279564865234013,52.39652900626332
DE_03257005,Bad Eilsen,9.10217779419022,52.23985197067487
DE_03257006,"Bad Nenndorf, Stadt",9.372907322485359,52.33575452263783
DE_03257007,Beckedorf,9.306420441632818,52.34666144373024
DE_03257008,Buchholz,9.120548992540838,52.22974103805093
DE_03257009,"Bückeburg, Stadt",9.04534828082798,52.26210101101485
DE_03257010,"Hagenburg, Flecken",9.329356295816813,52.43218635000833
DE_03257011,Haste,9.385809939139111,52.37997151275935
DE_03257012,Heeßen,9.101928009268848,52.234043158593266
DE_03257013,Helpsen,9.126396877332844,52.30867930869428
DE_03257014,Hespe,9.110032732388364,52.319629732067725
DE_03257015,Heuerßen,9.281054075780826,52.330917038620434
DE_03257016,Hohnhorst,9.373381139461193,52.373098083065855
DE_03257017,Hülsede,9.364401291244542,52.25993450306287
DE_03257018,"Lauenau, Flecken",9.377622044029208,52.274043164451136
DE_03257019,Lauenhagen,9.19947780737657,52.36125337022363
DE_03257020,Lindhorst,9.281178145569505,52.35915248424039
DE_03257021,Lüdersfeld,9.26754384137225,52.36505228969218
DE_03257022,Luhden,9.094575305397008,52.2330872265715
DE_03257023,Meerbeck,9.14702506905486,52.33999717533902
DE_03257024,Messenkamp,9.390192845168498,52.25950786161574
DE_03257025,Niedernwöhren,9.158502757582896,52.3450411356942
DE_03257026,Nienstädt,9.159935743170179,52.291333300985954
DE_03257027,Nordsehl,9.18905789319344,52.3549548157785
DE_03257028,"Obernkirchen, Stadt",9.124713420825977,52.263009291917314
DE_03257029,Pohle,9.353276583886164,52.268568907545685
DE_03257030,Pollhagen,9.188841700288501,52.387101985783374
DE_03257031,"Rinteln, Stadt",9.082718917487076,52.19359660477628
DE_03257032,"Rodenberg, Stadt",9.357327712701705,52.314595661704914
DE_03257033,"Sachsenhagen, Stadt",9.274504582781097,52.39569500671712
DE_03257034,Seggebruch,9.106577305988932,52.31313548447388
DE_03257035,"Stadthagen, Stadt",9.197802867393017,52.32265779963231
DE_03257036,Suthfeld,9.393597374695418,52.37066608488829
DE_03257037,"Wiedensahl, Flecken",9.124208633510253,52.38149531596981
DE_03257038,Wölpinghausen,9.248046421928496,52.42376782038375
DE_03351001,Adelheidsdorf,10.077384840152867,52.562966104149375
DE_03351002,Ahnsbeck,10.273755464835396,52.60990176982607
DE_03351003,Beedenbostel,10.25607607643957,52.642483926803195
DE_03351004,"Bergen, Stadt",9.97429747012408,52.80217881463254
DE_03351005,Bröckel,10.213851770441462,52.516858434939444
DE_03351006,"Celle, Stadt",10.070949358720013,52.61824108092115
DE_03351007,Eicklingen,10.183645181233207,52.551963550532676
DE_03351008,Eldingen,10.351009122746154,52.677821208047476
DE_03351010,Faßberg,10.152500819074088,52.89423193276712
DE_03351012,Hambühren,9.953923495791885,52.632723123680655
DE_03351015,Hohne,10.370705231109202,52.59031429707075
DE_03351016,Lachendorf,10.240859340346702,52.61598116598012
DE_03351017,Langlingen,10.282759158863982,52.55459362714043
DE_03351018,Nienhagen,10.106748645964062,52.5537088125002
DE_03351021,Wathlingen,10.147324241906398,52.53698517881253
DE_03351022,"Wienhausen, Klostergemeinde",10.188717013999522,52.57941617598369
DE_03351023,Wietze,9.83928265880859,52.65191584931095
DE_03351024,Winsen (Aller),9.911772885625844,52.68226256153547
DE_03351025,Eschede,10.23293819282846,52.72989886833765
DE_03351026,Südheide,10.15776288650915,52.837643283473135
DE_03351501,"Lohheide, gemfr. Bezirk",9.929507238905266,52.81542894083219
DE_03352002,Armstorf,9.06689988387262,53.59892246975651
DE_03352004,Belum,8.992804495926505,53.809946883095456
DE_03352008,Bülkau,8.980039842443531,53.738412124198625
DE_03352011,"Cuxhaven, Stadt",8.689296542568073,53.86093206477472
DE_03352020,Hechthausen,9.228780450994062,53.6440796455424
DE_03352022,"Hemmoor, Stadt",9.154144516078109,53.68893257238843
DE_03352024,Hollnseth,9.10543436694714,53.58068771866848
DE_03352025,Ihlienworth,8.914200425973421,53.739280894871285
DE_03352029,Lamstedt,9.100097901077207,53.632925067317984
DE_03352032,Loxstedt,8.63870166061141,53.46538372755689
DE_03352036,Mittelstenahe,9.033743140995226,53.657313924115265
DE_03352038,Neuenkirchen,8.90632672037874,53.762617537033165
DE_03352039,"Neuhaus (Oste), Flecken",9.029943569516865,53.799497792863534
DE_03352041,Nordleda,8.822905054761515,53.76125783870465
DE_03352042,Oberndorf,9.124017083241508,53.726947914090744
DE_03352043,Odisheim,8.94134030470456,53.695648591890716
DE_03352044,Osten,9.198230315419071,53.70337439679374
DE_03352045,Osterbruch,8.94495023877596,53.7783680849439
DE_03352046,"Otterndorf, Stadt",8.900741897026249,53.811718146839446
DE_03352050,Schiffdorf,8.647912232850512,53.56149058111638
DE_03352051,Steinau,8.886495470218408,53.68059870314629
DE_03352052,Stinstedt,8.969798690734889,53.65436229921404
DE_03352055,Wanna,8.804575384330317,53.743234644888176
DE_03352056,Wingst,9.059407506588064,53.75796756562134
DE_03352059,Beverstedt,8.803399245751052,53.43043715419094
DE_03352060,Hagen im Bremischen,8.63073836345119,53.35293405074067
DE_03352061,Wurster Nordseeküste,8.586780774317075,53.73300357923186
DE_03352062,"Geestland, Stadt",8.635020029801892,53.60601672712658
DE_03352063,Cadenberge,9.0551472809739,53.76729949487276
DE_03353001,Appel,9.731927052716731,53.376209650015724
DE_03353002,Asendorf,9.96942510621186,53.30077193254247
DE_03353003,Bendestorf,9.969333548119755,53.338608813004534
DE_03353004,Brackel,10.051092429040162,53.29927906959637
DE_03353005,"Buchholz in der Nordheide, Stadt",9.870915545785735,53.32796501538538
DE_03353006,Dohren,9.703404052379595,53.306761732089676
DE_03353007,Drage,10.29906115243033,53.41604077579768
DE_03353008,Drestedt,9.761719048213715,53.328752794003634
DE_03353009,Egestorf,10.05676923554277,53.1884498490605
DE_03353010,Eyendorf,10.16579128738276,53.210975879643016
DE_03353011,Garlstorf,10.09914427536081,53.235481715213076
DE_03353012,Garstedt,10.146318482798623,53.294422857705754
DE_03353013,Gödenstorf,10.131742198433761,53.22642863780369
DE_03353014,Halvesbostel,9.63715593218545,53.37362493639502
DE_03353015,Handeloh,9.839917578381497,53.25074168260653
DE_03353016,Hanstedt,10.00633027725803,53.25615665677749
DE_03353017,Harmstorf,9.97810767589272,53.345918643361564
DE_03353018,Heidenau,9.652147260077129,53.31568576465089
DE_03353019,Hollenstedt,9.717001787964051,53.36869082571913
DE_03353020,Jesteburg,9.952606055178611,53.31118794960844
DE_03353021,Kakenstorf,9.767974835503344,53.31071147032144
DE_03353022,Königsmoor,9.647160603363284,53.2331978288012
DE_03353023,Marschacht,10.368016975516099,53.41188961208027
DE_03353024,Marxen,9.999537703899524,53.31098054492364
DE_03353025,Moisburg,9.69779465981276,53.4050330778441
DE_03353026,Neu Wulmstorf,9.793164119629587,53.46100683861768
DE_03353027,Otter,9.740348649659483,53.24714915573787
DE_03353028,Regesbostel,9.648824987946403,53.380122690491454
DE_03353029,Rosengarten,9.908658504761393,53.38645312396079
DE_03353030,Salzhausen,10.168026551207499,53.2234856731663
DE_03353031,Seevetal,10.013992002850241,53.406956043828004
DE_03353032,Stelle,10.114872234205448,53.380883127062766
DE_03353033,Tespe,10.415035537049926,53.39050371972786
DE_03353034,Toppenstedt,10.10740127500678,53.277809432628146
DE_03353035,Tostedt,9.726294501145196,53.27870185139703
DE_03353036,Undeloh,9.946597858050534,53.21429213199133
DE_03353037,Vierhöfen,10.217285510012992,53.26940668104819
DE_03353038,Welle,9.797736798030224,53.233981024445605
DE_03353039,Wenzendorf,9.750845885488408,53.352672123201955
DE_03353040,"Winsen (Luhe), Stadt",10.2057122528473,53.35837837207028
DE_03353041,Wistedt,9.685802895388301,53.27455022394288
DE_03353042,Wulfsen,10.143217865120647,53.3023504814355
DE_03354001,"Bergen an der Dumme, Flecken",10.95741243610936,52.8904939747025
DE_03354002,"Clenze, Flecken",10.958813076706468,52.93660588131552
DE_03354003,Damnatz,11.174506992977781,53.13852783305371
DE_03354004,"Dannenberg (Elbe), Stadt",11.09067375813076,53.09203392129557
DE_03354005,"Gartow, Flecken",11.453972760498512,53.02316625419687
DE_03354006,Göhrde,10.962804886770972,53.132153889481934
DE_03354007,Gorleben,11.360700850763106,53.03128118826138
DE_03354008,Gusborn,11.202076274472793,53.09356784461422
DE_03354009,"Hitzacker (Elbe), Stadt",11.03471638033122,53.14914677232172
DE_03354010,Höhbeck,11.440872041392305,53.04333852716397
DE_03354011,Jameln,11.057000140000513,53.041415993754406
DE_03354012,Karwitz,10.997430763521782,53.085250431940615
DE_03354013,Küsten,11.059295918066699,52.98718163383234
DE_03354014,Langendorf,11.25048244507956,53.13240410554601
DE_03354015,Lemgow,11.31009815585022,52.916246402212366
DE_03354016,Luckau (Wendland),11.033179727459498,52.93491492401319
DE_03354017,Lübbow,11.18997751805709,52.913568592138375
DE_03354018,"Lüchow (Wendland), Stadt",11.155181148331943,52.969216025366116
DE_03354019,Neu Darchau,10.889706667731971,53.22427974451896
DE_03354020,Prezelle,11.390727969362153,52.96121899763421
DE_03354021,"Schnackenburg, Stadt",11.553175343773415,53.03387458821464
DE_03354022,Schnega,10.883243270303737,52.88185577171382
DE_03354023,Trebel,11.303762152521028,52.99979094480448
DE_03354024,Waddeweitz,10.967999854383116,52.99188118211115
DE_03354025,Woltersdorf,11.220458246976666,52.95332333469715
DE_03354026,"Wustrow (Wendland), Stadt",11.12345533571179,52.92494312648891
DE_03354027,Zernien,10.894801722193481,53.068165675096544
DE_03354501,"Gartow, gemfr. Gebiet",11.358969794450456,53.01838895598771
DE_03354502,"Göhrde, gemfr. Gebiet",10.893343381788592,53.1234520388305
DE_03355001,Adendorf,10.444712791092607,53.284253311005955
DE_03355002,Amelinghausen,10.214653321463247,53.129157071977815
DE_03355003,"Artlenburg, Flecken",10.488511657885896,53.37030575674892
DE_03355004,"Bardowick, Flecken",10.39243340688878,53.29121133953425
DE_03355005,Barendorf,10.523424069939303,53.230469445885674
DE_03355006,Barnstedt,10.371886626362791,53.147689183061146
DE_03355007,Barum,10.405105133759895,53.35051010873546
DE_03355008,Betzendorf,10.303607197318781,53.1358155582458
DE_03355009,"Bleckede, Stadt",10.739132826961187,53.28262712037385
DE_03355010,Boitze,10.726628747741218,53.172854800022805
DE_03355011,Brietlingen,10.439392867471268,53.32105525499902
DE_03355012,Dahlem,10.739517496165998,53.19281482673715
DE_03355013,"Dahlenburg, Flecken",10.735558116443508,53.188518184734654
DE_03355014,Deutsch Evern,10.432788218431291,53.198223907768266
DE_03355015,Echem,10.54398222433217,53.33636608258394
DE_03355016,Embsen,10.35268316906029,53.17891010032051
DE_03355017,Handorf,10.338094756987166,53.337582322687254
DE_03355018,Hittbergen,10.58963028386328,53.34741675002252
DE_03355019,Hohnstorf (Elbe),10.555837432823996,53.36422028804923
DE_03355020,Kirchgellersen,10.319651038705041,53.238450345371064
DE_03355021,Lüdersburg,10.567939661418174,53.32477812848838
DE_03355022,"Lüneburg, Hansestadt",10.40980421459258,53.24582740381645
DE_03355023,Mechtersen,10.316485757239594,53.28068434572417
DE_03355024,Melbeck,10.40416043580281,53.176756732299474
DE_03355025,Nahrendorf,10.836646640942762,53.175457479488536
DE_03355026,Neetze,10.624319613647478,53.26650547635012
DE_03355027,Oldendorf (Luhe),10.209665164315272,53.140832559793104
DE_03355028,Radbruch,10.295955433995571,53.3194219699754
DE_03355029,Rehlingen,10.204471528938214,53.10232664348961
DE_03355030,Reinstorf,10.59398520814086,53.24771417969948
DE_03355031,Reppenstedt,10.36012016239018,53.249470462721206
DE_03355032,Rullstorf,10.537008863626689,53.286042205123806
DE_03355033,Scharnebeck,10.500325153237208,53.292780537015695
DE_03355034,Soderstorf,10.150554167919394,53.1556769293412
DE_03355035,Südergellersen,10.299738851519884,53.210524197240375
DE_03355036,Thomasburg,10.639980131324565,53.21436828013909
DE_03355037,Tosterglope,10.838465405298649,53.201199367094645
DE_03355038,Vastorf,10.54803052580712,53.19817167740354
DE_03355039,Vögelsen,10.358398961165957,53.2797319151603
DE_03355040,Wendisch Evern,10.469414294523787,53.21752251133781
DE_03355041,Westergellersen,10.246640114020146,53.235124957169504
DE_03355042,Wittorf,10.361954287539165,53.3274386055535
DE_03355049,Amt Neuhaus,10.955289227623082,53.261084396861754
DE_03356001,Axstedt,8.776205285858953,53.353216178900674
DE_03356002,Grasberg,8.993640356130763,53.175935834662276
DE_03356003,Hambergen,8.823663733137298,53.29572801631442
DE_03356004,Holste,8.850450648129783,53.368456901570816
DE_03356005,Lilienthal,8.918195741844597,53.15219252211988
