gisco_id,lau_name,longitude,latitude
FI_005,Alajärvi,23.815194459118953,62.99124623085727
FI_009,Alavieska,24.306754378267918,64.16934994619317
FI_010,Alavus,23.638712347026647,62.59491796487668
FI_016,Asikkala,25.55488885614711,61.16928466352427
FI_018,Askola,25.564424606701166,60.50799891025133
FI_019,Aura,22.580877849187466,60.64585330169968
FI_020,Akaa,23.83219183037155,61.18056658075222
FI_035,Brändö,21.046391266590717,60.41451386328554
FI_043,Eckerö,19.568885001023546,60.21980347748276
FI_046,Enonkoski,28.921615706783403,62.08830583082678
FI_047,Enontekiö / Enontekis,23.070946731080838,68.44502167697581
FI_049,Espoo / Esbo,24.735418835498727,60.189582762311
FI_050,Eura,22.13968504277421,61.12912987220667
FI_051,Eurajoki / Euraåminne,21.702106029018154,61.249695217354464
FI_052,Evijärvi,23.467937771240383,63.369137567940676
FI_060,Finström,19.976039490980053,60.23438139179896
FI_061,Forssa,23.623069538900577,60.81395437188263
FI_062,Föglö,20.391440151928176,60.02632803290872
FI_065,Geta,19.847651950195118,60.36907088477484
FI_069,Haapajärvi,25.323071729139656,63.75394201466486
FI_071,Haapavesi,25.365639757778805,64.13920751294616
FI_072,Hailuoto / Karlö,24.734493914774568,65.01648288868226
FI_074,Halsua,24.17828705041395,63.45343920935916
FI_075,Hamina / Fredrikshamn,27.17308171647681,60.572952888974264
FI_076,Hammarland,19.73699109537667,60.21672713831747
FI_077,Hankasalmi,26.443782033948686,62.35313371949328
FI_078,Hanko / Hangö,22.969320607062816,59.833551294290665
FI_079,Harjavalta,22.147390028567678,61.316746129472264
FI_081,Hartola,26.02055367499566,61.57911360722132
FI_082,Hattula,24.375636623263144,61.05590389960632
FI_086,Hausjärvi,24.866642827104855,60.77695873242405
FI_090,Heinävesi,28.636920323265382,62.424679493334274
FI_091,Helsinki / Helsingfors,24.974143355413407,60.2067695450143
FI_092,Vantaa / Vanda,24.991401340742076,60.286489241525416
FI_097,Hirvensalmi,26.7781124842122,61.64629032679017
FI_098,Hollola,25.538548480320344,61.001009689994916
FI_099,Honkajoki,22.26986204468071,61.99432627575618
FI_102,Huittinen,22.70318119876034,61.17845701558326
FI_103,Humppila,23.37041480215274,60.92635884389002
FI_105,Hyrynsalmi,28.48427815277335,64.67657979004706
FI_106,Hyvinkää / Hyvinge,24.85865685458945,60.62668119560584
FI_108,Hämeenkyrö / Tavastkyro,23.191641532916744,61.656562522159234
FI_109,Hämeenlinna / Tavastehus,24.460922052612133,60.99714274514738
FI_111,Heinola,26.034509241356623,61.204372155284574
FI_139,Ii,25.365833912830734,65.33881453397788
FI_140,Iisalmi / Idensalmi,27.2015437333724,63.56139210182635
FI_142,Iitti,26.341399860002213,60.891206534492575
FI_143,Ikaalinen / Ikalis,23.070137001934498,61.768797825392255
FI_145,Ilmajoki,22.59915707473642,62.73975671322198
FI_146,Ilomantsi / Ilomants,30.928379235767128,62.67117440733986
FI_148,Inari / Enare,27.501278655463597,68.66964058612267
FI_149,Inkoo / Ingå,23.999678219846952,60.061475278670144
FI_151,Isojoki / Storå,21.946001405553954,62.119265952731496
FI_152,Isokyrö / Storkyro,22.288932631901197,62.99681546970726
FI_153,Imatra,28.7848810480019,61.186678556137394
FI_165,Janakkala,24.641861863222786,60.898783722380145
FI_167,Joensuu,29.779018390760953,62.60466895339
FI_169,Jokioinen / Jockis,23.490015292696302,60.80072497703152
FI_170,Jomala,19.920514480511137,60.113742458894976
FI_171,Joroinen / Jorois,27.833019527658877,62.19667855673977
FI_172,Joutsa,26.115619619455455,61.75534463835191
FI_176,Juuka,29.251187658272727,63.23900419689052
FI_177,Juupajoki,24.38764478004227,61.79931187206154
FI_178,Juva,27.85699020106399,61.8976812619677
FI_179,Jyväskylä,25.74904384904288,62.24535943563032
FI_181,Jämijärvi,22.685634333996973,61.82350060120511
FI_182,Jämsä,25.177715400704297,61.8809162949556
FI_186,Järvenpää / Träskända,25.092632398885655,60.47794555055925
FI_202,Kaarina / S:t Karins,22.360002247149932,60.42935829369958
FI_204,Kaavi,28.482381718742367,62.97505574636048
FI_205,Kajaani / Kajana,27.732006293230125,64.22165808942195
FI_208,Kalajoki,23.925049100097848,64.23184255070308
FI_211,Kangasala,24.006406104981362,61.47520593500326
FI_213,Kangasniemi,26.643266054935133,61.98611647845278
FI_214,Kankaanpää,22.389327434567857,61.803435590433125
FI_216,Kannonkoski,25.265395935388337,62.97579686105462
FI_217,Kannus,23.92685878673175,63.896279186757816
FI_218,Karijoki / Bötom,21.68874475103563,62.31383048654245
FI_224,Karkkila / Högfors,24.217776952016063,60.533443515093495
FI_226,Karstula,24.809489394796195,62.878931418449305
FI_230,Karvia,22.574151439353404,62.141547723241416
FI_231,Kaskinen / Kaskö,21.227737585317282,62.38311609477934
FI_232,Kauhajoki,22.173729241225523,62.42679688305394
FI_233,Kauhava,22.987712504359592,63.136714498265484
FI_235,Kauniainen / Grankulla,24.710546470989602,60.213045351223364
FI_236,Kaustinen / Kaustby,23.701730067542073,63.55434570482264
FI_239,Keitele,26.34730499690595,63.177748314101365
FI_240,Kemi,24.581601691458186,65.73804050914669
FI_241,Keminmaa,24.531768088159396,65.80072199576855
FI_244,Kempele,25.5223351932133,64.91599486423047
FI_245,Kerava / Kervo,25.100874281892125,60.403079976777576
FI_249,Keuruu,24.69803448919945,62.261180276164836
FI_250,Kihniö,23.17684879160042,62.20105714273839
FI_256,Kinnula,24.97488866197752,63.36343916197652
FI_257,Kirkkonummi / Kyrkslätt,24.46054144772583,60.14672361724258
FI_260,Kitee,30.113478126210516,62.080720334539784
FI_261,Kittilä,24.894598724663147,67.67246810914818
FI_263,Kiuruvesi,26.616594745206864,63.64914593298282
FI_265,Kivijärvi,25.08030073837088,63.12340081419454
FI_271,Kokemäki / Kumo,22.341429114549285,61.26116991407629
FI_272,Kokkola / Karleby,23.13817026434162,63.84010443069016
FI_273,Kolari,23.903106569225848,67.38564990884745
FI_275,Konnevesi,26.286455968175613,62.627209897363144
FI_276,Kontiolahti,29.82846031867174,62.680336329744044
FI_280,Korsnäs,21.215877473188293,62.79859715572347
FI_284,Koski Tl,23.137269992291618,60.65590735594531
FI_285,Kotka,26.927233062287467,60.4816412693823
FI_286,Kouvola,26.697603828830633,60.869564762670855
FI_287,Kristiinankaupunki / Kristinestad,21.403586467082395,62.26819468830537
FI_288,Kruunupyy / Kronoby,23.228008411413878,63.66622608731981
FI_290,Kuhmo,29.520797256257815,64.12436633007826
FI_291,Kuhmoinen,25.175731466326493,61.56161713208561
FI_295,Kumlinge,20.78000329133288,60.26181280134175
FI_297,Kuopio,27.675605655270736,62.88840566723206
FI_300,Kuortane,23.513665821558458,62.80327377045292
FI_301,Kurikka,22.475228696350136,62.58190130952628
FI_304,Kustavi / Gustavs,21.35991013441199,60.54421786655563
FI_305,Kuusamo,29.178643024437513,65.9715844737505
FI_309,Outokumpu,29.025568402995276,62.72616045819865
FI_312,Kyyjärvi,24.57373000330211,63.04600965136026
FI_316,Kärkölä,25.26697645353735,60.87248949453587
FI_317,Kärsämäki,25.76938560914373,63.97606007993531
FI_318,Kökar,20.920867410542588,59.93125070069975
FI_320,Kemijärvi,27.42750607837964,66.71395569178661
FI_322,Kemiönsaari / Kimitoön,22.630201329256217,60.10957350954899
FI_398,Lahti / Lahtis,25.666931156866617,60.98238752016088
FI_399,Laihia / Laihela,22.024480975107327,62.97667461626644
FI_400,Laitila,21.698848093566365,60.88228535321864
FI_402,Lapinlahti,27.44373648376136,63.357245307994546
FI_403,Lappajärvi,23.626323000560273,63.213216330851324
FI_405,Lappeenranta / Villmanstrand,28.19042435813346,61.06038627309772
FI_407,Lapinjärvi / Lappträsk,26.18966784885138,60.629409363033844
FI_408,Lapua / Lappo,23.018608933742605,62.969714284082194
FI_410,Laukaa,25.939128621623464,62.372793639709535
FI_416,Lemi,27.89865745359468,61.070742825071875
FI_417,Lemland,20.09111234849682,60.06780982747479
FI_418,Lempäälä,23.771738947029117,61.36796922217426
FI_420,Leppävirta,27.78260999436459,62.49000967535142
FI_421,Lestijärvi,24.670396067676283,63.520231505071465
FI_422,Lieksa,30.02779546275534,63.322787366366555
FI_423,Lieto / Lundo,22.426236252384793,60.501948731873235
FI_425,Liminka / Limingo,25.43968690569348,64.82717993756322
FI_426,Liperi,29.49071806346384,62.605051491964275
FI_430,Loimaa,23.02752016804724,60.8598052091639
FI_433,Loppi,24.504455336983497,60.71649640213566
FI_434,Loviisa / Lovisa,26.217246099655164,60.45418419089449
FI_435,Luhanka,25.743831651351872,61.807710804018015
FI_436,Lumijoki,25.19095888568,64.83332763989178
FI_438,Lumparland,20.255876343278526,60.11712662822813
FI_440,Luoto / Larsmo,22.777787389410324,63.76102980950086
FI_441,Luumäki,27.605825941205076,60.9282066652418
FI_444,Lohja / Lojo,24.05502248355561,60.246728282986275
FI_445,Parainen / Pargas,22.308136724173828,60.304207724499925
FI_475,Maalahti / Malax,21.564353083039432,62.923386707064985
FI_478,Maarianhamina - Mariehamn / Mariehamn,19.94263984202265,60.100487429479436
FI_480,Marttila,22.893229743738505,60.58788647798867
FI_481,Masku,22.08667819759331,60.560832228859866
FI_483,Merijärvi,24.43896687327091,64.2990435570142
FI_484,Merikarvia / Sastmola,21.50852357457592,61.86005940332799
FI_489,Miehikkälä,27.698822125530338,60.67346820255591
FI_491,Mikkeli / S:t Michel,27.26902567868352,61.68553584181479
FI_494,Muhos,25.98229246444102,64.81590224064509
FI_495,Multia,24.798504996136852,62.41172174258801
FI_498,Muonio,23.679184276625268,67.95383717966418
FI_499,Mustasaari / Korsholm,21.689540237718123,63.1091871881171
FI_500,Muurame,25.69088260084944,62.138499889629934
FI_503,Mynämäki,21.979658699255914,60.67532628880291
FI_504,Myrskylä / Mörskom,25.851524271599228,60.668027642195355
FI_505,Mäntsälä,25.267016454043592,60.61298753387216
FI_507,Mäntyharju,26.87251854703683,61.41966377316361
FI_508,Mänttä-Vilppula,24.584018991170886,62.03317558243586
FI_529,Naantali / Nådendal,22.038601066072204,60.47796636453501
FI_531,Nakkila,22.014614624075016,61.36638514323374
FI_535,Nivala,24.96790829027383,63.92191594474659
FI_536,Nokia,23.504395660638583,61.47871129552744
FI_538,Nousiainen / Nousis,22.09534028943444,60.60831629644482
FI_541,Nurmes,29.100527165243978,63.56555408448028
FI_543,Nurmijärvi,24.761604708818503,60.42963363156864
FI_545,Närpiö / Närpes,21.34908587057127,62.488860766934685
FI_560,Orimattila,25.73381895776716,60.80747501535622
FI_561,Oripää,22.69664354747335,60.858610819398535
FI_562,Orivesi,24.35970799659479,61.67100874960789
FI_563,Oulainen,24.817924095582125,64.26762047514555
FI_564,Oulu / Uleåborg,25.488565336910305,65.02501081886366
FI_576,Padasjoki,25.268797297270652,61.3496968319945
FI_577,Paimio / Pemar,22.698136981581033,60.44913139064894
FI_578,Paltamo,27.867427468489762,64.39573710969515
FI_580,Parikkala,29.523192993889985,61.57188661148436
FI_581,Parkano,23.021706614454626,62.00896998959456
FI_583,Pelkosenniemi,27.48195502492453,67.10500023893734
FI_584,Perho,24.422459330421106,63.21112732611555
FI_588,Pertunmaa,26.469931363306415,61.49178144405897
FI_592,Petäjävesi,25.19465733327551,62.263884559727124
FI_593,Pieksämäki,27.14704901910137,62.29972552925551
FI_595,Pielavesi,26.757516482259813,63.23626381265367
FI_598,Pietarsaari / Jakobstad,22.70140379479233,63.67402104357575
FI_599,Pedersören kunta,22.80419174473958,63.63611322757151
FI_601,Pihtipudas,25.569089247130417,63.372729540702785
FI_604,Pirkkala / Birkala,23.696245850851845,61.465146920554844
FI_607,Polvijärvi,29.38148766015875,62.85491553972129
FI_608,Pomarkku / Påmark,22.014585762121545,61.69542427092027
FI_609,Pori / Björneborg,21.79259125880801,61.487888816110605
FI_611,Pornainen / Borgnäs,25.37400146890544,60.47612278804879
FI_614,Posio,28.165431377017217,66.11516512474991
FI_615,Pudasjärvi,27.008413944280548,65.36226435118141
FI_616,Pukkila,25.573916577886774,60.64637173401627
FI_619,Punkalaidun,23.11060112907501,61.11547695864385
FI_620,Puolanka,27.67278145726976,64.86921202735077
FI_623,Puumala,28.178841873985295,61.524349185644454
FI_624,Pyhtää / Pyttis,26.74319405863649,60.48721637068936
FI_625,Pyhäjoki,24.25323484399294,64.46304170743178
FI_626,Pyhäjärvi,25.972874782975136,63.67828716424911
FI_630,Pyhäntä,26.33795120545909,64.10293340105457
FI_631,Pyhäranta,21.50753591719652,60.96612412897553
FI_635,Pälkäne,24.328905655810818,61.335804635235355
FI_636,Pöytyä,22.63728435327961,60.742025334227364
FI_638,Porvoo / Borgå,25.658222703657117,60.38847099668723
FI_678,Raahe / Brahestad,24.517728396490465,64.68076057544212
FI_680,Raisio / Reso,22.175662744139068,60.48190629058652
FI_681,Rantasalmi,28.30093224799752,62.06528086097563
FI_683,Ranua,26.523589707113505,65.92801497886208
FI_684,Rauma / Raumo,21.51134457084639,61.129756402578394
FI_686,Rautalampi,26.827925666874886,62.625770751344284
FI_687,Rautavaara,28.296935617960177,63.49252896730986
FI_689,Rautjärvi,29.35026212686182,61.42722397192316
FI_691,Reisjärvi,24.937113616091093,63.607251921509814
FI_694,Riihimäki,24.77318271834209,60.73843622579946
FI_697,Ristijärvi,28.211438815885398,64.50486370581649
FI_698,Rovaniemi,25.72088111936636,66.50239557787337
FI_700,Ruokolahti,28.834930561523137,61.2851457370568
FI_702,Ruovesi,24.064270034872155,61.98628875085646
FI_704,Rusko,22.25640671608847,60.550768675526356
FI_707,Rääkkylä,29.63657813434288,62.3108272353368
FI_710,Raasepori / Raseborg,23.529178719343356,60.018146818008944
FI_729,Saarijärvi,25.238744705624786,62.70785925879645
FI_732,Salla,28.66623152808915,66.82521778069827
FI_734,Salo,23.138649078180237,60.38739492695629
FI_736,Saltvik,20.022123005927284,60.27929054080364
FI_738,Sauvo / Sagu,22.69218567168212,60.34660745492949
FI_739,Savitaipale,27.682182386464476,61.19488142566616
FI_740,Savonlinna / Nyslott,28.917401940709418,61.86989935930621
FI_742,Savukoski,28.167575545082883,67.305594503671
FI_743,Seinäjoki,22.85249502990169,62.781544221015814
FI_746,Sievi,24.51142710336023,63.90494234373274
FI_747,Siikainen,21.838563682724153,61.87153784197205
FI_748,Siikajoki,25.06844285118398,64.6713704833219
FI_749,Siilinjärvi,27.681507538670964,63.0438172984849
FI_751,Simo,24.95527815687699,65.66865887696291
FI_753,Sipoo / Sibbo,25.190421302742315,60.363580200855175
FI_755,Siuntio / Sjundeå,24.183815330056817,60.14936365022048
FI_758,Sodankylä,26.582609254750356,67.4231509425413
FI_759,Soini,24.207309454062486,62.87141431913255
FI_761,Somero,23.516454377219432,60.627833348717864
FI_762,Sonkajärvi,27.511511797457754,63.685697109562106
FI_765,Sotkamo,28.3664066654878,64.13883799195571
FI_766,Sottunga,20.662988175642003,60.13194732239478
FI_768,Sulkava,28.36703715339605,61.786602775549426
FI_771,Sund,20.128914525847527,60.23266507614094
FI_777,Suomussalmi,28.91767694390015,64.88370792713283
FI_778,Suonenjoki,27.116833633481672,62.62478503738503
FI_781,Sysmä,25.680491385951907,61.50355535165062
FI_783,Säkylä,22.339815906498817,61.060170071622196
FI_785,Vaala,26.832127244528053,64.55441314387997
FI_790,Sastamala,22.90963359215407,61.346753659759486
FI_791,Siikalatva,25.904060677487696,64.32980282867983
FI_831,Taipalsaari,28.09546215010731,61.13774010210995
FI_832,Taivalkoski,28.24017891592446,65.56970149077712
FI_833,Taivassalo / Tövsala,21.616547648470377,60.56103361551019
FI_834,Tammela,23.75977206859193,60.80482266289628
FI_837,Tampere / Tammerfors,23.787295932421216,61.48736549945612
FI_844,Tervo,26.768531880404495,62.95506470402789
FI_845,Tervola,24.828396785050945,66.0869845979986
FI_846,Teuva / Östermark,21.747634244550692,62.48476088306517
FI_848,Tohmajärvi,30.334623739307478,62.226859298247724
FI_849,Toholampi,24.256653828906966,63.76659249222665
FI_850,Toivakka,26.079622293024688,62.09974043446581
FI_851,Tornio / Torneå,24.15981302016206,65.84501858032354
FI_853,Turku / Åbo,22.274298663014015,60.45085614854895
FI_854,Pello,23.972800240215044,66.76992313567115
FI_857,Tuusniemi,28.490165178328976,62.80736845364682
FI_858,Tuusula / Tusby,25.05840239650805,60.41606048588175
FI_859,Tyrnävä,25.66112453719396,64.78468477332233
FI_886,Ulvila / Ulvsby,21.879057232499342,61.44334861394368
FI_887,Urjala,23.55823550723245,61.07972158058492
FI_889,Utajärvi,26.429940846249345,64.75814563372552
FI_890,Utsjoki,26.97544237459362,69.84590912171538
FI_892,Uurainen,25.503288930293053,62.49917641698834
FI_893,Uusikaarlepyy / Nykarleby,22.52932327013726,63.514536021211676
FI_895,Uusikaupunki / Nystad,21.421259614681297,60.8056725439478
FI_905,Vaasa / Vasa,21.632725744010596,63.0991469763114
FI_908,Valkeakoski,24.02762470169331,61.27241756091004
FI_915,Varkaus,27.867753309266515,62.31602126763671
FI_918,Vehmaa,21.709534126597564,60.6853111408006
FI_921,Vesanto,26.41217471373079,62.928226706982414
FI_922,Vesilahti,23.602905264641386,61.2998694787013
FI_924,Veteli / Vetil,23.79406194531948,63.46846521234593
FI_925,Vieremä,27.006475531781177,63.74421027865904
FI_927,Vihti / Vichtis,24.32514467005486,60.343919036964046
FI_931,Viitasaari,25.848849676510806,63.07793413810762
FI_934,Vimpeli,23.827371648580257,63.16008237885678
FI_935,Virolahti,27.68328941016,60.57450646306252
FI_936,Virrat / Virdois,23.771013780670437,62.24241578400757
FI_941,Vårdö,20.37043714683261,60.244902880429684
FI_946,Vöyri / Vörå,22.30099523170073,63.20204628850759
FI_976,Ylitornio / Övertorneå,23.69662334927011,66.32508587360095
FI_977,Ylivieska,24.535563822939395,64.07658510627435
FI_980,Ylöjärvi,23.600484197688345,61.55274715373891
FI_981,Ypäjä,23.277144975840173,60.80622253084883
FI_989,Ähtäri / Etseri,24.07467241416206,62.554835409109856
FI_992,Äänekoski,25.75338958344131,62.60078768674703
