gisco_id,lau_name,longitude,latitude
HU_01508,Ipolyszög,19.229223756953825,48.05213243766184
HU_01526,Somoskőújfalu,19.81299025163972,48.13540566996847
HU_02015,Ráckeresztúr,18.833749267696234,47.274394648070114
HU_02024,Martonyi,20.769416005417533,48.46977320618961
HU_02033,Kakasd,18.592084493260383,46.34782923855364
HU_02042,Narda,16.45857630823579,47.23722143438226
HU_02051,Sávoly,17.2674322761729,46.595542380535434
HU_02060,Gönyű,17.830311193852708,47.732545673781615
HU_02079,Dunaremete,17.436485518839635,47.87728826452337
HU_02088,Mánd,22.608195310215237,48.00042451259819
HU_02097,Gutorfölde,16.73488438030691,46.64120766359101
HU_02103,Maróc,16.67747940147648,46.53173322627501
HU_02121,Csanádalberti,20.70835667970229,46.325129744894596
HU_02130,Mihályfa,17.17531073629203,46.983921328379694
HU_02149,Foktő,18.954134362075283,46.522912209874235
HU_02158,Muhi,20.919506657072116,47.9756756885577
HU_02167,Komádi,21.489771502168193,47.0045566453017
HU_02185,Csopak,17.908316135535586,46.97107027414242
HU_02194,Nemesvámos,17.874707569510292,47.053287641026
HU_02200,Isztimér,18.192765382817395,47.28029328611215
HU_02219,Balatonfűzfő,18.039180451433783,47.0708787632495
HU_02228,Martonfa,18.363986101459265,46.11814278874608
HU_02237,Vág,17.218132271092948,47.44359347920241
HU_02246,Vát,16.77970966531971,47.2790172492299
HU_02264,Vásárosdombó,18.132673252379213,46.31810628422804
HU_02273,Abaújvár,21.31704425802255,48.52447661739412
HU_02282,Hejőkürt,20.99174889483948,47.858261217288764
HU_02291,Tiszabábolna,20.819591248667198,47.69286067423451
HU_02307,Kaba,21.273399298233464,47.356634332324724
HU_02316,Etyek,18.749985032272743,47.44776023155848
HU_02325,Baktalórántháza,22.082079987335785,47.99943195735925
HU_02343,Kincsesbánya,18.278289818697246,47.265571557922165
HU_02352,Újkígyós,21.035104599331344,46.59177575491178
HU_02361,Nagybajcs,17.67677267471388,47.7632258823029
HU_02370,Rád,19.22107957356656,47.79268043920884
HU_02389,Bercel,19.39623422302228,47.8766887417828
HU_02404,Surd,16.969732886370736,46.322966615320084
HU_02413,Kisbabot,17.417130080024403,47.55483636519028
HU_02422,Hegyesd,17.523792683029434,46.91380053627104
HU_02431,Bük,16.7531799753931,47.38495086677614
HU_02440,Szatta,16.481008653063512,46.79967006204458
HU_02459,Vajta,18.65961710598116,46.71492221032865
HU_02468,Hegymeg,20.863719652978183,48.33686055508465
HU_02477,Csombárd,17.675693139591747,46.45220761123126
HU_02486,Zalacséb,16.65925474357766,46.85764960695502
HU_02495,Nagycenk,16.692150322628276,47.60883253041706
HU_02501,Kisunyom,16.64359266330487,47.14615918271943
HU_02510,Kocs,18.216020841267692,47.60779165954385
HU_02529,Várfölde,16.765515467623135,46.55705471048587
HU_02547,Sumony,17.919423128547233,45.96636104974857
HU_02556,Mórichida,17.419572281597475,47.51458118250091
HU_02565,Döbrököz,18.245914916744393,46.423505268940254
HU_02574,Kenéz,16.783316751803248,47.20595828126085
HU_02583,Csesztreg,16.51658071571986,46.71698833465142
HU_02608,Zalaszentiván,16.905007289843844,46.89059386393348
HU_02617,Sopronnémeti,17.21174927800346,47.538480134189555
HU_02626,Martfű,20.283088620026085,47.0204529317042
HU_02635,Öttevény,17.49155317165656,47.72469958528306
HU_02644,Alibánfa,16.915570861929883,46.88736984104021
HU_02653,Nagyharsány,18.394255625220477,45.844771933470554
HU_02662,Milejszeg,16.743841173802643,46.79975161354223
HU_02671,Kántorjánosi,22.14997205267,47.9364845564679
HU_02680,Békésszentandrás,20.481812603381236,46.87202009229084
HU_02699,Sárkeszi,18.286094802300525,47.15625586614451
HU_02705,Pálmonostora,19.942836984683833,46.61447284448653
HU_02714,Tótvázsony,17.788780555491705,47.00986856424521
HU_02723,Sáregres,18.59604291164635,46.779946865342524
HU_02741,Fáj,21.08021372269506,48.423124177928585
HU_02750,Vértesacsa,18.577493946471318,47.36977998088517
HU_02769,Tápiószőlős,19.844134072657777,47.295250606139426
HU_02778,Ludányhalászi,19.518794522277506,48.13193921347746
HU_02787,Nemesgulács,17.48356646757095,46.83530270752214
HU_02796,Nak,18.054214121620547,46.474235582523505
HU_02802,Enying,18.245184200532634,46.92818483132098
HU_02811,Miszla,18.483042000948284,46.632941471283395
HU_02820,Abaújlak,20.938264475258638,48.40149671050617
HU_02839,Nemeskocs,17.18682945395075,47.19354999882786
HU_02848,Felsőzsolca,20.870916986373814,48.10573866854908
HU_02857,Geresdlak,18.525807785526016,46.11215243843738
HU_02866,Oszlár,21.042649287506805,47.87572474812304
HU_02875,Sáta,20.393692537890168,48.19064488005251
HU_02884,Vasalja,16.52495314780364,47.01371443425017
HU_02893,Söréd,18.285466977265678,47.3200781323279
HU_02909,Magyarszentmiklós,16.93679416180675,46.53504644620032
HU_02918,Balmazújváros,21.342450053281357,47.61378752662457
HU_02927,Duka,17.116438935536415,47.122351103534726
HU_02936,Dudar,17.94589075994182,47.303378644302185
HU_02945,Biri,21.852813912213445,47.81220425932841
HU_02954,Felsőszentiván,19.186020224845084,46.19653365524683
HU_02963,Bükkszék,20.180253601183303,47.99055662552434
HU_02972,Zalasárszeg,17.081097376389213,46.49367468826805
HU_02981,Egerfarmos,20.53750391140157,47.72123578730686
HU_02990,Bátorliget,22.26861014483712,47.75806281817769
HU_03009,Szombathely,16.617325808134122,47.23504859601795
HU_03018,Szebény,18.586865667582828,46.130595328746324
HU_03036,Döröske,16.697362830040667,46.99898366772475
HU_03045,Hajdúböszörmény,21.513680037478952,47.67186444668697
HU_03054,Lickóvadamos,16.776649701411785,46.75185165897998
HU_03063,Zádorfalva,20.485383754339434,48.39112063811588
HU_03072,Balatoncsicsó,17.67049120854277,46.92612418999391
HU_03081,Sajóhídvég,20.952692522954184,47.996867957124955
HU_03090,Borgáta,17.08237385654277,47.15995627422903
HU_03106,Kétsoprony,20.8857233098025,46.72359217648038
HU_03115,Dunaújváros,18.931512064532292,46.96709238308613
HU_03124,Szentkozmadombja,16.76083703824806,46.678288807785215
HU_03133,Taktaszada,21.165147344225428,48.10848533570333
HU_03142,Vönöck,17.15726984452181,47.3150886056738
HU_03151,Kistapolca,18.381847054525156,45.82070743728053
HU_03160,Szuhafő,20.456688021486237,48.40972675945441
HU_03188,Iborfia,16.756929450247988,46.73585148343582
HU_03197,Rábahídvég,16.741335839871695,47.073614657289696
HU_03203,Nyim,18.10850015860351,46.80615745488052
HU_03212,Sajóivánka,20.586149885449785,48.26500346945502
HU_03221,Magyarlak,16.34911226777494,46.952748584189465
HU_03230,Fajsz,18.919187709709515,46.417336281099246
HU_03249,Őrhalom,19.404131401539317,48.078024683242234
HU_03258,Földes,21.367706348791415,47.28983765928565
HU_03267,Badacsonytördemic,17.475343343283082,46.80658636021979
HU_03276,Füzesabony,20.415149323194928,47.75175511267345
HU_03285,Hirics,17.990646948941063,45.82442542105693
HU_03294,Molnaszecsőd,16.67460138379823,47.04607635266194
HU_03300,Iklad,19.438168156360163,47.66102963242729
HU_03319,Ártánd,21.75016231608342,47.12459001053351
HU_03328,Ipolytarnóc,19.612755170826574,48.226405456048504
HU_03337,Ivánbattyán,18.42065955791429,45.903956492240006
HU_03346,Ivándárda,18.589067218314437,45.83378444726465
HU_03355,Nova,16.68167067635345,46.68750619322924
HU_03364,Szilsárkány,17.259809386058784,47.5432597434834
HU_03373,Tiszapüspöki,20.31781351669746,47.214397592281486
HU_03382,Szarvaskő,20.33214369369969,47.98614265814952
HU_03391,Piricse,22.14918681615856,47.766721789431934
HU_03407,Budajenő,18.813301307440515,47.55709711432177
HU_03416,Somogyszil,18.00021906411638,46.51906890673957
HU_03425,Bogyiszló,18.82425976003578,46.38393976349691
HU_03434,Lasztonya,16.724198516783332,46.53642367790972
HU_03443,Mezőzombor,21.25145499995735,48.153988161056894
HU_03452,Boldog,19.68134281931789,47.62422947446
HU_03461,Kétegyháza,21.183341742433694,46.54300552072893
HU_03470,Meződ,18.11103570720687,46.26966617190774
HU_03489,Edde,17.719445896938563,46.52259027200231
HU_03498,Vereb,18.6184512147683,47.31944393635762
HU_03504,Sajóbábony,20.739393419524024,48.178736812054865
HU_03513,Visznek,20.02717572757801,47.642096345456366
HU_03522,Baja,18.95289290290111,46.18134805765895
HU_03531,Léh,20.988721568431476,48.29693785805098
HU_03540,Kökény,18.207716171038488,45.99984172449771
HU_03559,Balatonvilágos,18.173020298585058,46.97698429761777
HU_03568,Szentantalfa,17.677583325953822,46.91593311987471
HU_03577,Géderlak,18.89626425160197,46.6167467219154
HU_03586,Szabolcsveresmart,22.018299308795267,48.28535476627848
HU_03595,Abaújszántó,21.189614694801573,48.28139694037031
HU_03601,Sóly,18.039923322422364,47.14321593710635
HU_03610,Malomsok,17.381734174078765,47.45215639081027
HU_03629,Géberjén,22.44803548097999,47.932833582735995
HU_03638,Balatonhenye,17.615946784725434,46.91521890915
HU_03647,Döge,22.073007866642037,48.2583002846115
HU_03656,Bátmonostor,18.92940681803591,46.10456373276561
HU_03665,Cered,19.959997546613362,48.14771270114449
HU_03674,Nemeskeresztúr,17.19769345323499,47.090780184479954
HU_03683,Magyarhomorog,21.541093090167664,47.01958465387517
HU_03692,Mende,19.425307324398037,47.43020305492725
HU_03708,Taktabáj,21.316381135800242,48.05771268068563
HU_03717,Tiszadorogma,20.869924042418084,47.68434169713391
HU_03726,Zebecke,16.693762064654543,46.64798613343554
HU_03735,Bárdudvarnok,17.685179292718935,46.32993065546166
HU_03744,Gagyvendégi,20.968554423247728,48.43286729598188
HU_03753,Rábcakapi,17.26753088003331,47.69629442546358
HU_03762,Kiskinizs,21.034406008728247,48.25152658137552
HU_03771,Arnót,20.858858944245796,48.13354875213594
HU_03780,Ócsárd,18.149997088143873,45.93440682803335
HU_03799,Csákány,17.27418960523305,46.534968749280175
HU_03805,Szakáld,20.90946428238336,47.94284881195617
HU_03814,Hévíz,17.18522299534443,46.790604838170225
HU_03823,Ároktő,20.944804602180213,47.72748818353916
HU_03832,Keszü,18.190416121951664,46.01548488992989
HU_03841,Bokor,19.543375432335033,47.9370141007265
HU_03850,Tiszabercel,21.64493610989619,48.154851484788495
HU_03869,Kistormás,18.56543933656156,46.50021023499146
HU_03878,Nyírpilis,22.190032755789424,47.785361573885446
HU_03887,Szerecseny,17.55270713453118,47.46533122786361
HU_03896,Cserkút,18.136189997604646,46.072610895988994
HU_03902,Mád,21.278691816931087,48.19362088357952
HU_03911,Csákánydoroszló,16.504046892098142,46.96774988427976
HU_03939,Cigánd,21.890156651360822,48.25670187338723
HU_03948,Raposka,17.43321900191029,46.84366956690548
HU_03957,Viszló,20.88508415709262,48.495251511396695
HU_03966,Ruzsa,19.748294660503035,46.28908131903026
HU_03975,Baksa,18.09441111017311,45.95655164208375
HU_03984,Nagybudmér,18.453193916461952,45.939147074144415
HU_03993,Héhalom,19.583084897918365,47.78109373990356
HU_04002,Zalacsány,17.101357498087683,46.80652249362836
HU_04020,Himod,17.008947891016213,47.51956259523464
HU_04039,Csorna,17.249172903699034,47.61392038790995
HU_04048,Tófű,18.360301673578107,46.308622885731026
HU_04057,Pécel,19.34732601655663,47.480425278222114
HU_04066,Küngös,18.178659616283877,47.05951539812782
HU_04075,Ócsa,19.234771246715553,47.31349726132531
HU_04084,Hevesvezekény,20.360651679699355,47.55716920090684
HU_04093,Helvécia,19.62103715465853,46.845778310339625
HU_04109,Dusnok,18.96416413893632,46.39058837638082
HU_04118,Hortobágy,21.159362846681322,47.58646904045326
HU_04127,Som,18.138722669293614,46.80255634227774
HU_04136,Töttös,18.539380670184638,45.914751189276515
HU_04145,Hort,19.786585951933105,47.68987315086315
HU_04154,Tárnok,18.867754438867586,47.36856147130616
HU_04163,Bödeháza,16.39833810649614,46.64910255362154
HU_04172,Tárnokréti,17.306852354107843,47.72344589309264
HU_04181,Perőcsény,18.858214354122467,47.99427483183439
HU_04190,Köcsk,17.089817144406044,47.198130496738436
HU_04206,Mezőgyán,21.517956839536023,46.87082049728123
HU_04215,Nyomár,20.824353721254667,48.282252536040716
HU_04224,Csörötnek,16.367071200527477,46.95162449332305
HU_04233,Aszaló,20.961461197519284,48.220405636704015
HU_04242,Nagykamarás,21.120460776351017,46.47442356477845
HU_04251,Ecseg,19.606311793505984,47.89538024933215
HU_04260,Mezőtúr,20.622617324651813,47.00188396385326
HU_04279,Kamut,20.979576663526355,46.76087332259619
HU_04288,Kispirit,17.23358277726521,47.198464499610196
HU_04297,Kacsóta,17.94444221808785,46.0535616808617
HU_04303,Püspökszilágy,19.31280664701707,47.741025496677295
HU_04312,Tarpa,22.524455301415564,48.10406691870074
HU_04321,Bodorfa,17.347355434912448,47.07080344993638
HU_04330,Mátraszőlős,19.69648544666368,47.94678755771147
HU_04349,Mórahalom,19.885950327407578,46.21728754858217
HU_04358,Nógrád,19.055082564528153,47.902454855968024
HU_04367,Bogyoszló,17.188458493943955,47.55914766059087
HU_04376,Lázi,17.838592477589934,47.46591980080453
HU_04385,Magyartelek,17.97586889012719,45.94844400631435
HU_04394,Makád,18.927931321396063,47.071257888544494
HU_04400,Bekölce,20.281099326663636,48.0887063774139
HU_04419,Nyésta,20.954676439626688,48.370817894228836
HU_04428,Ács,18.010842602060375,47.71116202002366
HU_04437,Udvar,18.65931841895016,45.90363030661119
HU_04446,Tiszakerecseny,22.295551063976763,48.25836903583242
HU_04455,Nagylengyel,16.76698663618099,46.779103119107695
HU_04464,Szakály,18.383670711711254,46.522850210394246
HU_04473,Kányavár,16.6796667552238,46.572346610568566
HU_04482,Oroszló,18.12829165836014,46.21824350410023
HU_04491,Sényő,21.878192047324056,48.001513235965604
HU_04507,Szendehely,19.101812481845243,47.857067226852884
HU_04516,Rózsafa,17.88946816221884,46.01970740298555
HU_04525,Kecskéd,18.30705032978975,47.50092206243805
HU_04534,Mindszentkálla,17.55698837977865,46.87532842372328
HU_04543,Feked,18.563324986507922,46.16363345938567
HU_04552,Litér,18.009644211777825,47.09769730987534
HU_04561,Ábrahámhegy,17.564397097053643,46.817756398082274
HU_04570,Márianosztra,18.87454653429858,47.868450542681245
HU_04589,Veszkény,17.09217891669313,47.60001624470175
HU_04598,Kereki,17.915561656785936,46.79188555164032
HU_04604,Hejőkeresztúr,20.878032068358813,47.959192172132454
HU_04613,Gelénes,22.44419667296634,48.200673402737166
HU_04622,Zsira,16.68123855341781,47.457066626630215
HU_04631,Tüskevár,17.313079696181966,47.11714540324216
HU_04640,Kám,16.88788222497417,47.1055822143452
HU_04659,Martonvásár,18.79017514641337,47.31637540872153
HU_04668,Mihályháza,17.34496515718266,47.30881001301201
HU_04677,Emőd,20.817217708679664,47.93502176180682
HU_04686,Dédestapolcsány,20.489604622306114,48.18013282078684
HU_04695,Vasvár,16.802561050225968,47.05144640575042
HU_04701,Iregszemcse,18.183065250835906,46.69413387013499
HU_04710,Nagyar,22.542381341450707,48.05737165999071
HU_04729,Sály,20.661325736607,47.94887805260688
HU_04738,Bak,16.845103666192784,46.732088094653484
HU_04747,Sárpilis,18.75174907369053,46.26405685604882
HU_04756,Misefa,16.98384309269241,46.81204971864894
HU_04765,Borszörcsök,17.408655222751694,47.13623824810523
HU_04774,Szakoly,21.902550505456645,47.76104004598869
HU_04783,Mosonmagyaróvár,17.273074629158717,47.86782006836825
HU_04792,Rábacsanak,17.292607364838474,47.52562563779563
HU_04808,Domony,19.43801987775,47.657643247479626
HU_04817,Zsáka,21.430785814980243,47.13504827131543
HU_04826,Kisgyalán,17.97677809149457,46.42267836085422
HU_04835,Somogyzsitfa,17.30990477181502,46.54137538772471
HU_04844,Terény,19.44063596805003,47.94102286432091
HU_04853,Somogyudvarhely,17.183150676501434,46.17430789299952
HU_04862,Paks,18.849230422782966,46.61938750756294
HU_04871,Litke,19.601104180042395,48.209540892074465
HU_04880,Ágfalva,16.51506889429056,47.69430370456169
HU_04899,Bikal,18.287019651908057,46.33244232759271
HU_04905,Pócsmegyer,19.0991421360932,47.71448623260313
HU_04914,Trizs,20.500756707323013,48.423674535499295
HU_04923,Karcag,20.921184143127462,47.31772958628671
HU_04932,Taszár,17.90483962422233,46.37090218483325
HU_04950,Ortaháza,16.714516497684496,46.63718586864399
HU_04969,Tormafölde,16.58503150487246,46.54033697027411
HU_04978,Ipolytölgyes,18.776185812314953,47.92278876036165
HU_04987,Megyer,17.19087899874012,47.0625651552793
HU_04996,Garbolc,22.860626760549597,47.93821504662192
HU_05005,Irota,20.87730107977756,48.39601053524431
HU_05014,Vének,17.731110970601367,47.74483126535257
HU_05023,Bozsok,16.494154900686077,47.33175037092824
HU_05032,Gyula,21.278712768113937,46.64644671281421
HU_05041,Nyírderzs,22.17760369103861,47.90442381936177
HU_05050,Csitár,19.4270346106001,48.04644171530672
HU_05069,Györgytarló,21.63626240804073,48.20558627511676
HU_05078,Rinyabesenyő,17.519586619550907,46.163728421718794
HU_05087,Lovászpatona,17.631025691784696,47.436816568166265
HU_05096,Viss,21.5065693486038,48.21598820939757
HU_05102,Balogunyom,16.64106925908338,47.15933099195681
HU_05111,Csongrád,20.146347349993345,46.7114329547922
HU_05120,Sátoraljaújhely,21.657239728574297,48.396406108572364
HU_05139,Birján,18.37900178942883,46.00042021271802
HU_05148,Balatonkenese,18.07860467964405,47.0508637953
HU_05157,Somlójenő,17.36327412978682,47.12281065549303
HU_05166,Tömörd,16.672894239566812,47.36546658299416
HU_05175,Hajdúszoboszló,21.39683101721271,47.44344326432143
HU_05184,Csemő,19.698565818090355,47.122795852091926
HU_05193,Szorosad,18.03678354603914,46.600648088463274
HU_05209,Villánykövesd,18.44738983236367,45.878002668452794
HU_05218,Nagygörbő,17.183054672292545,46.931469764560354
HU_05227,Kisnémedi,19.28386411697167,47.73887832791421
HU_05236,Gyöngyös,19.92482274654469,47.77888993436892
HU_05245,Nemesbikk,20.969213433682878,47.887660658860916
HU_05254,Kuncsorba,20.556292199702483,47.12804984603172
HU_05263,Karád,17.843779805670785,46.69133610281006
HU_05272,Kánya,18.069601927172652,46.69690191253101
HU_05281,Örkény,19.431179744780753,47.14057557359113
HU_05290,Pilisszántó,18.89092471531156,47.669883808586206
HU_05306,Bőcs,20.9748598579043,48.052495341191594
HU_05315,Borsodnádasd,20.24822724323891,48.12064239157285
HU_05324,Herencsény,19.474195978595404,47.97448557082315
HU_05333,Csobád,21.02956003050313,48.28091495620503
HU_05342,Tófej,16.805129610760776,46.67143417328054
HU_05351,Kára,18.01531755558839,46.61098442298432
HU_05360,Csákberény,18.33021407360022,47.351182965108954
HU_05379,Csanádpalota,20.724437725132084,46.23941078078855
HU_05388,Sümegprága,17.276448341488674,46.94031666707502
HU_05397,Pusztaföldvár,20.804853382579193,46.519932286790684
HU_05403,Babarc,18.5544559806918,46.003852183324724
HU_05412,Magyarmecske,17.966133219919584,45.95097261959933
HU_05421,Királyszentistván,18.015678226582647,47.10792959657845
HU_05430,Magyarhertelend,18.152426031802825,46.18957461335443
HU_05449,Komárom,18.12739333732731,47.74567966471833
HU_05458,Kenézlő,21.530073888037272,48.197608408073506
HU_05476,Bő,16.815607982445876,47.36577314177077
HU_05485,Baranyaszentgyörgy,18.013730682195426,46.24388532424499
HU_05494,Gadna,20.93004211957479,48.39586568289169
HU_05500,Somogyaracs,17.38978407952787,46.055036365618456
HU_05519,Siklós,18.294703844682427,45.860118305601276
HU_05528,Szörény,17.66811149198698,45.965856380944324
HU_05537,Kallósd,17.066449509413243,46.87593128614881
HU_05546,Zákányszék,19.89024984988801,46.276388559813846
HU_05555,Nemeshany,17.35695536370212,47.06902177913151
HU_05564,Lovas,17.964652118360362,46.98758090623962
HU_05573,Derecske,21.566122217420816,47.35229243320063
HU_05582,Nagycsécs,20.946879727344584,47.964036377639914
HU_05591,Izsófalva,20.655597964917284,48.313394815427486
HU_05607,Szederkény,18.451477381444896,46.00085224521219
HU_05616,Hetefejércse,22.477665215405846,48.12146526631353
HU_05625,Révfülöp,17.62609114503522,46.830539149377564
HU_05634,Káptalantóti,17.514319153450604,46.850665527175046
HU_05643,Szilvásvárad,20.390768799646033,48.10341974374087
HU_05652,Nemesgörzsöny,17.380208961012464,47.3971482563897
HU_05661,Ozora,18.395825883658578,46.75147545727135
HU_05670,Gégény,21.938994399253108,48.124692685100484
HU_05689,Mezőkomárom,18.291719497347284,46.82619071689618
HU_05698,Váckisújfalu,19.345380368217644,47.70251209786227
HU_05704,Pethőhenye,16.920728161414026,46.87769390890263
HU_05713,Harasztifalu,16.566781061828284,47.04814857801877
HU_05722,Kisbeszterce,18.023410912735176,46.2078330055526
HU_05731,Gerjen,18.90464060130204,46.491151747557865
HU_05740,Kőszegdoroszló,16.56846377152566,47.34147910987755
HU_05759,Vécs,20.170574299931282,47.80724672936704
HU_05768,Létavértes,21.88531412680142,47.38123276405183
HU_05777,Szászberek,20.12081267325531,47.281453832721574
HU_05786,Ladánybene,19.460860980828116,47.03472492272848
HU_05795,Cserkeszőlő,20.205534993252712,46.86844448149191
HU_05801,Gávavencsellő,21.57250273905962,48.15821641254658
HU_05810,Szőkedencs,17.261102531059112,46.55691564667201
HU_05829,Vál,18.678119838018503,47.3636500029746
HU_05838,Balatonalmádi,18.01338085994768,47.03924513271161
HU_05847,Harsány,20.74379819245425,47.96696716656119
HU_05856,Kunadacs,19.288491940082128,46.95650237678592
HU_05865,Egerlövő,20.622291390986955,47.721937356321455
HU_05874,Szajol,20.30250816593668,47.177496959624335
HU_05883,Palotás,19.594638162073917,47.790604995426605
HU_05892,Vokány,18.338123426711935,45.911534380869746
HU_05917,Vácduka,19.21538665729292,47.742290422382816
HU_05926,Bódvaszilas,20.730129358417752,48.537655256660365
HU_05935,Karácsond,20.02884922242614,47.73084535566472
HU_05944,Bakonyszentlászló,17.804781031130588,47.389913291515
HU_05953,Kissomlyó,17.104095600092624,47.139786686222266
HU_05962,Magyarcsanád,20.608630258232022,46.17038443856572
HU_05971,Csokonyavisonta,17.45413892752315,46.07718087617372
HU_05980,Egyházasgerge,19.647593574978067,48.17997636771624
HU_05999,Kárász,18.318397556035222,46.264057091922986
HU_06008,Zamárdi,17.94581453195447,46.87890822155892
HU_06017,Magyarkeszi,18.238323504755208,46.75153489022223
HU_06035,Felsőpakony,19.237477732144438,47.34247352904794
HU_06044,Kunbaja,19.422909132537995,46.084774139409134
HU_06053,Ragály,20.5184663168323,48.40756443686904
HU_06062,Újpetre,18.362907839435074,45.932552173162605
HU_06071,Keménfa,16.639709599422886,46.844597624896295
HU_06080,Ádánd,18.156492176747317,46.858113687969535
HU_06099,Ellend,18.37712119018572,46.05596300628098
HU_06105,Kálmáncsa,17.61781380240759,46.070865478946516
HU_06114,Füle,18.24949722907088,47.05278730013675
HU_06123,Dövény,20.542905836074766,48.34707855739676
HU_06132,Csapi,17.088867265156903,46.52739486495632
HU_06141,Patalom,17.927239090402715,46.45014666406234
HU_06169,Nemesapáti,16.944847993509875,46.87233425440392
HU_06178,Eszteregnye,16.884462498116687,46.470061079672234
HU_06187,Nyíradony,21.878892164729116,47.674993225196395
HU_06196,Barbacs,17.29593344084578,47.64475837472842
HU_06202,Lakitelek,19.995997739759424,46.87588960032416
HU_06211,Hollád,17.313672770358338,46.641060952547186
HU_06220,Bodonhely,17.408467473885224,47.5609879847196
HU_06239,Vadosfa,17.133714688713976,47.4960874196095
HU_06248,Pinkamindszent,16.48480393579033,47.034664830034956
HU_06257,Zsadány,21.48809303714359,46.92468301074625
HU_06266,Hosszúpályi,21.73222063257707,47.39583888401042
HU_06275,Zajta,22.799259778168377,47.911407000063306
HU_06284,Pitvaros,20.738240982921283,46.320948070853525
HU_06293,Újhartyán,19.401024877254784,47.22107657916293
HU_06309,Nagyrábé,21.33218220676494,47.20673640558738
HU_06318,Nagyrév,20.11099366605718,46.93803912402814
HU_06327,Bakonypölöske,17.486451235055746,47.20943094367127
HU_06336,Kozármisleny,18.285645200032434,46.0458686296309
HU_06345,Aldebrő,20.233448632937346,47.78819774331414
HU_06354,Pusztamérges,19.68648342689373,46.32796361301787
HU_06363,Dörgicse,17.723095768186877,46.918991265733965
HU_06372,Pomáz,19.025000092914997,47.64252989849594
HU_06381,Tolmács,19.120248731408864,47.93061004128908
HU_06390,Bozzai,16.76151412301729,47.2076942543307
HU_06406,Jákfa,16.95640682671188,47.34033421048304
HU_06415,Kákics,17.862087366431478,45.90448294785063
HU_06424,Kaposszerdahely,17.758756623292374,46.324887220993794
HU_06433,Tiszadada,21.246508020503306,48.02836376798853
HU_06442,Kalocsa,18.98182831856357,46.527773428050956
HU_06451,Gamás,17.757007059193455,46.61859444119094
HU_06460,Füzérkajata,21.500644061395523,48.52038107214796
HU_06479,Lapáncsa,18.496933305201356,45.818074991028126
HU_06488,Nagyecsed,22.38385192296562,47.86362859855488
HU_06497,Bonyhád,18.52233881477895,46.29740707760405
HU_06503,Átány,20.361394257919564,47.615933073772794
HU_06512,Kismányok,18.467101222642317,46.2813403029312
HU_06521,Gyermely,18.643240866205918,47.5898582010817
HU_06530,Pusztamagyaród,16.830662915394964,46.60290099822235
HU_06549,Vindornyalak,17.19038768105175,46.89092905565484
HU_06558,Bölcske,18.96569927263613,46.74017490227177
HU_06567,Sormás,16.91136013556447,46.45600465819228
HU_06576,Mezőszentgyörgy,18.278370720164318,46.99363321989749
HU_06585,Gálosfa,17.890330811563114,46.25899938647319
HU_06594,Dömös,18.90564485350214,47.76878543247395
HU_06600,Somogyszentpál,17.474714197984518,46.635155970942414
HU_06619,Börcs,17.507184429081967,47.68736455055583
HU_06628,Szécsény,19.51975640080355,48.078571777560825
HU_06637,Varsád,18.52062620799459,46.52423759385714
HU_06646,Jobaháza,17.18159486198362,47.58450589835327
HU_06655,Hejőbába,20.94803610236873,47.90428278057727
HU_06664,Ete,18.0708173594387,47.534522698499586
HU_06673,Ajka,17.558942741833203,47.10777866166118
HU_06682,Aka,18.07391478458341,47.40224376673336
HU_06691,Kazincbarcika,20.624319870168666,48.25179620904309
HU_06707,Borsodivánka,20.65674153544935,47.70086106222167
HU_06716,Nádasd,16.61491650470687,46.966977672922134
HU_06725,Borjád,18.47413478015449,45.93713197180503
HU_06734,Csősz,18.41486814613697,47.03741009148457
HU_06743,Diósjenő,19.04326637210555,47.94018754510471
HU_06761,Nagyszékely,18.52468497938444,46.649990120783734
HU_06770,Markotabödöge,17.29362179805719,47.686371392207604
HU_06789,Kemse,17.91443739444265,45.82667987689737
HU_06798,Hidas,18.505133017980505,46.27036931905009
HU_06804,Kötegyán,21.479654124678337,46.73755170193215
HU_06813,Mágocs,18.230551139460562,46.35145583404629
HU_06822,Csobánka,18.964179368603165,47.645963421965654
HU_06831,Kishajmás,18.081748682945204,46.19985326235717
HU_06840,Sóskút,18.822225104937335,47.40502505985136
HU_06859,Törökbálint,18.918368596778087,47.43167082221182
HU_06868,Adorjás,18.060529984850678,45.85209301939681
HU_06877,Visz,17.78529273650997,46.72408718142396
HU_06886,Aranyosgadány,18.12363485823736,46.00865705890913
HU_06895,Kópháza,16.645109251815665,47.638909811101655
HU_06901,Tengelic,18.713741822402127,46.52628913345695
HU_06910,Bélavár,17.216944229355903,46.12094627530815
HU_06929,Bekecs,21.1784913542334,48.15503089115564
HU_06938,Vállaj,22.380183727952023,47.76434429218834
HU_06947,Szokolya,19.003623020589778,47.86395538229927
HU_06956,Fehértó,17.34552759825851,47.675711821418666
HU_06965,Katádfa,17.871167372904925,45.99535176576768
HU_06974,Cserépfalu,20.53293814034599,47.94538861252361
HU_06992,Kővágótöttös,18.103248391442214,46.08416975445178
HU_07001,Nagykarácsony,18.77121398986286,46.872356185342774
HU_07010,Páprád,18.014702365577573,45.89177598092451
HU_07029,Mucsi,18.39518595355561,46.430649273920174
HU_07038,Lénárddaróc,20.370037230738006,48.14184958926903
HU_07047,Baracs,18.872845853899324,46.91343815453756
HU_07056,Öreglak,17.62489420933295,46.604914080887006
HU_07065,Városlőd,17.65263520439874,47.14657283509611
HU_07074,Vázsnok,18.115353764427184,46.259457812071794
HU_07083,Tiszanána,20.522870203350067,47.56224258582975
HU_07092,Szentbékkálla,17.563874922226436,46.878582113229015
HU_07108,Tinnye,18.782787095113004,47.623517367723316
HU_07117,Balatonföldvár,17.88182689422087,46.84389778731307
HU_07126,Hetvehely,18.050089752602126,46.13402404817195
HU_07135,Cserszegtomaj,17.225549778865563,46.7961225864903
HU_07144,Piliscsaba,18.836991628952635,47.63613865583662
HU_07153,Palkonya,18.391563165912416,45.89832162734491
HU_07162,Pácsony,16.85472856764131,47.01424405949602
HU_07171,Sorkifalud,16.743459420323475,47.13763827803905
HU_07180,Sarud,20.58693036116289,47.59308204006303
HU_07199,Patak,19.14594752852545,48.02894200289636
HU_07205,Újvárfalva,17.569149543402933,46.448837412580744
HU_07214,Acsád,16.73244560887536,47.32464541762565
HU_07223,Vadna,20.565254133486874,48.27285576158918
HU_07232,Zalaszentlászló,17.115494028503836,46.8677659986105
HU_07241,Apc,19.696772883043693,47.78502527553952
HU_07250,Hosztót,17.238610392008248,47.09040367525839
HU_07269,Lepsény,18.251139039977417,46.990238036112096
HU_07278,Püspökmolnári,16.789754152610826,47.087442837531704
HU_07287,Bakonykoppány,17.68979666609312,47.32995107144016
HU_07296,Bögöte,17.044499564839956,47.08439265960321
HU_07302,Adásztevel,17.542258300053117,47.30072820309032
HU_07311,Bokod,18.254990511860786,47.49247291899487
HU_07320,Debercsény,19.332041551420108,47.966438460719026
HU_07339,Aszófő,17.82947453516367,46.927846735581284
HU_07348,Papkeszi,18.06118270286754,47.07254195966061
HU_07357,Makó,20.479775098287814,46.2172173213584
HU_07366,Szárász,18.37058919275541,46.34747551153915
HU_07375,Balatonkeresztúr,17.379690155351508,46.69901062516682
HU_07384,Solymár,18.936461924228063,47.59080589769778
HU_07393,Gerendás,20.85978444171454,46.59888909482948
HU_07409,Pásztó,19.699777687740678,47.92149382082912
HU_07418,Kengyel,20.3364326173216,47.093153487605576
HU_07427,Bazsi,17.249333160424047,46.9339652729662
HU_07436,Parád,20.031584214965616,47.92286170021452
HU_07445,Kocsord,22.36720773853352,47.940634415010216
HU_07463,Mérk,22.37704498739082,47.78449354735898
HU_07472,Berkesz,21.977575584664468,48.097676770260954
HU_07481,Győrújbarát,17.64140512875365,47.60850279359855
HU_07490,Tószeg,20.142683717335995,47.0982246595899
HU_07506,Lajoskomárom,18.341063226088274,46.84327261496951
HU_07515,Domoszló,20.118864138464836,47.8268846918057
HU_07524,Drágszél,19.040043744615723,46.459946747871655
HU_07533,Bürüs,17.76584930337786,45.96457633014542
HU_07542,Szentlőrinckáta,19.752672219426795,47.519719554988285
HU_07551,Rádóckölked,16.614436851329227,47.07743021986492
HU_07560,Garé,18.200028200650035,45.9176268610973
HU_07579,Zalabaksa,16.532553687837403,46.71185761118039
HU_07588,Felsőregmec,21.610226132876324,48.50852239535812
HU_07597,Tiszavasvári,21.365054950038232,47.95850771696456
HU_07603,Bánfa,17.876461969472942,45.99494366097003
HU_07612,Dunavecse,18.97629458000449,46.913018761225786
HU_07621,Alsótold,19.599516068120575,47.95322731498932
HU_07630,Kömlőd,18.257612144699845,47.54664185393885
HU_07649,Harka,16.59917120116863,47.633986018788256
HU_07658,Nemeshetés,16.924177935620836,46.791143872805954
HU_07667,Oszkó,16.87794082054356,47.03761871431105
HU_07676,Gyulaháza,22.12019212815545,48.14011769970989
HU_07685,Dombóvár,18.134116266978157,46.380272389691356
HU_07694,Szőkéd,18.29318900585509,45.97076913947775
HU_07700,Szepetnek,16.902639218194143,46.43142640160675
HU_07719,Dámóc,22.04549031819487,48.35509691571331
HU_07728,Kunbaracs,19.401209374773206,46.99198220311069
HU_07737,Merenye,17.706234042823404,46.06781708690254
HU_07746,Répcevis,16.67286463078267,47.442854172296954
HU_07755,Óföldeák,20.44161920580441,46.297162106779645
HU_07764,Kánó,20.60121547334303,48.42829040930625
HU_07773,Dencsháza,17.832843181308892,45.993634131473605
HU_07782,Döbröce,17.187515385383684,46.936301224045046
HU_07807,Isaszeg,19.400756770732503,47.53664901707727
HU_07816,Kisbodak,17.416527897644166,47.8914176082027
HU_07825,Monok,21.150351758763964,48.210885826301926
HU_07834,Derekegyház,20.357381655733054,46.577933549021076
HU_07843,Jánkmajtis,22.65357967750798,47.93986710711057
HU_07852,Tiszaszőlős,20.723299669400213,47.55618438438485
HU_07861,Dunapataj,18.99773971391558,46.64387667216108
HU_07870,Szigetcsép,18.96926647777096,47.267809077806
HU_07889,Szőlősardó,20.62347601977515,48.442691105898234
HU_07898,Halimba,17.532781775434287,47.02981849557406
HU_07904,Nyírcsaholy,22.33766809454724,47.903917518451706
HU_07913,Nemesdéd,17.24150239086165,46.43498750940016
HU_07922,Szentgál,17.74040763668458,47.1215192193768
HU_07931,Kisapáti,17.47277167657996,46.84292890872534
HU_07940,Viszák,16.500685205218403,46.881261843328986
HU_07959,Szilaspogony,20.02517983200219,48.115544362561415
HU_07968,Murarátka,16.675912480101342,46.45574268813401
HU_07977,Ispánk,16.44052465532121,46.866026692587035
HU_07986,Bucsuta,16.832578077847245,46.564841868545294
HU_07995,Lövőpetri,22.2045056663607,48.18289649155744
HU_08004,Hét,20.380997226799554,48.28955036126568
HU_08013,Felsőjánosfa,16.55644613945791,46.85263104182513
HU_08022,Bükkszentkereszt,20.630194679562415,48.066495001691784
HU_08040,Csoma,18.054125327563266,46.37448795507725
HU_08059,Nemesszentandrás,16.94306517739181,46.77392994572439
HU_08068,Gellénháza,16.79033730296633,46.763557527133734
HU_08077,Szendrő,20.734189095836605,48.40334755355843
HU_08086,Ináncs,21.063817340284412,48.28675975481434
HU_08095,Imrehegy,19.300909900728694,46.48597030388435
HU_08101,Sárhida,16.84476876476535,46.75323268786742
HU_08110,Kórós,18.084017361582937,45.86841119045849
HU_08129,Sajóörös,21.02255204868898,47.948080769730936
HU_08138,Várad,17.746511721753166,45.993169287906426
HU_08147,Szászfa,20.955499381396443,48.47180205484037
HU_08156,Drégelypalánk,19.054166513145308,48.05471562339021
HU_08165,Tard,20.59848139841947,47.88130955628951
HU_08174,Felsőberecki,21.690820061984258,48.355568069614904
HU_08183,Vése,17.29261983572623,46.41396435507994
HU_08192,Bordány,19.92458808335923,46.31915286137658
HU_08217,Alsótelekes,20.650830441536424,48.409259360765496
HU_08226,Hegyhátszentpéter,16.816818518571704,46.97904110607271
HU_08244,Nagyszénás,20.67337091169274,46.672775832859465
HU_08253,Klárafalva,20.33433785229325,46.21871854194164
HU_08262,Nagygyimót,17.549759141335237,47.33803172431708
HU_08271,Cák,16.515343757601258,47.353325587054165
HU_08280,Telki,18.81950202250511,47.55346078637442
HU_08299,Bakonya,18.084898447943548,46.08558353282808
HU_08305,Bócsa,19.48122351869167,46.6132363231087
HU_08314,Hódmezővásárhely,20.32378454893391,46.41849069741048
HU_08323,Gyöngyöspata,19.790533835056138,47.81357183409921
HU_08332,Táborfalva,19.481653963556795,47.10282211316374
HU_08341,Okorvölgy,18.058111686482963,46.15123401285389
HU_08350,Harkakötöny,19.60945429690338,46.46547499481237
HU_08369,Vöckönd,16.9556452297275,46.89293378006516
HU_08378,Jászszentlászló,19.760471708203884,46.568028122290045
HU_08387,Nógrádsáp,19.35423614011643,47.838739981092935
HU_08396,Boldva,20.791637360529492,48.219633250314885
HU_08402,Regéc,21.34207544962395,48.39426691708404
HU_08411,Kastélyosdombó,17.61574998251709,45.950972457212885
HU_08420,Napkor,21.87335438418448,47.94151479244781
HU_08439,Bánokszentgyörgy,16.780345631815738,46.54205353261981
HU_08448,Értény,18.137087222277206,46.61455843042154
HU_08457,Pilisszentlászló,18.987205712369935,47.724571680776414
HU_08466,Beloiannisz,18.823491826552974,47.18357640928067
HU_08475,Szajk,18.538084110222684,45.993276280911566
HU_08484,Szentistvánbaksa,21.030896371307534,48.22418602837679
HU_08493,Csenyéte,21.035055688835754,48.4335533359242
HU_08509,Kishódos,22.832069829143983,47.96628527805433
HU_08518,Sopron,16.587538180685268,47.684949609120956
HU_08527,Sirok,20.193799513086613,47.93058501289445
HU_08536,Szany,17.30584674522141,47.46153077018051
HU_08545,Őrbottyán,19.27891052474766,47.67805693127773
HU_08554,Tiszakanyár,21.95966958092342,48.24720408108385
HU_08563,Csapod,16.924811648415243,47.51783027978805
HU_08572,Kétújfalu,17.70127114764189,45.96454833332301
HU_08581,Baracska,18.757497038208534,47.270878314431044
HU_08590,Tab,18.03434278400747,46.7321587936915
HU_08606,Sikátor,17.850852325254476,47.437080917030244
HU_08615,Szentliszló,16.823355187386507,46.576770594424815
HU_08624,Bársonyos,17.91908971307911,47.51118964983027
HU_08633,Tiszapalkonya,21.05515458655837,47.88703898719904
HU_08642,Kálló,19.48853619670119,47.74909510334879
HU_08651,Kisszentmárton,18.03034420659844,45.81549601336361
HU_08660,Demjén,20.337794969264657,47.80641868644202
HU_08679,Öregcsertő,19.113612176280643,46.51614761661632
HU_08688,Süttő,18.453888949604973,47.75804056953551
HU_08697,Bácsszentgyörgy,19.038137174988215,45.966228535273885
HU_08703,Büssü,17.960267787379017,46.45172720793028
HU_08712,Jobbágyi,19.676180807203703,47.83132119834161
HU_08721,Győrasszonyfa,17.808220259805033,47.49875390731876
HU_08730,Bakonycsernye,18.091771109583302,47.32292541223375
HU_08749,Karakószörcsök,17.28897845404638,47.128658348239156
HU_08758,Tát,18.653522028679006,47.7408835314282
HU_08767,Alsószenterzsébet,16.473909169283623,46.7469553474549
HU_08776,Ajak,22.058692928294867,48.178661051824754
HU_08785,Újsolt,19.119177527415587,46.873151421564195
HU_08794,Tiszakóród,22.71049416935303,48.10344756603451
HU_08800,Siklósnagyfalu,18.367988820212126,45.81920927754142
HU_08819,Felsőszentmárton,17.706632213515213,45.85123592336743
HU_08828,Teskánd,16.777988849927887,46.85346940320474
HU_08837,Háromfa,17.334995775910905,46.10520441596566
HU_08846,Baskó,21.341155020736565,48.33177942515822
HU_08855,Karancskeszi,19.702681901750736,48.16323504756619
HU_08864,Bátaszék,18.723175545185445,46.19271306765006
HU_08873,Apátistvánfalva,16.26374007598662,46.89987581779068
HU_08882,Peresznye,16.650753814218852,47.42188718039674
HU_08891,Biatorbágy,18.821614579695797,47.472945460716424
HU_08907,Nagykereki,21.793606461791104,47.18666193143371
HU_08916,Magyarföld,16.42513409329306,46.781852530604304
HU_08925,Adony,18.86244528905928,47.12074205775155
HU_08934,Vámosoroszi,22.6825525998229,47.9937690607992
HU_08943,Körösszegapáti,21.620563610677504,47.04007244115339
HU_08952,Tiborszállás,22.39485695782547,47.80497745586762
HU_08961,Őcsény,18.745457895039994,46.31332539081792
HU_08970,Sajósenye,20.80963869556776,48.202485093203215
HU_08989,Vámospércs,21.897937750582265,47.52733340779178
HU_08998,Túrricse,22.76490279069157,47.9741251528955
HU_09007,Szalatnak,18.2842435395518,46.289350246537765
HU_09016,Monaj,20.926874703109792,48.30169536213431
HU_09025,Őr,22.183587945729062,47.98298987184127
HU_09034,Berkenye,19.070869980441547,47.889107475665604
HU_09043,Szente,19.284336743846946,47.96995877158537
HU_09052,Tarnaszentmária,20.20027173841878,47.88379891420798
HU_09061,Rápolt,22.558563782591058,47.925946307487855
HU_09070,Csénye,16.864809206587267,47.23457962025302
HU_09089,Gelsesziget,16.989212231061725,46.56631717486219
HU_09098,Kaposfő,17.67261840669925,46.358942021358196
HU_09104,Vácszentlászló,19.534473720835035,47.576077013579265
HU_09113,Tiszaeszlár,21.469943059398222,48.03467155125691
HU_09122,Farmos,19.851892385827558,47.3616457504963
HU_09131,Bag,19.486277702474602,47.63497871844161
HU_09140,Lórév,18.89610623998963,47.11646949310922
HU_09159,Drávakeresztúr,17.76102397221212,45.83807724295221
HU_09168,Belezna,16.892782929709156,46.351694110377245
HU_09177,Gige,17.60658033131909,46.301050865335235
HU_09186,Dunaszekcső,18.759949067319138,46.08711308333844
HU_09195,Vásárosmiske,17.052299294667858,47.21620961746716
HU_09201,Detk,20.098765847985263,47.746381549074
HU_09210,Földeák,20.495219460224188,46.31826194927442
HU_09229,Tokorcs,17.08742686814419,47.26915626065165
HU_09238,Nyírgyulaj,22.088034639900215,47.88483916026082
HU_09247,Dabas,19.31873585678813,47.185961143790124
HU_09256,Nyírtét,21.921064157468905,48.00652178002792
HU_09265,Kisvárda,22.082290837100327,48.222835785440196
HU_09274,Varászló,17.219481930119514,46.43667812771152
HU_09283,Nagygeresd,16.929161807221845,47.394987918887935
HU_09292,Gecse,17.522599202990104,47.45072027500932
HU_09308,Szemely,18.33056915415918,46.015226696537965
HU_09317,Révleányvár,22.040326858637368,48.323976451406644
HU_09326,Jágónak,18.09822200674762,46.31063485095169
HU_09344,Kiskőrös,19.28794944635248,46.62138728908583
HU_09353,Aranyosapáti,22.257085856342172,48.20833409897598
HU_09362,Aggtelek,20.504300121357424,48.47303384741407
HU_09371,Pálfa,18.613371682163244,46.713257458226344
HU_09380,Zalaújlak,17.080251314133985,46.56152847020346
HU_09399,Hernádcéce,21.19738767571393,48.3591987879504
HU_09405,Tápióság,19.621515107736,47.394152029865374
HU_09414,Várdomb,18.687023888892277,46.25132963860283
HU_09423,Tiszaadony,22.296384467677495,48.225252106014544
HU_09432,Ecsegfalva,20.9238550329622,47.1483485030329
HU_09441,Gomba,19.527505357381468,47.36808357628441
HU_09450,Márfa,18.189115358797782,45.86058852322
HU_09469,Jánoshalma,19.3253430373132,46.29998746177857
HU_09478,Nagyhegyes,21.344635736761365,47.540436580640645
HU_09487,Fertőendréd,16.906119196193305,47.59928588457108
HU_09496,Szirmabesenyő,20.796769299783723,48.15103698701628
HU_09502,Vid,17.337814121574485,47.213083224002396
HU_09511,Gádoros,20.597535124360927,46.667320871197056
HU_09520,Gyulakeszi,17.47967642963197,46.8707092042666
HU_09539,Dunaszentgyörgy,18.81379289820506,46.526983732606844
HU_09548,Kisvaszar,18.21279278397254,46.27936030229383
HU_09557,Tomajmonostora,20.705153685626307,47.43628598170909
HU_09575,Kerkaszentkirály,16.57926513566538,46.496466438544275
HU_09584,Dunaharaszti,19.096680030346725,47.34971092520949
HU_09593,Tura,19.596281166296517,47.60584835448053
HU_09609,Recsk,20.105510796247348,47.9363331164772
HU_09618,Pári,18.257826168325735,46.5790843097512
HU_09627,Tiszatenyő,20.37770727098184,47.13817233546867
HU_09636,Görcsönydoboka,18.626867905901094,46.07067303483462
HU_09645,Vörs,17.270246693726445,46.64881855298951
HU_09654,Ilk,22.236524218429203,48.117989588961485
HU_09663,Babarcszőlős,18.132573841055642,45.90078726422165
HU_09672,Nemesrempehollós,16.683598194068782,47.09460775627236
HU_09681,Cégénydányád,22.543386092476105,47.9312123193764
HU_09690,Halásztelek,18.984864072233016,47.36583801199138
HU_09706,Gömörszőlős,20.418908911277924,48.37362562272625
HU_09715,Császló,22.732220779282375,47.91712116876197
HU_09724,Győrvár,16.838356637296823,46.98968817976593
HU_09733,Vigántpetend,17.625717923567834,46.963418348923355
HU_09742,Felsődobsza,21.077720803274246,48.25722028472719
HU_09751,Kisszekeres,22.65025783413931,47.97633522758001
HU_09760,Békés,21.130918404369833,46.77259863798773
HU_09779,Csór,18.256440317543777,47.204751654085584
HU_09788,Sárfimizdó,16.71484355894603,46.941076525544055
HU_09797,Nézsa,19.299171136825787,47.843503146003684
HU_09803,Szentkatalin,18.054203112406682,46.17489649872237
HU_09812,Kisgörbő,17.15999991473722,46.95090219551059
HU_09821,Pilis,19.546257802394113,47.28316332381829
HU_09830,Szemere,21.100050742895622,48.46560903339966
HU_09849,Hernád,19.411098702109754,47.16449577707232
HU_09858,Komlósd,17.384628017136446,46.01875988373628
HU_09867,Pölöske,16.89067674341991,46.74500296893051
HU_09876,Chernelházadamonya,16.824446632912444,47.370208050496316
HU_09885,Fertőd,16.875001896060017,47.613503387771985
HU_09894,Borsosberény,19.10968141074417,47.976807492174
HU_09900,Rácalmás,18.9311830405334,47.023667479216506
HU_09919,Tuzsér,22.124781531863032,48.34373783243005
HU_09928,Hetes,17.692886501783235,46.42120768765347
HU_09937,Kenyeri,17.09168275554467,47.384746432483155
HU_09946,Hencse,17.62683804851748,46.20238228412895
HU_09955,Kövegy,20.68734008707415,46.22509527601808
HU_09964,Tófalu,20.238482469781164,47.77805025403367
HU_09973,Délegyháza,19.073516391032577,47.264785667713504
HU_09982,Szűcsi,19.762860391856417,47.80085125697723
HU_09991,Nagykovácsi,18.892219657495033,47.57588610070105
HU_10001,Nagydém,17.698443023982577,47.45780913256009
HU_10010,Lulla,18.019752038221732,46.79216263222604
HU_10029,Hövej,17.018397619103443,47.552602671294395
HU_10038,Liptód,18.51833646756544,46.04443677347316
HU_10047,Csáfordjánosfa,16.94915849159902,47.40866446836391
HU_10056,Borsfa,16.78296630559222,46.505591239579275
HU_10065,Szentimrefalva,17.281820853872684,47.074155284697
HU_10074,Istenmezeje,20.053856290276197,48.08317180720746
HU_10083,Szakcs,18.1111692091527,46.53797628942447
HU_10092,Örvényes,17.81312601404971,46.91007221381989
HU_10108,Áporka,18.982762767577785,47.22929663266881
HU_10117,Újkenéz,22.22420363041752,48.24893997890428
HU_10126,Győrtelek,22.440671187499014,47.92806311446626
HU_10135,Palotabozsok,18.642368710726327,46.12885767877588
HU_10144,Varbóc,20.64598448824641,48.4644037561168
HU_10153,Torvaj,18.040690939312263,46.7651116222677
HU_10162,Püspökladány,21.115742580992908,47.3200947542649
HU_10171,Sajógalgóc,20.534109718416968,48.29352168589529
HU_10180,Bácsbokod,19.156650398627534,46.12376991942007
HU_10199,Szarvasgede,19.642782818106063,47.82181679703862
HU_10205,Tiszarád,21.805809259932207,48.11366899606348
HU_10223,Szalafő,16.36185496347893,46.86586845464882
HU_10232,Egyházashetye,17.122318298951953,47.166565095458864
HU_10241,Hevesaranyos,20.236243567720436,48.01223164212052
HU_10250,Farkasgyepű,17.630319503637292,47.20424050827959
HU_10269,Hahót,16.920404592156356,46.64616109500421
HU_10278,Sé,16.551109510236355,47.24021619033898
HU_10287,Kondoros,20.799353697909908,46.7576661289084
HU_10296,Gárdony,18.619754716569297,47.19543222119233
HU_10302,Vasboldogasszony,16.86026794107112,46.94268109221593
HU_10311,Pusztacsó,16.623246749091635,47.33365913657053
HU_10320,Vizslás,19.82143308895395,48.05115399630514
HU_10339,Ásotthalom,19.78419579764038,46.20090610589498
HU_10348,Zalakomár,17.18026787167797,46.53523742981569
HU_10357,Abod,20.79551355096429,48.39458876851365
HU_10366,Füzérradvány,21.517279044926596,48.477903304301286
HU_10375,Tornakápolna,20.618624624379514,48.46373974129047
HU_10384,Bejcgyertyános,16.921612673721647,47.15032705539422
HU_10393,Hajdúhadház,21.669279862186407,47.67914797811255
HU_10409,Németbánya,17.637122928173667,47.20497221927055
HU_10418,Nagyút,20.172313199222096,47.72031531037462
HU_10427,Magyaratád,17.90363050892139,46.464290260082855
HU_10436,Szamossályi,22.59001677520591,47.88315858568687
HU_10445,Egyházaskesző,17.333907523403287,47.418484844833884
HU_10454,Dunasziget,17.359005982211322,47.94367278219699
HU_10463,Kölesd,18.58515839481807,46.50835758602007
HU_10472,Császártöltés,19.18288951974818,46.42381122245135
HU_10481,Bicske,18.619489356165534,47.49244167018189
HU_10490,Dorog,18.736113024743396,47.72370113293938
HU_10506,Bodrog,17.65412896057155,46.48753320109688
HU_10515,Maroslele,20.345285811948933,46.27026171425265
HU_10524,Detek,21.015187359428605,48.33586188673715
HU_10533,Dávod,18.916958576560553,45.998042404830684
HU_10542,Kémes,18.10607897076429,45.82452973397777
HU_10551,Monor,19.44436810560166,47.348950227174164
HU_10560,Bezi,17.41563019904665,47.658291238274714
HU_10579,Sajtoskál,16.850695525131304,47.40325042927857
HU_10588,Beled,17.100486222582546,47.46695846256845
HU_10597,Rum,16.842751496945247,47.12940962641707
HU_10603,Csurgónagymarton,17.084155352963954,46.29612523527876
HU_10612,Komjáti,20.755573286675883,48.542309420448916
HU_10621,Bükkszenterzsébet,20.170966318910693,48.05431278767373
HU_10630,Őriszentpéter,16.420427826663108,46.84133312840204
HU_10649,Csertalakos,16.701374968961986,46.648687620649234
HU_10658,Fertőhomok,16.771514608566797,47.62185722634542
HU_10667,Városföld,19.764329490429272,46.81485998901999
HU_10676,Halogy,16.563277858100715,46.96807924492301
HU_10685,Vállus,17.302848110550674,46.84590963517373
HU_10694,Bogdása,17.79405560764592,45.872539282074264
HU_10719,Bácsalmás,19.334434842299135,46.12642437245171
HU_10728,Edelény,20.736189116305006,48.29326955498054
HU_10737,Vámosmikola,18.78369870305616,47.97704008212967
HU_10746,Kistótfalu,18.31753576962554,45.90640333338261
HU_10755,Majosháza,18.996421976606843,47.26266455666352
HU_10764,Körösnagyharsány,21.641717297234095,47.00708388944171
HU_10773,Tiszabő,20.486688996308846,47.30900989392836
HU_10782,Boncodfölde,16.740094210998713,46.871293553084286
HU_10791,Fülesd,22.67397241570079,48.02626060674478
HU_10807,Nyírparasznya,22.269885263368124,48.02260134806345
HU_10816,Kiskunlacháza,19.003341324815544,47.18347088344809
HU_10825,Pécsvárad,18.419922702908405,46.159359019093166
HU_10834,Olcsvaapáti,22.35976145057755,48.09743718542616
HU_10843,Nick,17.02057432584506,47.403551816884
HU_10852,Érpatak,21.707438023270942,47.812361612188795
HU_10861,Ecseny,17.85377545175417,46.55141692007918
HU_10870,Doba,17.390477752924873,47.16484249184469
HU_10889,Lispeszentadorján,16.712798020999095,46.5350286987565
HU_10904,Garadna,21.172010314915706,48.4225717264329
HU_10913,Karakó,17.19505468568489,47.116503824864886
HU_10922,Maglód,19.369293462722776,47.44225674061373
HU_10931,Hagyárosbörönd,16.705621780581126,46.90786638645801
HU_10940,Nagykozár,18.300673657022845,46.074556945309546
HU_10959,Nikla,17.51130752078164,46.5790039850977
HU_10968,Mogyoróska,21.34053079155452,48.378690141319375
HU_10977,Tiszavalk,20.752978440419664,47.690853375707455
HU_10986,Szulok,17.54769802226427,46.054855672209094
HU_10995,Kerékteleki,17.94210314262495,47.51570795108388
HU_11004,Jászkarajenő,20.068547384544285,47.0539233039059
HU_11013,Szihalom,20.486928880510977,47.77213943482298
HU_11022,Zsujta,21.281208413474232,48.500800602185734
HU_11031,Tolnanémedi,18.478284707198814,46.71793112179495
HU_11040,Lakócsa,17.692554496891102,45.89717600260787
HU_11059,Baglad,16.481853299958942,46.67638419845156
HU_11068,Röjtökmuzsaj,16.836657361484058,47.55729684232529
HU_11086,Cún,18.064883991478272,45.80967805505516
HU_11095,Nyírlövő,22.18820721802488,48.20249363868433
HU_11101,Szőlősgyörök,17.676155879467842,46.70937938843275
HU_11110,Szuhakálló,20.652039126211854,48.27085303320961
HU_11129,Olcsva,22.31891235173923,48.08187859947417
HU_11138,Vekerd,21.403279262037472,47.09810823354628
HU_11147,Kisrákos,16.49728556557727,46.87649144543867
HU_11156,Gór,16.803391879772896,47.35860330538281
HU_11165,Szentpéterúr,17.039071005047234,46.7624755606832
HU_11174,Kéthely,17.393614875812272,46.6474142709772
HU_11183,Kisdér,18.125389437968476,45.9381297495549
HU_11192,Igal,17.938538429156644,46.53391750560502
HU_11208,Hosszúvölgy,16.933723613449136,46.51872896971821
HU_11217,Szűr,18.579396062981196,46.101082428293395
HU_11226,Hangács,20.831611478073057,48.29110538289096
HU_11235,Kőtelek,20.43776843268625,47.33466348567465
HU_11244,Pócspetri,21.98652014987847,47.874877148715264
HU_11253,Fertőboz,16.702546519609786,47.62747874513611
HU_11262,Kóny,17.359781421690926,47.63103014944028
HU_11271,Nyírlugos,22.043092777173296,47.686313727564624
HU_11280,Katymár,19.226480880490776,46.0438886257948
HU_11299,Bököny,21.758894704368544,47.734030850781004
HU_11305,Besenyszög,20.258120558749443,47.294465840995024
HU_11323,Mezőkeresztes,20.686530691322663,47.8331765004828
HU_11332,Sajónémeti,20.386042772268496,48.271887332475146
HU_11341,Cegléd,19.799935968615902,47.17423108946821
HU_11350,Damak,20.825378025404188,48.29996805662901
HU_11369,Szakony,16.70614865912647,47.42948996941251
HU_11378,Füzérkomlós,21.450032639266542,48.51086558672332
HU_11387,Ikervár,16.89295208302211,47.208232616621515
HU_11396,Pilisszentiván,18.90182894456354,47.611770063418156
HU_11402,Mecsekpölöske,18.206268251245206,46.22242372084988
HU_11411,Halmajugra,20.063480954728057,47.75877871291577
HU_11420,Pula,17.648498843510815,46.997546586730195
HU_11439,Várpalota,18.139131926993944,47.20289195284977
HU_11448,Kisrozvágy,21.936663721847772,48.343842721192686
HU_11457,Tényő,17.646012988087758,47.540909189048776
HU_11466,Zala,18.01697303154815,46.73151201324465
HU_11475,Lendvajakabfa,16.45008485859048,46.6883843662506
HU_11484,Somogycsicsó,17.137995640112443,46.30942550652303
HU_11493,Szinpetri,20.62314859486314,48.484652249819746
HU_11509,Szenta,17.170118274500663,46.25084560120799
HU_11518,Rádfalva,18.126316109188423,45.85823617217445
HU_11527,Balaton,20.30933551084748,48.09463889287404
HU_11536,Magyardombegyház,21.087636677885655,46.37582824719882
HU_11545,Szentjakabfa,17.674761719899955,46.93224477651353
HU_11554,Szécsisziget,16.595744637319378,46.57250923773785
HU_11563,Alsónyék,18.728306412988964,46.200170701286076
HU_11572,Petőmihályfa,16.790108699823502,46.98035013852341
HU_11581,Vilmány,21.22746162348788,48.416507825831744
HU_11590,Piliny,19.59891984145986,48.134079529374795
HU_11606,Dunaszentbenedek,18.87084872569448,46.61267631755479
HU_11615,Körösladány,21.079818433342897,46.96195018266507
HU_11624,Bodmér,18.518658902713305,47.46836159839852
HU_11633,Vasszentmihály,16.409394746145054,46.96726407704854
HU_11642,Felsőpáhok,17.17207027964226,46.79240975364705
HU_11651,Bögöt,16.828623070141678,47.248706092993494
HU_11660,Legyesbénye,21.159275926282,48.15358960975366
HU_11679,Jánosháza,17.16643664305471,47.12023759158749
HU_11688,Diósberény,18.446864174237305,46.53217665034217
HU_11697,Hidasnémeti,21.22963930327132,48.50490827716264
HU_11703,Vöröstó,17.710272564429584,46.97765436635686
HU_11712,Báta,18.77695694949568,46.128393474599676
HU_11730,Orfű,18.15015442796495,46.15027234463251
HU_11749,Mezőnyárád,20.681567057567158,47.862691449077786
HU_11758,Meszes,20.792225637670754,48.44194058707502
HU_11767,Veszprém,17.917545927982044,47.100151700324936
HU_11776,Sárszentmihály,18.337096590717636,47.14592220787364
HU_11785,Zalakaros,17.121172547460034,46.55399868363671
HU_11794,Szank,19.6674963148209,46.55828483579424
HU_11800,Vindornyaszőlős,17.15198366848289,46.9004378826026
HU_11819,Kurityán,20.63194573286497,48.309721857513225
HU_11828,Porrog,17.028885485384947,46.287368837195245
HU_11837,Pocsaj,21.80671426233704,47.2849221711172
HU_11846,Kétbodony,19.26791060521575,47.930466614388834
HU_11855,Pápakovácsi,17.4919911148984,47.266431774190174
HU_11864,Érsekcsanád,18.983246684600616,46.2524575092179
HU_11873,Mezőhegyes,20.816544313746242,46.31548352004426
HU_11882,Abda,17.5446591759379,47.697169227323904
HU_11891,Héreg,18.512696060764995,47.64226909429375
HU_11907,Tiszamogyorós,22.226817786134895,48.33171619787312
HU_11916,Balatonőszöd,17.789609152100795,46.80593428809992
HU_11925,Újtikos,21.172669977388882,47.92072576171445
HU_11934,Üröm,19.014512876707794,47.59369855645015
HU_11943,Gyöngyösfalu,16.58575691333328,47.31908772335763
HU_11952,Dinnyeberki,17.962816665002237,46.102475501492044
HU_11961,Bátya,18.95793679453679,46.487524875673756
HU_11970,Bikács,18.672915579319028,46.67505325241839
HU_11989,Murony,21.041614199268334,46.76234863336009
HU_11998,Csibrák,18.34713587364555,46.46392566112535
HU_12007,Szatymaz,20.069565836321548,46.35318754125516
HU_12016,Becske,19.375919911552394,47.908401724428494
HU_12025,Csólyospálos,19.843006757882982,46.41586116422445
HU_12034,Kelemér,20.420022913880103,48.35843536263959
HU_12043,Ölbő,16.861110550487886,47.30080573724486
HU_12052,Budakeszi,18.92946679402319,47.51372182447391
HU_12061,Hermánszeg,22.619570773822897,47.90399531762349
HU_12070,Pétervására,20.099944336649536,48.021175987459955
HU_12089,Gelse,16.993516780126228,46.60099594677221
HU_12098,Nyírtura,21.828810482216458,48.01424924456304
HU_12104,Vasszilvágy,16.75517051154008,47.2986756059356
HU_12113,Kajárpéc,17.634988272609636,47.49061339967773
HU_12122,Letenye,16.729172275346073,46.43099475057159
HU_12131,Nógrádmegyer,19.624997225499815,48.069537611514065
HU_12140,Csepreg,16.717259510190647,47.39850609996104
HU_12159,Hejőszalonta,20.886920361690297,47.94131927417026
HU_12168,Patca,17.729862852069544,46.27542114623233
HU_12177,Kardoskút,20.707776805360854,46.499278051561255
HU_12186,Pátroha,21.991484929121768,48.16656613004815
HU_12195,Romhány,19.257909810443152,47.92555300307528
HU_12201,Zók,18.08785969910017,46.018262436553236
HU_12210,Tállya,21.224340336352014,48.23453730945259
HU_12229,Terpes,20.146897857283854,47.97177718047459
HU_12238,Balatonederics,17.375985066085715,46.8090127680619
HU_12247,Kemenesmagasi,17.2112765001372,47.32929999035748
HU_12256,Füzesgyarmat,21.21432372947909,47.10570982567025
HU_12265,Székkutas,20.537037449155584,46.507844226421795
HU_12274,Nyírmada,22.19426968927172,48.067107273008766
HU_12283,Máriakálnok,17.295608667813525,47.86340295750454
HU_12292,Zsennye,16.814016431834386,47.12970850111542
HU_12308,Hédervár,17.460327744473133,47.83049666913868
HU_12317,Andrásfa,16.800134081354344,46.96971154926855
HU_12326,Györköny,18.695947595634966,46.630309954216465
HU_12335,Tompaládony,16.879362003882843,47.38272537794802
HU_12344,Csengőd,19.26972691222947,46.71512130919641
HU_12353,Kistamási,17.71912577887279,46.012203251903294
HU_12362,Pálháza,21.51041880317006,48.472837163863055
HU_12371,Pamlény,20.925740827554105,48.49139981444279
HU_12380,Drávapiski,18.097253263143738,45.836683529807836
HU_12399,Kistokaj,20.841522258331228,48.04138664538039
HU_12405,Vámosszabadi,17.649910335203437,47.744043527467994
HU_12414,Fertőrákos,16.63445971655671,47.7228730032215
HU_12423,Rákócziújfalu,20.262378446505586,47.057439204049295
HU_12432,Fedémes,20.19073267917054,48.03919279993315
HU_12441,Abádszalók,20.59952651362429,47.47485535695658
HU_12450,Csökmő,21.294202106307548,47.033316477135145
HU_12469,Rátka,21.230866454695587,48.215810550331625
HU_12478,Kemenesszentpéter,17.231757084256564,47.42706020228161
HU_12487,Újcsanálos,21.000430084823176,48.13988555543621
HU_12496,Zalaistvánd,16.972885953092046,46.922002338218505
HU_12502,Kisnána,20.14372049190204,47.84957741931749
HU_12511,Dejtár,19.180263773506802,48.03784208299674
HU_12520,Ságújfalu,19.678989981578034,48.10597053011572
HU_12539,Gyűrűs,16.992315597802865,46.885718967541486
HU_12548,Abaliget,18.115304361529983,46.14471434277453
HU_12557,Fancsal,21.0646555429272,48.355655162100575
HU_12566,Dunafalva,18.764644673757545,46.08271037057776
HU_12575,Lenti,16.539255546447055,46.625849126428754
HU_12593,Tiszadob,21.174418619440956,48.00559194970182
HU_12609,Türje,17.10421496302664,46.986562102830675
HU_12618,Kertészsziget,21.06362427616357,47.152596329321796
HU_12627,Sokorópátka,17.70051540399576,47.48367628497801
HU_12636,Kisapostag,18.933536920812497,46.89549851348722
HU_12645,Óbánya,18.409404143815355,46.223295732540734
HU_12654,Zalahaláp,17.462359503355128,46.91805009979606
HU_12663,Kaposkeresztúr,17.955658973670264,46.336752170955826
HU_12672,Kisvarsány,22.280370813863684,48.143261040594574
HU_12681,Telekgerendás,20.94965892834449,46.65540586516521
HU_12690,Sződ,19.170262037852062,47.716791569567135
HU_12706,Háromhuta,21.412940620790472,48.37832116208711
HU_12715,Pázmándfalu,17.780866119408394,47.58353938171157
HU_12724,Csehimindszent,16.948614796506263,47.054597962507685
HU_12733,Horvátlövő,16.45586232883327,47.18578272713723
HU_12742,Ganna,17.53586216322763,47.230678043056464
HU_12751,Gerde,18.030245855065957,45.99007318750345
HU_12760,Nagybakónak,17.04224144693376,46.554118527958266
HU_12779,Nagylak,20.71318246566261,46.175086074492015
HU_12788,Berettyóújfalu,21.536984099505027,47.22392352969176
HU_12797,Ópusztaszer,20.05548422121637,46.49272276662292
HU_12803,Hajdúdorog,21.500679153171166,47.816463301145525
HU_12812,Mezőörs,17.87898152904143,47.56855301138587
HU_12821,Egerbakta,20.29173017540376,47.93524836406894
HU_12830,Bezeréd,17.015214996570723,46.865934655687916
HU_12849,Kisjakabfalva,18.44975031485958,45.87822312282508
HU_12858,Nagyhajmás,18.29082656298317,46.37252125384298
HU_12867,Pereked,18.37439847333745,46.090734647039625
HU_12876,Somogymeggyes,17.91499951071918,46.71621676815722
HU_12885,Nyékládháza,20.837094320894646,47.9992627971451
HU_12894,Üllő,19.345160493961846,47.3839342758118
HU_12900,Köröstarcsa,21.025146835492674,46.877088659442094
HU_12919,Vonyarcvashegy,17.315639043500838,46.76407932534954
HU_12928,Csaholc,22.73283895286662,47.985447440657346
HU_12937,Hercegszántó,18.937570567189262,45.94776247595348
HU_12946,Garabonc,17.123085196533555,46.58893633002926
HU_12955,Nyúl,17.687507071661333,47.58474476740768
HU_12964,Püski,17.410864761651588,47.88659196949472
HU_12973,Szentgáloskér,17.883119402236105,46.505542074746195
HU_12982,Vilyvitány,21.55833040908698,48.496393850616926
HU_12991,Galambok,17.129831232864518,46.52021010681308
HU_13000,Gemzse,22.199633520078862,48.13651510842154
HU_13019,Hodász,22.21139483771338,47.914278028309006
HU_13028,Kondorfa,16.395837622635486,46.89601911040109
HU_13037,Zsurk,22.216410322567825,48.400013013027284
HU_13046,Szamosszeg,22.370820726268185,48.04250062672257
HU_13055,Kissziget,16.67018727998019,46.62539677740158
HU_13064,Magyarszerdahely,16.934644269309544,46.55504206582844
HU_13082,Kozmadombja,16.552627317693165,46.7615671343109
HU_13091,Zalaszentmárton,17.062296718161203,46.70261378607241
HU_13116,Boldogasszonyfa,17.837358519685782,46.18437908407494
HU_13125,Takácsi,17.470827695754284,47.39870486584075
HU_13134,Golop,21.18665748298005,48.23801186801792
HU_13143,Jéke,22.15306872435369,48.23753076426303
HU_13152,Cece,18.635534733553392,46.76982261860697
HU_13161,Röszke,20.03335259733062,46.18736771240209
HU_13170,Csépa,20.13402493197058,46.80812179613492
HU_13198,Győrladamér,17.56801128046404,47.75185071397787
HU_13204,Hont,18.96118620442783,48.05752146029856
HU_13213,Tunyogmatolcs,22.453817212486292,47.97073415531517
HU_13222,Mihálygerge,19.640716046979534,48.191128452892194
HU_13231,Szentdomonkos,20.186761109282074,48.06615117999421
HU_13240,Tarnalelesz,20.180406589151147,48.059678461920186
HU_13259,Szabadegyháza,18.697465381887707,47.078508602624744
HU_13268,Sóstófalva,20.974880449517528,48.154998003969375
HU_13277,Szigethalom,19.008485341001375,47.31876325957391
HU_13286,Felsőegerszeg,18.13537749429759,46.25183041727035
HU_13295,Galgagyörk,19.377532694587767,47.74373214434714
HU_13301,Zalaszentlőrinc,16.88858832292308,46.91822005164889
HU_13310,Bicsérd,18.078398944839062,46.02348042133851
HU_13329,Almamellék,17.845211685291275,46.15240675502649
HU_13338,Gyöngyösoroszi,19.89122328777352,47.82753940719481
HU_13347,Gerényes,18.184324656006694,46.30482466687242
HU_13356,Égerszög,20.598752199207166,48.435492696671986
HU_13365,Botykapeterd,17.87127476821477,46.0513971694476
HU_13374,Kázsmárk,20.974121473142795,48.276015553273886
HU_13383,Domaszék,20.001799263391966,46.248030939306254
HU_13408,Ballószög,19.586443911640956,46.866275867190524
HU_13426,Kemenesmihályfa,17.12054064036825,47.2876546832063
HU_13435,Nagykáta,19.741397359632526,47.413126253187066
HU_13444,Mecseknádasd,18.469413534799052,46.227472514937645
HU_13453,Őrimagyarósd,16.531747499577644,46.88768058572244
HU_13462,Iváncsa,18.814938113220467,47.149430471102164
HU_13471,Bucsa,20.999071395795195,47.20386588023132
HU_13480,Erdőkertes,19.305949298099772,47.67211764014998
HU_13499,Erzsébet,18.461932678216993,46.10161606530246
HU_13505,Csikvánd,17.45711631483428,47.46857949169722
HU_13514,Jászszentandrás,20.173458180477017,47.583995935309765
HU_13523,Szúcs,20.248791013696245,48.05048110207179
HU_13532,Körmend,16.599781017882332,47.01156812741795
HU_13541,Tiszaszalka,22.31739281374873,48.188973311164
HU_13550,Nyírtelek,21.63395601098387,48.013746620117324
HU_13569,Gosztola,16.541745850783144,46.58828291109
HU_13578,Budapest,19.08426972889644,47.500494063555756
HU_13587,Felsőcsatár,16.438735511762836,47.21287634174387
HU_13596,Bükkábrány,20.682211798012684,47.87658463873365
HU_13602,Túristvándi,22.647241584417916,48.051627314991364
HU_13611,Drávagárdony,17.608261342313426,45.9474684942684
HU_13620,Mucsfa,18.42159305708883,46.35698941307208
HU_13639,Besenyőd,22.00383069157452,47.96357986738349
HU_13648,Egerszólát,20.268459094594768,47.89102979905854
HU_13657,Balassagyarmat,19.299969506797073,48.076155038790695
HU_13666,Királyhegyes,20.613431795384496,46.27137937559671
HU_13675,Tengeri,18.09065080411488,45.91501796053759
HU_13684,Perenye,16.58064383096345,47.291167734263084
HU_13693,Táska,17.514302187340355,46.63824841815026
HU_13709,Nagyszokoly,18.210200572694657,46.72455453590618
HU_13718,Horpács,19.127901195949452,47.9955671838859
HU_13727,Gacsály,22.75728460170844,47.92701288444671
HU_13736,Zalavár,17.161692827654974,46.674684343606046
HU_13745,Kőkút,17.596022619267107,46.17167299210309
HU_13754,Szanda,19.43304981445353,47.92756648587766
HU_13763,Telkibánya,21.358289012900382,48.486179456674556
HU_13772,Sáska,17.482889622755213,46.934257738077264
HU_13781,Kiskorpád,17.60535623185485,46.36065663646398
HU_13790,Polány,17.774142363049727,46.559707550497905
HU_13806,Kömpöc,19.87104449202718,46.46087266494943
HU_13815,Tiszaföldvár,20.250997667901917,46.9737212928957
HU_13824,Somodor,17.844144922088557,46.460586010474046
HU_13833,Mezőcsát,20.904535498930667,47.822398150599405
HU_13842,Kozárd,19.624176119883018,47.91477703231939
HU_13851,Csertő,17.80389523145806,46.083461047805024
HU_13860,Pusztadobos,22.2185376830224,48.060543894240354
HU_13879,Ivád,20.063892088296218,48.02026955923338
HU_13888,Tiszakeszi,20.987018230385736,47.78729173841258
HU_13897,Vértesboglár,18.527960332823113,47.428117901836735
HU_13903,Nádasdladány,18.241142418204472,47.133952975534065
HU_13912,Magyarkeresztúr,17.166779396749185,47.50494330399974
HU_13921,Iklódbördőce,16.628929304723655,46.59685338428322
HU_13930,Porrogszentkirály,17.03701727447122,46.281461511271544
HU_13949,Hévízgyörk,19.522424088518687,47.642439437866976
HU_13958,Ják,16.582664597737065,47.144704222194456
HU_13976,Tiszakarád,21.728152431871965,48.20802680358247
HU_13985,Felsőmocsolád,17.82671968937919,46.57407820487859
HU_13994,Bolhás,17.28625313820992,46.28040838134377
HU_14003,Nyíracsád,21.970187756641394,47.60291833853564
HU_14012,Őrtilos,16.924183258863557,46.28354880530259
HU_14021,Lukácsháza,16.58299259481237,47.33296077195069
HU_14030,Nagymányok,18.453390450992753,46.27746844039367
HU_14058,Fülöpszállás,19.23773519506416,46.81996638496719
HU_14067,Pápoc,17.129800062036512,47.41145569271339
HU_14076,Tenk,20.34200227885845,47.65512015724899
HU_14085,Sénye,17.11748026112686,46.901153890017966
HU_14094,Tiszaug,20.052169352610345,46.85337886351843
HU_14100,Kajdacs,18.625705612174457,46.56268403921152
HU_14119,Bezedek,18.582920808873617,45.865741158211975
HU_14128,Tarnaörs,20.059019599874954,47.59908465218139
HU_14137,Bojt,21.731752735913748,47.19253616365222
HU_14146,Tápiószele,19.877578875627954,47.33226034460622
HU_14155,Tokod,18.66282476231112,47.72925509063727
HU_14164,Harc,18.618301862833828,46.40538524862537
HU_14173,Bánd,17.770820821067694,47.128381686873276
HU_14182,Várvölgy,17.297962386016824,46.86878624771686
HU_14191,Nagyváty,17.935951876808442,46.0606629509302
HU_14207,Rákóczifalva,20.225186490712755,47.087820413645154
HU_14225,Szentmargitfalva,16.663921863744655,46.49801366086235
HU_14234,Buják,19.546999548607914,47.88299469251337
HU_14243,Somlóvecse,17.343091873624832,47.198144225177735
HU_14252,Apátfalva,20.588731152192924,46.17356213014456
HU_14261,Táp,17.831621819872186,47.51640673350441
HU_14270,Káptalanfa,17.345106907041927,47.05946609946798
HU_14289,Csokvaomány,20.37464992227451,48.16473325106674
HU_14298,Ramocsa,16.44587123779806,46.77634381770154
HU_14304,Závod,18.43162100901089,46.39775650598037
HU_14313,Sajókaza,20.589446472395302,48.28692545002479
HU_14322,Vaspör,16.645097654816283,46.913279584140085
HU_14331,Arló,20.257834197338443,48.17528157456821
HU_14340,Pilisvörösvár,18.906227112640565,47.61871485225964
HU_14359,Kékcse,22.01032342491888,48.251830425473365
HU_14368,Bosta,18.22320145839679,45.95515475570859
HU_14377,Fülpösdaróc,22.47519926114663,47.936706175567146
HU_14386,Kercseliget,18.0671943533715,46.32962130667083
HU_14395,Bakháza,17.35781387359032,46.106008918960526
HU_14401,Bodrogolaszi,21.515468365958895,48.28519670815208
HU_14410,Kübekháza,20.277386084454506,46.14991225054391
HU_14429,Alsógagy,21.02638186804678,48.4071554234994
HU_14438,Répceszemere,16.97196914166559,47.42887514821003
HU_14447,Tiszatelek,21.806352193484468,48.18402682277381
HU_14456,Szentes,20.260721897508436,46.65458432694045
HU_14465,Tabajd,18.631849686250813,47.40278268763219
HU_14474,Boldogkőváralja,21.237516500771978,48.3383441363823
HU_14483,Máriakéménd,18.464581970347275,46.027146477923054
HU_14492,Ózd,20.27543223135084,48.221316593295974
HU_14508,Dombrád,21.9194423259549,48.22725110178659
HU_14517,Kovácsszénája,18.104547007474096,46.17424502491355
HU_14526,Heves,20.281637770569272,47.59694756527033
HU_14535,Kömlő,20.440667513624273,47.60209862801305
HU_14544,Tataháza,19.295145023156618,46.17102741914971
HU_14553,Kapolcs,17.608790369521667,46.95298507906505
HU_14562,Balatonmáriafürdő,17.38649993076087,46.70522868187894
HU_14571,Tápiószentmárton,19.7556819251824,47.339793180229506
HU_14580,Vámosgyörk,19.92342430369189,47.686843972711074
HU_14599,Görgeteg,17.447010362866248,46.14853104520997
HU_14605,Lápafő,18.052067979728065,46.51859434392507
HU_14614,Ebes,21.491711248357753,47.47246783743014
HU_14623,Zákány,16.948819340895856,46.26124897476595
HU_14632,Fonyód,17.554303437699712,46.740526801295104
HU_14641,Márkháza,19.696501331757727,48.02281336553041
HU_14650,Nagynyárád,18.579724843012695,45.945779371769575
HU_14669,Pilismarót,18.873905967158688,47.80465730188756
HU_14678,Darvas,21.33717844296011,47.10100792812554
HU_14687,Pinnye,16.758674902773784,47.57970659354414
HU_14696,Nyíribrony,21.974850170714188,48.02410576256443
HU_14702,Kissikátor,20.12035546850347,48.19166271913558
HU_14711,Szálka,18.636264033868972,46.278775389260765
HU_14720,Pálfiszeg,16.726216189915135,46.78704136791666
HU_14739,Rakamaz,21.453529241067397,48.12070725080274
HU_14748,Kimle,17.367419727688958,47.81630257103932
HU_14757,Noszlop,17.455722963221316,47.17893340011783
HU_14766,Dunatetétlen,19.09717432854497,46.75781867740404
HU_14775,Nagybörzsöny,18.830684904161792,47.936492346881984
HU_14784,Tardona,20.530286702040094,48.168939806009845
HU_14793,Rábakecöl,17.113663297983155,47.43814902623486
HU_14809,Mersevát,17.204140262391057,47.28860361348366
HU_14818,Bonyhádvarasd,18.479872509435626,46.370994788200456
HU_14827,Székesfehérvár,18.41583412382942,47.19073082434091
HU_14836,Zagyvarékas,20.125570175763073,47.26538378096428
HU_14845,Nyírbátor,22.13209066982805,47.837851590898325
HU_14854,Szabadi,18.03368612523382,46.366659754234774
HU_14863,Látrány,17.73787591250486,46.75409002794555
HU_14872,Mátraderecske,20.083976955760694,47.9494195947553
HU_14881,Sóshartyán,19.681851469448638,48.070338154445714
HU_14890,Tomor,20.892711054295823,48.328937161279065
HU_14906,Sármellék,17.165023328526473,46.717588669612724
HU_14915,Mályinka,20.49856413450467,48.15329659045784
HU_14924,Újszentiván,20.18512123686514,46.18938775694518
HU_14933,Bodony,20.02147817479652,47.942031655295835
HU_14942,Ságvár,18.103768509650564,46.835363211474245
HU_14951,Sukoró,18.606361775090143,47.241031740695504
HU_14960,Zebegény,18.916638257111025,47.803976060483876
HU_14979,Nagyrécse,17.055655837506052,46.48634278878517
HU_14988,Pecöl,16.826012935575566,47.204321086453376
HU_14997,Hegyháthodász,16.662140248562093,46.928982814782294
HU_15006,Németkér,18.761485240432926,46.717143795072445
HU_15015,Tápióbicske,19.673261965354115,47.36082671393604
HU_15024,Páty,18.824177172223756,47.512991006774286
HU_15033,Enese,17.426439363118668,47.646611643107406
HU_15042,Babót,17.066968167565868,47.580517977706805
HU_15051,Matty,18.268717598651392,45.79717549686531
HU_15060,Nagymizdó,16.656388193061463,46.98989681100454
HU_15079,Szabadszentkirály,18.046321862458267,46.006787206315906
HU_15088,Hetyefő,17.15397410262389,47.05076071623571
HU_15097,Baktüttös,16.823081699047876,46.70106199842899
HU_15103,Szenna,17.742346648182522,46.31396534496874
HU_15112,Kerkafalva,16.49057986592954,46.77800525030119
HU_15121,Osli,17.079482921869833,47.63882927231342
HU_15130,Debrecen,21.620941682859396,47.53583089471677
HU_15149,Vámosújfalu,21.449727238058376,48.25531931225276
HU_15158,Zsana,19.660191962468502,46.380327973871616
HU_15167,Bakonszeg,21.441169222648234,47.18958083792014
HU_15176,Alcsútdoboz,18.603221522609722,47.4287392811832
HU_15185,Szigetszentmárton,18.9557782467929,47.22872023878455
HU_15194,Szólád,17.840014112121313,46.78862343440096
HU_15200,Békéscsaba,21.09492692970272,46.674929900119416
HU_15219,Marócsa,17.83541091733614,45.91752314745639
HU_15228,Győrzámoly,17.57328453970857,47.746613709861265
HU_15237,Egyházasfalu,16.75435886709264,47.4705289423606
HU_15246,Pusztamonostor,19.79804246767817,47.555899451426974
HU_15255,Lábatlan,18.493495535291043,47.74734172655811
HU_15264,Kéked,21.348940604850522,48.549148034203235
HU_15273,Rábaszentandrás,17.330558147634182,47.461053591593064
HU_15282,Vértessomló,18.369808605068627,47.512762026388984
HU_15291,Újszász,20.074705472103993,47.29263008412553
HU_15307,Kápolna,20.244893204559773,47.75491403007494
HU_15316,Szakadát,18.46400787080732,46.5404519451532
HU_15325,Szátok,19.23597439735201,47.95732033978159
HU_15334,Vasegerszeg,16.916535374402397,47.35903505001605
HU_15343,Fertőszentmiklós,16.87302415920765,47.59048761887887
HU_15352,Nyergesújfalu,18.554641852081634,47.75773181866977
HU_15361,Hajmáskér,18.029937518921596,47.14776703148565
HU_15370,Etes,19.71386182841378,48.10742269622905
HU_15389,Pécsdevecser,18.393023910932907,45.948804163583596
HU_15398,Pirtó,19.433388026307966,46.51386976571327
HU_15404,Szulimán,17.803037557324853,46.12463918608524
HU_15413,Pusztaradvány,21.13828026758894,48.46984379272774
HU_15422,Rábatamási,17.17432294912666,47.58833031839481
HU_15431,Petőfiszállás,19.858200489060643,46.61703820596201
HU_15440,Szentendre,19.06513393074883,47.67230025092545
HU_15459,Regöly,18.38653531530805,46.57953761934874
HU_15468,Nagyhuta,21.471692820845302,48.44303724781013
HU_15477,Kismarja,21.822027973956672,47.24860012813401
HU_15486,Kiszsidány,16.641088796948278,47.4121088131527
HU_15495,Basal,17.781951638542733,46.07349436514986
HU_15501,Bősárkány,17.24804397548787,47.690355152407236
HU_15510,Kőröshegy,17.883142947954205,46.83863359981692
HU_15529,Pér,17.801088035679715,47.61336547309505
HU_15538,Kővágószőlős,18.123988835748182,46.077935936150205
HU_15547,Pénzesgyőr,17.790436707053704,47.229643874803656
HU_15556,Sand,17.127254379499487,46.425104625762806
HU_15565,Balatonudvari,17.8016726207188,46.90392580435553
HU_15574,Nagykörű,20.45706991047398,47.272401883719226
HU_15583,Pusztazámor,18.78442979783033,47.40620297939225
HU_15592,Patosfa,17.6626479966263,46.12734324501042
HU_15608,Gesztely,20.967622200198033,48.10105307062903
HU_15617,Zalkod,21.45988993710765,48.18656767937405
HU_15626,Somogysámson,17.30816776548576,46.59981352709545
HU_15635,Tarrós,18.141068714040532,46.2812659216366
HU_15644,Tiszacsege,20.99946265887961,47.69831948790794
HU_15653,Győrszemere,17.57213753462493,47.566034856277575
HU_15662,Abaújalpár,21.2412218043418,48.31104988760648
HU_15671,Pósfa,16.852386651253006,47.3285539664313
HU_15680,Jósvafő,20.554121121644464,48.48207372718808
HU_15699,Csikéria,19.475794073667835,46.121866175574915
HU_15705,Vilonya,18.058247288126918,47.1098452564592
HU_15714,Szárföld,17.125394655275567,47.5908612742103
HU_15723,Mesteri,17.09416261426214,47.25362023454173
HU_15732,Kaposújlak,17.749741081187157,46.35745584189755
HU_15741,Egyek,20.893612827731957,47.62667800296515
HU_15750,Gánt,18.38557825304417,47.38262537284629
HU_15769,Esztergályhorváti,17.111915110281934,46.702970967870435
HU_15778,Barnag,17.743077983727012,46.97850954417529
HU_15787,Tiszaörs,20.822939658813848,47.50766303573824
HU_15796,Ludas,20.090433165962715,47.73393602675905
HU_15802,Nyírbéltek,22.129561309681044,47.698117205802205
HU_15811,Jászboldogháza,19.998498533069785,47.36931228675369
HU_15820,Felsőnána,18.529116296685526,46.46684737504345
HU_15839,Hernádbűd,21.135344354429233,48.29350600071357
HU_15848,Zengővárkony,18.437266573934803,46.1607844135206
HU_15857,Lak,20.862477298204873,48.35483287423538
HU_15866,Szentlőrinc,17.993198842169576,46.03869156042367
HU_15875,Dunaszentpál,17.513395116535893,47.77683332467536
HU_15884,Drávatamási,17.56873604877134,45.94281733801066
HU_15893,Pácin,21.83124333395117,48.3264520458022
HU_15909,Nágocs,17.961201756266785,46.66056804147514
HU_15918,Gyúró,18.737649037642083,47.37216756710002
HU_15927,Jákó,17.556331377536537,46.3344718588898
HU_15936,Gönc,21.268334319486602,48.47392863770978
HU_15945,Sajómercse,20.38496884812136,48.23164088690909
HU_15954,Cirák,17.028705517538803,47.481818260896034
HU_15963,Balsa,21.536098852256213,48.179924709416774
HU_15972,Jenő,18.24916074044996,47.1047811794587
HU_15981,Somogydöröcske,18.00287866851518,46.59096907677867
HU_15990,Daraboshegy,16.56677127909232,46.96032698804554
HU_16009,Dötk,17.007192665071614,46.94467875042272
HU_16018,Mélykút,19.38413265148161,46.21335044045302
HU_16027,Monyoród,18.474342898868283,46.010217926999786
HU_16036,Kisnamény,22.69179388991494,47.9577123920825
HU_16045,Kunágota,21.04649467918689,46.42410227066233
HU_16054,Sajószentpéter,20.710126952917282,48.21542993190627
HU_16063,Szajla,20.14861514066194,47.969356441515515
HU_16072,Csajág,18.18158265633884,47.04040629673418
HU_16081,Kispáli,16.82676727712181,46.91183707838601
HU_16090,Atkár,19.88643974963408,47.71987634410751
HU_16106,Mesztegnyő,17.425097757348205,46.49607136470326
HU_16115,Pellérd,18.15494384619157,46.03105100470416
HU_16124,Borsodgeszt,20.680339817120604,47.96512948554675
HU_16133,Rakacaszend,20.83751989229113,48.46363614058297
HU_16142,Külsővat,17.231822878859095,47.29462122271518
HU_16151,Dozmat,16.51309850049904,47.231942137506124
HU_16160,Tarnaszentmiklós,20.38335650180735,47.52765051749937
HU_16179,Szögliget,20.681500209523975,48.51804591475972
HU_16188,Aszód,19.48849812444903,47.65554804376336
HU_16197,Ambrózfalva,20.729871193168094,46.35020865130304
HU_16203,Záhony,22.180078808611047,48.404911744495166
HU_16212,Tanakajd,16.73241283489187,47.19116796681631
HU_16221,Lipót,17.46533766978511,47.86314406057796
HU_16230,Tiszaderzs,20.643664272766465,47.510375664834356
HU_16249,Kiscsehi,16.67974836371266,46.517713182065194
HU_16258,Lad,17.64895971123415,46.138736605288486
HU_16267,Szentkirályszabadja,17.9685744554714,47.056474932796846
HU_16276,Ordas,18.89035338022888,46.630612364782486
HU_16285,Mindszentgodisa,18.07241967306472,46.227023261239616
HU_16294,Uszód,18.90507737209416,46.571956510218214
HU_16300,Szamoskér,22.424101701258557,48.0129535187537
HU_16319,Völcsej,16.769953330603496,47.49616191182715
HU_16328,Felsőtárkány,20.419677632449257,47.97538700750553
HU_16346,Besnyő,18.807257857820936,47.1875094846463
HU_16355,Szentlászló,17.83245651900135,46.15274913915296
HU_16364,Kisvásárhely,17.20484566724559,46.99837978110406
HU_16373,Csávoly,19.14709320634171,46.19057474429273
HU_16382,Tótszentmárton,16.801545172800914,46.419998120850394
HU_16391,Nagybárkány,19.705998210375935,47.998785934014215
HU_16407,Tótújfalu,17.646061826377302,45.90028360600313
HU_16416,Császár,18.138648239156623,47.495079585231124
HU_16425,Alsópetény,19.23034578523561,47.87159352775829
HU_16434,Tótkomlós,20.73670113950523,46.41013133736737
HU_16443,Markóc,17.760109735750735,45.84825064244037
HU_16452,Nagyvejke,18.47401392808714,46.37435416928643
HU_16461,Berkesd,18.4077598216788,46.07761203638666
HU_16470,Balatonújlak,17.384125610875085,46.675194109857486
HU_16489,Szápár,18.038025849411834,47.319340972178246
HU_16498,Egyházasharaszti,18.32133410863072,45.798196740999465
HU_16504,Szaknyér,16.528023828976718,46.86085295179423
HU_16513,Nagyrada,17.10951309168353,46.625449153661016
HU_16522,Nyírvasvári,22.1897581767011,47.81098279373215
HU_16531,Fűzvölgy,16.942180883200272,46.526439740406424
HU_16540,Markaz,20.053305044550513,47.82409452657506
HU_16559,Komlóska,21.50783841595211,48.35626408186861
HU_16568,Görbeháza,21.236828025570052,47.82186766571229
HU_16577,Imola,20.537476547986625,48.41634256213522
HU_16595,Oroszi,17.41253065058626,47.1560390082607
HU_16601,Balatonszabadi,18.13177449498161,46.90010989452368
HU_16610,Egercsehi,20.26033002509957,48.05364893282787
HU_16629,Magy,21.985684839976653,47.94865105559306
HU_16638,Sajópetri,20.89012558731525,48.03889554604426
HU_16647,Fegyvernek,20.528954657845834,47.254869228628955
HU_16656,Vászoly,17.762358468950083,46.94122461812817
HU_16665,Kölcse,22.722155173787623,48.05214120104117
HU_16674,Töltéstava,17.736284839907427,47.631111198683826
HU_16683,Káloz,18.483950978833487,46.957791793355305
HU_16692,Szőc,17.512210183930126,47.02008390383466
HU_16708,Écs,17.71097066337661,47.56507650346562
HU_16717,Gic,17.750291094318342,47.43071674906501
HU_16726,Hedrehely,17.640506232727134,46.200291287989984
HU_16735,Tarany,17.31132291435845,46.180634299317255
HU_16744,Bajna,18.598989379095222,47.655356741582125
HU_16753,Szalonna,20.741814281324462,48.45175605576267
HU_16762,Váncsod,21.640377723976886,47.200302637268216
HU_16771,Székelyszabar,18.602721759634335,46.046630585102946
HU_16780,Hejőpapi,20.905252360539315,47.896658793286235
HU_16799,Borsodszirák,20.760578293193472,48.27477245551302
HU_16805,Kékesd,18.467336865264066,46.101352578771575
HU_16814,Szedres,18.681365206349362,46.478629702041914
HU_16823,Ordacsehi,17.645353402845654,46.74716830284875
HU_16832,Kőszeg,16.54141956272248,47.38630202533068
HU_16841,Csány,19.82897544401869,47.64649562061282
HU_16850,Pórszombat,16.57467535359834,46.72881633710186
HU_16869,Zsebeháza,17.178109732007183,47.515146335594054
HU_16878,Hugyag,19.426797553531287,48.08428603867088
HU_16887,Horvátzsidány,16.625093019011167,47.4144396947435
HU_16896,Zalaigrice,17.022354141099,46.76037656498905
HU_16902,Tornabarakony,20.81651743124844,48.49292688738389
HU_16911,Kemeneskápolna,17.10696854653615,47.20579196704769
HU_16920,Pusztaapáti,16.608197242961538,46.76224321805617
HU_16939,Orgovány,19.475426683758183,46.74985013836113
HU_16948,Mátyásdomb,18.345972399805326,46.925007408431135
HU_16957,Tornyospálca,22.19505342820428,48.26360636461973
HU_16966,Tiszasziget,20.16170695129997,46.171752065521794
HU_16975,Kisherend,18.330011794311183,45.96918335183909
HU_16984,Szellő,18.457365372305794,46.070064411300564
HU_16993,Furta,21.460931050731965,47.12875627155845
HU_17002,Balatongyörök,17.346327359008,46.75997316310018
HU_17011,Paloznak,17.935641551068848,46.97910219359399
HU_17020,Bajánsenye,16.38173289857771,46.803754473538824
HU_17039,Tagyon,17.678657706257727,46.89378888610492
HU_17048,Pusztafalu,21.486931782983707,48.54248054068936
HU_17057,Zalavég,17.025740733242525,47.00483274392246
HU_17066,Keresztéte,20.954468264554077,48.49745299092162
HU_17075,Jánd,22.368040046818447,48.11817424145685
HU_17084,Penészlek,22.148556470233295,47.63654384243844
HU_17093,Orfalu,16.26843709909283,46.88791342250194
HU_17109,Füzér,21.433949377081568,48.53910589643453
HU_17118,Resznek,16.479239660921575,46.663008885326605
HU_17127,Beleg,17.419890775369385,46.313153967423105
HU_17136,Hernádszentandrás,21.080632180985987,48.28929527382941
HU_17145,Kenderes,20.6723224029767,47.25109247746873
HU_17154,Balatonszepezd,17.655975932474274,46.846653427888334
HU_17163,Tarnazsadány,20.15496511780134,47.67544364815591
HU_17172,Dabronc,17.171224688771932,47.027432590587566
HU_17181,Ecséd,19.768584735148686,47.73230770748427
HU_17190,Helesfa,17.981471065375892,46.094015862451165
HU_17206,Nyíregyháza,21.721195948575932,47.95987768351302
HU_17215,Porcsalma,22.575814877352514,47.878799470623726
HU_17224,Petneháza,22.083514582684156,48.05637010345707
HU_17233,Nagymágocs,20.48548726133483,46.583427181006286
HU_17242,Pogány,18.25907625631356,45.98578096811563
HU_17251,Várgesztes,18.39601578572269,47.47337683557074
HU_17260,Ráckeve,18.94090500025132,47.15830077839986
HU_17279,Juta,17.73171982753833,46.41041385091023
HU_17288,Magyarszecsőd,16.645549795002843,47.03510391635568
HU_17297,Rábaszentmiklós,17.41439853568142,47.53510210976092
HU_17303,Tápiógyörgye,19.950475951909567,47.333869385721194
HU_17312,Százhalombatta,18.912542367180016,47.31592499810367
HU_17321,Taliándörögd,17.57219172951907,46.97871938027227
HU_17330,Kisbér,18.031230807006196,47.498643465375125
HU_17349,Kiscsécs,21.020524796749307,47.95972013118311
HU_17358,Buzsák,17.578515518514173,46.64845198503503
HU_17367,Nárai,16.556731217987732,47.192090264402125
HU_17376,Aba,18.527807480462382,47.03065468247459
HU_17385,Alsómocsolád,18.247960533103047,46.31718274603367
HU_17394,Geszt,21.56097734274748,46.88633113696539
HU_17400,Zalaapáti,17.10501835354518,46.73397678617514
HU_17419,Drávafok,17.764656209117764,45.88433183663321
HU_17428,Rozsály,22.794307020306597,47.9245713905927
HU_17437,Jásd,18.027572980580633,47.28498816811288
HU_17446,Kelevíz,17.41658411634208,46.522010061028375
HU_17455,Kokad,21.930638073335352,47.40434557652745
HU_17464,Kásád,18.39727052042104,45.78046954029574
HU_17473,Hajdúszovát,21.47625596188022,47.392325596998496
HU_17482,Újbarok,18.55609380188721,47.47932896354491
HU_17491,Zselicszentpál,17.81857505435224,46.302299338852755
HU_17507,Románd,17.776340463301057,47.43980597271482
HU_17516,Gáborjánháza,16.41239401714243,46.62709519032413
HU_17525,Polgárdi,18.302968477285827,47.06124401865812
HU_17534,Gyöngyöshalász,19.925020657697797,47.74259489677717
HU_17543,Bocfölde,16.846030092250178,46.77426444151256
HU_17552,Mezőfalva,18.782382948644265,46.928809835042145
HU_17561,Nemesvid,17.253214707009718,46.4889609224467
HU_17570,Lesencefalu,17.350346993476073,46.84950051598919
HU_17589,Jármi,22.254501594556224,47.97119608683746
HU_17598,Valkó,19.512838855375417,47.562969906769176
HU_17604,Liget,18.19602976100717,46.23568063139355
HU_17613,Gombosszeg,16.72299006616061,46.75236546163361
HU_17622,Úrhida,18.332336072915666,47.13067488621589
HU_17631,Siófok,18.05635367269133,46.90026912710783
HU_17640,Keszőhidegkút,18.42118454206042,46.624829652731556
HU_17659,Egyházasdengeleg,19.577420427256257,47.79263847341344
HU_17668,Vácrátót,19.221627001048756,47.727321961718275
HU_17677,Lajosmizse,19.55906554430905,47.02513580217434
HU_17686,Ágasegyháza,19.45200074674423,46.84098655213696
HU_17695,Tiszasüly,20.40455557120131,47.391751080850284
HU_17710,Kisdorog,18.490798484677867,46.38377611081341
HU_17729,Szarvaskend,16.675083856547953,46.98734016391144
HU_17738,Igar,18.504859221197016,46.76781596026299
HU_17747,Zádor,17.66212619738688,45.96276859631073
HU_17756,Demecser,21.924134738550947,48.11489025831423
HU_17765,Zsombó,19.981192456321107,46.32697888623333
HU_17774,Pusztavám,18.23235701557957,47.42681244284682
HU_17783,Mogyoród,19.255279196752916,47.58963416031157
HU_17792,Patapoklosi,17.74223516143722,46.083461322205814
HU_17808,Újszilvás,19.91617807780039,47.27011218491776
HU_17817,Tiszabecs,22.815232168207736,48.096058690824265
HU_17826,Mándok,22.185143159917896,48.317672204338884
HU_17835,Fazekasboda,18.4898119498224,46.125856101957766
HU_17844,Tikos,17.27705828889489,46.63588169950597
HU_17853,Szilvágy,16.633062344954382,46.73793016028476
HU_17862,Pusztaberki,19.162871174065987,47.972951100012025
HU_17871,Lesencetomaj,17.35838743836497,46.85902132357252
HU_17880,Vásárosfalu,17.11499464962783,47.461766478646076
HU_17899,Kölked,18.70713692133595,45.94919500111983
HU_17905,Hegyeshalom,17.161118521363196,47.913286511045186
HU_17914,Felsőnyék,18.295204466481838,46.79354526280766
HU_17923,Jakabszállás,19.609298259179138,46.759293881852734
HU_17932,Fony,21.28670661129993,48.391390958701805
HU_17941,Nagyatád,17.36287534094001,46.227479761725036
HU_17950,Fürged,18.311508755029905,46.72243770695936
HU_17969,Gyalóka,16.686265595636243,47.43985164788658
HU_17978,Jászdózsa,20.015051780848864,47.56624458695534
HU_17987,Andornaktálya,20.420455359813317,47.85831359639051
HU_17996,Rábatöttös,16.811557187594836,47.1304065420275
HU_18005,Szamosangyalos,22.658235047320172,47.86260014910987
HU_18023,Nemesrádó,16.991266886368606,46.7775298918359
HU_18032,Hegyhátszentjakab,16.546283407023708,46.86532826163278
HU_18041,Karmacs,17.167485557084,46.83632293240188
HU_18050,Sámod,18.034750803120666,45.85017528122927
HU_18078,Somogyfajsz,17.571576962162375,46.508643677445704
HU_18096,Zalaszentjakab,17.133375003076203,46.48633080291477
HU_18102,Battonya,21.019664041834606,46.28812082052615
HU_18111,Nagycsány,17.946962774210522,45.87071948023852
HU_18120,Bolhó,17.299727711577468,46.04234888742436
HU_18139,Ácsteszér,18.008356227658773,47.40911067837793
HU_18148,Kötcse,17.85716825142285,46.75378491535878
HU_18157,Tatabánya,18.403043432553797,47.576675045220306
HU_18166,Kéleshalom,19.286628947714796,46.36531905768911
HU_18175,Gáborján,21.656488075303255,47.23367779041772
HU_18184,Baktakék,21.032885221421548,48.36723760036067
HU_18193,Gógánfa,17.183805037411254,47.02410836695129
HU_18209,Jászberény,19.911830581319318,47.50004634657382
HU_18218,Soltszentimre,19.28546327007967,46.76900983371094
HU_18227,Kaposmérő,17.700951796082613,46.35941169922465
HU_18236,Nemeske,17.71575498437001,46.0332649087002
HU_18245,Taktaharkány,21.129345890838813,48.08916644730827
HU_18254,Bodajk,18.235040380354203,47.32138993353179
HU_18263,Szárazd,18.39786320222686,46.57332433565355
HU_18272,Csép,18.06167960421639,47.57970068734879
HU_18281,Kisköre,20.492525601533583,47.49415242703379
HU_18290,Nyírkarász,22.103520219997428,48.09868409511211
HU_18306,Tokaj,21.41151962354064,48.1151090894577
HU_18315,Gyód,18.18130750109733,46.00455519585332
HU_18324,Vásárosnamény,22.316463101045215,48.12419521379214
HU_18333,Gilvánfa,17.96741792114371,45.922409058354994
HU_18342,Veresegyház,19.284638728025804,47.65766522922467
HU_18351,Uppony,20.43840878214016,48.21500334850526
HU_18360,Becsvölgye,16.689369991272233,46.761533132181356
HU_18379,Mezőnagymihály,20.733942905242284,47.806382017922175
HU_18388,Nagydorog,18.660371799172903,46.61978112754198
HU_18397,Dány,19.540009726728716,47.51697641309296
HU_18403,Hegykő,16.795842734088975,47.61988487750046
HU_18412,Várbalog,17.070220393972306,47.83588867799556
HU_18421,Keszthely,17.244083270228725,46.76552221376768
HU_18430,Velemér,16.362623269192223,46.74934613786677
HU_18449,Zalaszentmihály,16.946723561975006,46.72747392936401
HU_18458,Harta,19.038798374170696,46.70214857182735
HU_18467,Berekböszörmény,21.67907678112369,47.06079452048492
HU_18476,Csévharaszt,19.428088897366123,47.29643480402713
HU_18485,Mór,18.20953439764559,47.373465911720444
HU_18494,Garáb,19.630466076714153,47.988751529777325
HU_18500,Marcali,17.4090102606501,46.581867360644495
HU_18519,Vejti,17.97488141283068,45.81343295997499
HU_18528,Eperjeske,22.213847065742442,48.34268224303135
HU_18537,Sajópálfala,20.844037359377804,48.1663176693474
HU_18546,Somogyszob,17.29903016120312,46.29308263142388
HU_18555,Olasz,18.411328609730738,46.01329530921866
HU_18564,Zalaszentbalázs,16.921614667058854,46.58735235751245
HU_18573,Acsa,19.385699153689306,47.79525035320041
HU_18582,Túrony,18.23048564356121,45.90289590929694
HU_18591,Vaja,22.164875829447265,48.00094036487326
HU_18607,Szegerdő,17.284546805145034,46.623266674368566
HU_18616,Dunakeszi,19.136603852416847,47.62933601697642
HU_18625,Karancsalja,19.754136734422822,48.138405328285494
HU_18634,Hács,17.688940059884565,46.64770631131137
HU_18643,Göncruszka,21.244111217601997,48.44849233529882
HU_18652,Szentgyörgyvölgy,16.412492655848702,46.72365863924463
HU_18661,Ózdfalu,18.0202618855009,45.92789614103691
HU_18670,Páhi,19.390250040418348,46.71232572186057
HU_18689,Penc,19.25322697589633,47.80295258373668
HU_18698,Bázakerettye,16.73680668811703,46.52508294309982
HU_18704,Erdősmecske,18.51328612070568,46.176593677996934
HU_18722,Kupa,20.91770302684278,48.32809660110402
HU_18731,Pilisszentkereszt,18.899282020463748,47.694445622389075
HU_18740,Szabadhídvég,18.28209940826581,46.82157544377903
HU_18759,Hajós,19.118711166955812,46.40040176802102
HU_18768,Zalaköveskút,17.144661518945977,46.84876359239235
HU_18777,Bernecebaráti,18.904608713423308,48.033633885501644
HU_18786,Szügy,19.32886292451624,48.03223144694271
HU_18795,Darnó,22.656456658483485,47.956133105498054
HU_18801,Tornanádaska,20.788687294176402,48.55916237087678
HU_18810,Noszvaj,20.476834280835963,47.93815398577206
HU_18829,Alsórajk,17.00018283488895,46.64961335021661
HU_18838,Kisdombegyház,21.100048170121312,46.368925537624776
HU_18847,Mezősas,21.566037247977523,47.10880030142818
HU_18856,Lókút,17.85999386728434,47.20575259281837
HU_18865,Lúzsok,17.94842475011791,45.83331478238192
HU_18874,Mátészalka,22.324271025486137,47.9549655867945
HU_18883,Salköveskút,16.708680385012652,47.2996434461099
HU_18892,Szomolya,20.501198450626514,47.89161539174789
HU_18908,Kisasszonyfa,18.009916075020964,45.94631886990274
HU_18917,Murga,18.49300225842222,46.46107703207947
HU_18926,Csolnok,18.69987199778941,47.68242047261231
HU_18935,Tarján,18.50993606863081,47.60898218828835
HU_18944,Boldogkőújfalu,21.242656978200593,48.31756109375141
HU_18953,Ozmánbük,16.66314581915721,46.921638748337536
HU_18962,Kaposszekcső,18.130851858839403,46.339770851319656
HU_18971,Fehérgyarmat,22.514983033883883,47.99056164384855
HU_18980,Fadd,18.823278106588614,46.464585126745305
HU_18999,Ferencszállás,20.357083546677934,46.21467208980218
HU_19008,Belvárdgyula,18.429483242067203,45.97770050470948
HU_19017,Visnye,17.69156825634904,46.196688158378585
HU_19026,Pusztakovácsi,17.581374842821404,46.52886431671361
HU_19035,Tét,17.51221233044794,47.52092580960457
HU_19044,Szurdokpüspöki,19.696236941723157,47.857816590048124
HU_19053,Kisasszond,17.63893425274875,46.333679829894294
HU_19062,Árpádhalom,20.55363030331002,46.624947306610395
HU_19080,Söjtör,16.85578221473666,46.67497505210028
HU_19099,Szentpéterszeg,21.620789664973557,47.238667619807885
HU_19105,Zubogy,20.57551234597449,48.38008984342975
HU_19114,Lovasberény,18.55156644752395,47.311691181344784
HU_19123,Gyöngyössolymos,19.936904608022807,47.80173633902365
HU_19132,Kátoly,18.456053853309424,46.06799311234967
HU_19141,Kamond,17.204608880469063,47.14420559353911
HU_19150,Homokszentgyörgy,17.572577137281296,46.1188587610835
HU_19169,Szabolcs,21.50742285248349,48.17276221160795
HU_19178,Petrikeresztúr,16.72298014010334,46.74022996886288
HU_19187,Fityeház,16.907787070918353,46.376681371928335
HU_19196,Nagyvázsony,17.69856299760292,46.98236751492531
HU_19202,Dúzs,18.38034797415251,46.48978599362039
HU_19211,Nábrád,22.446416125210757,48.00747466084369
HU_19220,Ricse,21.969335350771306,48.324494515768215
HU_19239,Levél,17.200364786287455,47.89830785103559
HU_19248,Tésa,18.84126245383544,48.0346689794195
HU_19257,Okány,21.348825833744083,46.897227630326114
HU_19266,Szil,17.234110973940222,47.501513347100854
HU_19275,Ziliz,20.786338006136432,48.25274874715101
HU_19284,Cikó,18.555615423887748,46.247739352978115
HU_19293,Galvács,20.77625422321421,48.418303802161745
HU_19309,Győrsövényház,17.369903053696266,47.68858059909429
HU_19318,Ősagárd,19.195361591065023,47.86098956746405
HU_19327,Borota,19.220777019647443,46.26539440405455
HU_19336,Veszprémgalsa,17.27418183738773,47.08813824348809
HU_19345,Kétvölgy,16.228919425641095,46.886344532862864
HU_19354,Perkáta,18.786785838722544,47.04926106337319
HU_19363,Bábolna,17.977471667281204,47.644825605202165
HU_19372,Mátranovák,19.973943523052174,48.03488018608208
HU_19381,Tiszaladány,21.41205151242701,48.060200834249805
HU_19390,Bélmegyer,21.18280597577002,46.871435471120854
HU_19406,Bükkmogyorósd,20.357638135781244,48.128885847687904
HU_19415,Pécs,18.222233209556705,46.060323388071325
HU_19424,Kisar,22.521245775067676,48.05707859573336
HU_19433,Mezőkövesd,20.572228399389328,47.80935683960781
HU_19442,Somogyvár,17.644962513300634,46.58864645492919
HU_19451,Kutasó,19.539085281715256,47.94383087886827
HU_19460,Balatonendréd,17.97887960349101,46.84370599980361
HU_19479,Kustánszeg,16.676323710840208,46.78417601530726
HU_19488,Csehi,16.94796441200477,47.03637775901922
HU_19497,Nógrádsipek,19.506475695029064,48.00775467914018
HU_19503,Galgahévíz,19.5563469995635,47.6211587205546
HU_19512,Alsónemesapáti,16.9387301947461,46.85119402236628
HU_19521,Szőce,16.574664603774828,46.891964276329716
HU_19530,Szakmár,19.074590564453327,46.55868500514791
HU_19549,Szár,18.522310860982735,47.47915674000686
HU_19558,Gyügye,22.56246242177739,47.92826585658113
HU_19567,Pély,20.350725463053337,47.487549327413774
HU_19576,Krasznokvajda,20.978358307969255,48.46908375747245
HU_19585,Pincehely,18.438725202464408,46.684147754679685
HU_19594,Pusztaottlaka,21.002978396420705,46.54057932452968
HU_19600,Makkoshotyka,21.517833978906708,48.35776985978013
HU_19619,Iharos,17.09776361574631,46.343028683132836
HU_19628,Mezőberény,21.026636976051083,46.826618433573145
HU_19637,Páli,17.17151542729894,47.4806595057719
HU_19646,Ófalu,18.533536113978172,46.22228816173832
HU_19655,Máriapócs,22.01252099064704,47.8714195845699
HU_19664,Alsódobsza,21.00760223948175,48.18156061193082
HU_19673,Újkér,16.817661275791764,47.464786705359515
HU_19682,Újlengyel,19.450217334935406,47.22971937541372
HU_19691,Tetétlen,21.305443639501433,47.31646223562471
HU_19707,Buj,21.644363788394234,48.10008277617307
HU_19716,Nagykőrös,19.780152094870935,47.03309411582568
HU_19725,Versend,18.515809443518265,45.99565021341971
HU_19734,Kemeneshőgyész,17.294775900428238,47.355663339078326
HU_19743,Olaszfa,16.88146297479978,47.01337444312522
HU_19752,Nyalka,17.802232505062495,47.54499460716414
HU_19761,Kerkáskápolna,16.42787486096593,46.78467355351156
HU_19770,Osztopán,17.66669994904957,46.52204913175051
HU_19789,Kecel,19.247675002436054,46.525122027403256
HU_19798,Szalmatercs,19.645057984098937,48.12410453302412
HU_19813,Kétpó,20.48038398378833,47.07338164315508
HU_19831,Szilágy,18.410489268835782,46.106720933147514
HU_19840,Hernádvécse,21.171937378720738,48.440756910248155
HU_19859,Nemespátró,17.006102412119454,46.32466176402729
HU_19868,Pápadereske,17.403734793947837,47.29401155044655
HU_19877,Nagypall,18.460336546980216,46.14881915347644
HU_19886,Váchartyán,19.25334054470718,47.72007535788081
HU_19895,Hernyék,16.646058747322733,46.6489243266934
HU_19901,Csányoszró,17.9099931535725,45.881544974405045
HU_19910,Kiskassa,18.39818131271549,45.9541777214452
HU_19929,Bókaháza,17.107939777604226,46.77165857671103
HU_19938,Pusztahencse,18.716414578543294,46.591495132904676
HU_19947,Szalkszentmárton,18.95622529447107,46.96834338165973
HU_19956,Biharkeresztes,21.721491820102006,47.12993141181123
HU_19965,Mátraballa,20.023706536820985,47.98466312187852
HU_19974,Fábiánsebestyén,20.45524658675436,46.67622746174918
HU_19983,Soltvadkert,19.3921842486795,46.58055388857789
HU_19992,Kemecse,21.79725215108662,48.06774697539309
HU_20002,Csákvár,18.460252798156716,47.39316245440164
HU_20011,Bagamér,21.992932345812882,47.45241387985542
HU_20039,Gétye,17.067975242651183,46.76345478256003
HU_20048,Bárna,19.93146104926488,48.10062056372012
HU_20057,Somogyegres,18.027993626508433,46.67503421637851
HU_20066,Nyársapát,19.80599846844521,47.114395054065376
HU_20075,Mátramindszent,19.93326552175534,47.98153777484684
HU_20084,Kemenesszentmárton,17.15784402167708,47.2950340597273
HU_20093,Törökkoppány,18.047606455671257,46.60391030692697
HU_20109,Kőszegszerdahely,16.51625386444069,47.34159894409075
HU_20118,Erk,20.069926229435403,47.60744892929792
HU_20127,Tata,18.31983228776288,47.650154388245156
HU_20136,Rábasebes,17.239982651846088,47.43879262738921
HU_20145,Csesztve,19.279530523024892,48.01698852246885
HU_20154,Dáka,17.390318617554115,47.26042771472374
HU_20163,Naszály,18.25840376894014,47.70556644185975
HU_20172,Tiszabezdéd,22.153284581016074,48.361612930028095
HU_20181,Tiszaroff,20.424864476830066,47.39821260528721
HU_20190,Lucfalva,19.689771765689265,48.03004524389058
HU_20206,Seregélyes,18.586781308149913,47.11002878721546
HU_20215,Parádsasvár,19.97486216524463,47.91057031753517
HU_20233,Jákfalva,20.575460956633748,48.335249379258414
HU_20242,Heréd,19.63524979191881,47.70820290817267
HU_20251,Csehbánya,17.685973051376056,47.17939639414774
HU_20260,Tivadar,22.518780722148918,48.060648990070696
HU_20279,Véménd,18.621296512707712,46.15120576403028
HU_20288,Egyed,17.34328935243745,47.52119060752057
HU_20297,Kiskunfélegyháza,19.850135815994626,46.7135678693372
HU_20303,Apagy,21.938717022020345,47.96037773687827
HU_20312,Kiskutas,16.796733951107846,46.91501838757251
HU_20321,Rinyaújnép,17.35424460709414,46.07990934775919
HU_20330,Somogygeszti,17.78030088308115,46.52583745159981
HU_20349,Vashosszúfalu,17.062403279973168,47.11513452825343
HU_20358,Előszállás,18.825713809855795,46.832144551648305
HU_20367,Pornóapáti,16.468866854124048,47.15309940341662
HU_20376,Almáskeresztúr,17.89237552538459,46.11801980014791
HU_20385,Mérges,17.445265595715878,47.60018624174463
HU_20394,Vasasszonyfa,16.6677427478207,47.31487157003333
HU_20400,Gyömöre,17.567342074196265,47.49686800112048
HU_20419,Újléta,21.875032220767483,47.46527019466433
HU_20428,Szelevény,20.192626792470215,46.80314877562242
HU_20437,Magyarpolány,17.54674948368573,47.16613537600619
HU_20446,Tiszainoka,20.153446682775087,46.90557113635166
HU_20455,Csanádapáca,20.886427893245823,46.539136412614695
HU_20464,Baranyahídvég,18.024818015059928,45.84381568021519
HU_20473,Kaposvár,17.78833105709211,46.363926707306696
HU_20482,Alsóberecki,21.69206661758276,48.34200069365022
HU_20491,Eger,20.375233898745048,47.904687176350684
HU_20507,Kurd,18.310903759898466,46.446536198148564
HU_20516,Sárazsadány,21.500575713092456,48.267418325939985
HU_20525,Tass,19.04501154471326,47.01744029143377
HU_20534,Dunavarsány,19.05634763303675,47.29105406069844
HU_20543,Szalapa,17.151077933175266,46.99279441953033
HU_20552,Királyegyháza,17.967554855952525,45.997617467332795
HU_20561,Újireg,18.178724828809223,46.65748910593537
HU_20570,Tés,18.030468595077572,47.27236275827237
