gisco_id,lau_name,longitude,latitude
IT_001001,Agliè,7.763830056262598,45.36266251156839
IT_001002,Airasca,7.483004797143125,44.919597662245664
IT_001003,Ala di Stura,7.3029110803698725,45.312215732843285
IT_001004,Albiano d'Ivrea,7.9496304402479,45.43500267185093
IT_001006,Almese,7.400402740213174,45.11363506889555
IT_001007,Alpette,7.589669904639326,45.414622418377625
IT_001008,Alpignano,7.528296850494813,45.09645376093686
IT_001009,Andezeno,7.870285725346518,45.036523360128896
IT_001010,Andrate,7.882706876310376,45.522512753749616
IT_001011,Angrogna,7.227904491657023,44.8272131383843
IT_001012,Arignano,7.903276174950635,45.04088518800021
IT_001013,Avigliana,7.4002068468591045,45.08224963524786
IT_001014,Azeglio,7.989661938008047,45.425652391687386
IT_001015,Bairo,7.759751096632771,45.37424107960517
IT_001016,Balangero,7.523032470514505,45.269125236989005
IT_001017,Baldissero Canavese,7.74101849033306,45.407714155994334
IT_001018,Baldissero Torinese,7.805959424719524,45.072272266856565
IT_001019,Balme,7.220724579762566,45.3017415632985
IT_001020,Banchette,7.857406518369161,45.45325770501008
IT_001021,Barbania,7.619221101971099,45.292905364862804
IT_001022,Bardonecchia,6.7028980182245785,45.077745470677975
IT_001023,Barone Canavese,7.870563527219027,45.32511518497977
IT_001024,Beinasco,7.594112945274144,45.01206118944637
IT_001025,Bibiana,7.293816830465033,44.79937604354408
IT_001026,Bobbio Pellice,7.116928549700148,44.81090445554478
IT_001027,Bollengo,7.945551010048981,45.473327051253605
IT_001028,Borgaro Torinese,7.654552941703027,45.138812680358434
IT_001029,Borgiallo,7.662668446813967,45.408345958662785
IT_001030,Borgofranco d'Ivrea,7.856799427946666,45.51427988982807
IT_001031,Borgomasino,7.991888317416923,45.36288843775159
IT_001032,Borgone Susa,7.2472821805136505,45.11827138146561
IT_001033,Bosconero,7.765737924087314,45.269057698311336
IT_001034,Brandizzo,7.838568329140524,45.17991253881773
IT_001035,Bricherasio,7.299958751280673,44.822029312720325
IT_001036,Brosso,7.815227441829396,45.49947564629877
IT_001037,Brozolo,8.072378670564675,45.11622025784055
IT_001038,Bruino,7.474091523067244,45.01703601594814
IT_001039,Brusasco,8.052743732577017,45.15870674748752
IT_001040,Bruzolo,7.199726428027678,45.139512479713844
IT_001041,Buriasco,7.419720263182876,44.875872361242855
IT_001042,Burolo,7.9303217534504435,45.47738528697242
IT_001043,Busano,7.659072075106004,45.32947080301134
IT_001044,Bussoleno,7.14908690443007,45.1383513743315
IT_001045,Buttigliera Alta,7.437281376301229,45.07622037416873
IT_001046,Cafasse,7.514139137263726,45.24293889683444
IT_001047,Caluso,7.891000048934755,45.30355241425628
IT_001048,Cambiano,7.77655437423131,44.97070622544433
IT_001049,Campiglione Fenile,7.30281842779264,44.80759075912797
IT_001050,Candia Canavese,7.885317394115748,45.32613917396425
IT_001051,Candiolo,7.600480870761396,44.95879472668412
IT_001052,Canischio,7.606875497066407,45.371171525879724
IT_001053,Cantalupa,7.344664089754947,44.93830651657558
IT_001054,Cantoira,7.378420095386541,45.343365198577004
IT_001055,Caprie,7.320364130276055,45.11774796806709
IT_001056,Caravino,7.964609609438351,45.396111407030865
IT_001057,Carema,7.80905092133182,45.57762284230851
IT_001058,Carignano,7.672273498803879,44.906755829911724
IT_001059,Carmagnola,7.718635356232596,44.84764567921052
IT_001060,Casalborgone,7.938207577410534,45.129029574415874
IT_001061,Cascinette d'Ivrea,7.904670775194096,45.47377056691064
IT_001062,Caselette,7.483236411030487,45.110299192647616
IT_001063,Caselle Torinese,7.646167114254077,45.17166991122151
IT_001064,Castagneto Po,7.88731203375779,45.16653807897222
IT_001065,Castagnole Piemonte,7.5672376571017574,44.89889795751613
IT_001066,Castellamonte,7.710978655024495,45.38440135083249
IT_001067,Castelnuovo Nigra,7.7027378497360335,45.430775584008956
IT_001068,Castiglione Torinese,7.817818246182869,45.12359128348446
IT_001069,Cavagnolo,8.045774370734863,45.15271157019437
IT_001070,Cavour,7.372661077535674,44.78720998303609
IT_001071,Cercenasco,7.504224357237033,44.858227313763095
IT_001072,Ceres,7.394302040544433,45.304112853217966
IT_001073,Ceresole Reale,7.240227152815034,45.43755834393308
IT_001074,Cesana Torinese,6.789511444718651,44.95218823032222
IT_001075,Chialamberto,7.344118210588957,45.36187373062739
IT_001076,Chianocco,7.170996695238695,45.13699746336635
IT_001077,Chiaverano,7.901421950309074,45.499785755346664
IT_001078,Chieri,7.822907168844866,45.010393206595126
IT_001079,Chiesanuova,7.65664922348516,45.41621648485011
IT_001080,Chiomonte,6.989639271503679,45.12292446761465
IT_001081,Chiusa di San Michele,7.328722202987355,45.10593650363352
IT_001082,Chivasso,7.889018752181338,45.191379801271836
IT_001083,Ciconio,7.763041591619065,45.33114731426324
IT_001084,Cintano,7.68766905700329,45.42325383453862
IT_001085,Cinzano,7.921544383067489,45.09335598248826
IT_001086,Ciriè,7.60275028783604,45.23147670244194
IT_001087,Claviere,6.754786572439789,44.93914400800319
IT_001088,Coassolo Torinese,7.477703025550637,45.29937986089382
IT_001089,Coazze,7.303286831108824,45.05139272793288
IT_001090,Collegno,7.585274398291706,45.074942645150024
IT_001091,Colleretto Castelnuovo,7.678277068786116,45.41979244595476
IT_001092,Colleretto Giacosa,7.812373900835305,45.43824264664079
IT_001093,Condove,7.3085260889455075,45.11330926726924
IT_001094,Corio,7.5345457872361,45.30610238789701
IT_001095,Cossano Canavese,7.993217491225102,45.39060159291817
IT_001096,Cuceglio,7.812906072975659,45.36023290591169
IT_001097,Cumiana,7.375625898875706,44.97812713738034
IT_001098,Cuorgnè,7.6504963414373215,45.3906134149285
IT_001099,Druento,7.576235326172894,45.13227265121888
IT_001100,Exilles,6.931390779258798,45.098702848498036
IT_001101,Favria,7.6901177185676115,45.33115619817644
IT_001102,Feletto,7.744025765991256,45.30400037286406
IT_001103,Fenestrelle,7.060280167815754,45.03311344773045
IT_001104,Fiano,7.52964285272157,45.217656521925825
IT_001105,Fiorano Canavese,7.834512679704335,45.46906710653028
IT_001106,Foglizzo,7.817859492012706,45.27183147700115
IT_001107,Forno Canavese,7.588931001590325,45.34469460820186
IT_001108,Frassinetto,7.600170112785464,45.43159555573667
IT_001109,Front,7.663078247703168,45.275161871313465
IT_001110,Frossasco,7.350198050950965,44.93276477859325
IT_001111,Garzigliana,7.369672616807259,44.838543042345826
IT_001112,Gassino Torinese,7.825971931460652,45.12618877603982
IT_001113,Germagnano,7.469948282183991,45.26809759538051
IT_001114,Giaglione,7.010806418261817,45.14482673206291
IT_001115,Giaveno,7.344960743155517,45.043941051354295
IT_001116,Givoletto,7.500678292592559,45.15800278773048
IT_001117,Gravere,7.018183903494433,45.1245313677345
IT_001118,Groscavallo,7.297726148304673,45.36701428501264
IT_001119,Grosso,7.56179712160246,45.24976576225862
IT_001120,Grugliasco,7.595260268228305,45.06068618152122
IT_001121,Ingria,7.566526900104827,45.467834479592064
IT_001122,Inverso Pinasca,7.208046499345443,44.95108615644163
IT_001123,Isolabella,7.9070775652375715,44.90911036803566
IT_001124,Issiglio,7.748820635471018,45.44721546519799
IT_001125,Ivrea,7.878453116520127,45.461244409830684
IT_001126,La Cassa,7.515735614703156,45.18121936640078
IT_001127,La Loggia,7.66763850650857,44.95577517385936
IT_001128,Lanzo Torinese,7.478906404020179,45.27296126223404
IT_001129,Lauriano,7.995711882961274,45.15182478804251
IT_001130,Leini,7.716528481469454,45.18476657888015
IT_001131,Lemie,7.293854843206021,45.22885098361317
IT_001132,Lessolo,7.814431596237998,45.48047085683669
IT_001133,Levone,7.597171506411808,45.325601193740006
IT_001134,Locana,7.452239602082798,45.4168872924006
IT_001135,Lombardore,7.7369883691077055,45.23309813144195
IT_001136,Lombriasco,7.63352200897509,44.84226417606357
IT_001137,Loranzè,7.804608266076162,45.43797275691129
IT_001139,Luserna San Giovanni,7.244024748886558,44.816047486020274
IT_001140,Lusernetta,7.243600706136582,44.802671410819556
IT_001141,Lusigliè,7.75877264811574,45.30925937003093
IT_001142,Macello,7.400974432117219,44.85302412064597
IT_001143,Maglione,8.00946161250179,45.34783694068888
IT_001144,Marentino,7.878138446852136,45.04758587686391
IT_001145,Massello,7.059850090688816,44.94444353464189
IT_001146,Mathi,7.541648344362551,45.25715983484996
IT_001147,Mattie,7.112166868179516,45.118930058155414
IT_001148,Mazzè,7.936906504540284,45.29240270485576
IT_001149,Meana di Susa,7.066474659154166,45.12383705852992
IT_001150,Mercenasco,7.865544214572534,45.3561256126357
IT_001152,Mezzenile,7.399352145095486,45.29298705877246
IT_001153,Mombello di Torino,7.916211668848904,45.046185309289676
IT_001154,Mompantero,7.047831891170999,45.145766684972045
IT_001155,Monastero di Lanzo,7.454978731927062,45.29524686432809
IT_001156,Moncalieri,7.6689147518027525,45.00558612266698
IT_001157,Moncenisio,6.98104127057199,45.20425359229293
IT_001158,Montaldo Torinese,7.843222466640692,45.068855069755465
IT_001159,Montalenghe,7.823151925488209,45.321566880811304
IT_001160,Montalto Dora,7.8606322077509585,45.48984400923556
IT_001161,Montanaro,7.856923878506706,45.23329433578179
IT_001162,Monteu da Po,8.016038968521412,45.15274381063405
IT_001163,Moriondo Torinese,7.940021626495764,45.03693630132342
IT_001164,Nichelino,7.643700554471055,45.00088561501392
IT_001165,Noasca,7.311452895652893,45.45588362872848
IT_001166,Nole,7.569384881127143,45.24388457003487
IT_001167,Nomaglio,7.858681270779657,45.53528883904019
IT_001168,None,7.540011079142173,44.93321655608085
IT_001169,Novalesa,7.0193519937673265,45.18645978276543
IT_001170,Oglianico,7.674385327012687,45.33952541790624
IT_001171,Orbassano,7.539417390312174,45.00763821856819
IT_001172,Orio Canavese,7.856036075102603,45.32859415874072
IT_001173,Osasco,7.33983552410216,44.850881295345594
IT_001174,Osasio,7.605533924983425,44.870263688784725
IT_001175,Oulx,6.833751394550501,45.03608423884865
IT_001176,Ozegna,7.749231149552812,45.3466629423255
IT_001177,Palazzo Canavese,7.977177636467825,45.4591244147749
IT_001178,Pancalieri,7.589223400086212,44.82410927542299
IT_001179,Parella,7.794233029277123,45.43026905552097
IT_001180,Pavarolo,7.832806153899039,45.07277658347847
IT_001181,Pavone Canavese,7.863008572244599,45.44475504979706
IT_001183,Pecetto Torinese,7.750299388636385,45.0170323757559
IT_001184,Perosa Argentina,7.189977442430534,44.958016670791984
IT_001185,Perosa Canavese,7.831538989034838,45.3931136540227
IT_001186,Perrero,7.115677424156095,44.93731413161495
IT_001187,Pertusio,7.629691319929793,45.342082677351804
IT_001188,Pessinetto,7.402498446690039,45.29209967003075
IT_001189,Pianezza,7.550810688985294,45.10506765354918
IT_001190,Pinasca,7.2121301968382765,44.95174208884142
IT_001191,Pinerolo,7.333802666267502,44.88619888969319
IT_001192,Pino Torinese,7.781672158533389,45.03938269810556
IT_001193,Piobesi Torinese,7.612923512354137,44.93147701111445
IT_001194,Piossasco,7.468433095978436,44.99062686827088
IT_001195,Piscina,7.42652850908998,44.9185158557372
IT_001196,Piverone,8.003663605166373,45.44013042848944
IT_001197,Poirino,7.844068972369862,44.91970315035104
IT_001198,Pomaretto,7.182683728347908,44.956690627167596
IT_001199,Pont-Canavese,7.596115876102687,45.420820959774304
IT_001200,Porte,7.256724484893651,44.891317777908704
IT_001201,Pragelato,6.945975833053853,45.01766643031757
IT_001202,Prali,7.049075107790783,44.89011977774384
IT_001203,Pralormo,7.899668865064458,44.85546763485488
IT_001204,Pramollo,7.209774010280824,44.90684332511655
IT_001205,Prarostino,7.281421723894404,44.87625396727971
IT_001206,Prascorsano,7.619557688509207,45.36476614491867
IT_001207,Pratiglione,7.591360808578832,45.35038339328811
IT_001208,Quagliuzzo,7.783227582190668,45.42414377982798
IT_001209,Quassolo,7.838540243124565,45.52280671034799
IT_001210,Quincinetto,7.806700921278482,45.56871573386953
IT_001211,Reano,7.435075107709038,45.056075290309906
IT_001212,Ribordone,7.472598708550352,45.419591709075476
IT_001213,Rivalba,7.878115981719387,45.11729691738105
IT_001214,Rivalta di Torino,7.519811438822268,45.01164648106462
IT_001215,Riva presso Chieri,7.868371896130926,44.98165189987708
IT_001216,Rivara,7.632502645843401,45.332660824061946
IT_001217,Rivarolo Canavese,7.7211464152350455,45.32884665632825
IT_001218,Rivarossa,7.713744927947451,45.250473152934276
IT_001219,Rivoli,7.5374234425710185,45.071342123806915
IT_001220,Robassomero,7.564873528687021,45.20065804104489
IT_001221,Rocca Canavese,7.57704796814513,45.30646232465875
IT_001222,Roletto,7.333596795837427,44.922963915381644
IT_001223,Romano Canavese,7.875126408649443,45.38478130510447
IT_001224,Ronco Canavese,7.53902854378841,45.49951904719345
IT_001225,Rondissone,7.961150764817275,45.24589322852679
IT_001226,Rorà,7.196217851934383,44.79333488903121
IT_001227,Roure,7.1280892163257,45.00564533470834
IT_001228,Rosta,7.464351672822492,45.072604077417296
IT_001229,Rubiana,7.38522508158886,45.132531614833276
IT_001230,Rueglio,7.7567147820263065,45.46489016710825
IT_001231,Salassa,7.687230858432988,45.35682844559114
IT_001232,Salbertrand,6.882439663119697,45.07100110638555
IT_001233,Salerano Canavese,7.847396941423282,45.45444967076319
IT_001234,Salza di Pinerolo,7.05959067817072,44.93953536394288
IT_001235,Samone,7.8478419918971065,45.44816686010255
IT_001236,San Benigno Canavese,7.781675060724375,45.22574301447715
IT_001237,San Carlo Canavese,7.60560665937533,45.24149824620004
IT_001238,San Colombano Belmonte,7.627090400824183,45.38243975748945
IT_001239,San Didero,7.20908344326201,45.1358710389427
IT_001240,San Francesco al Campo,7.638238249187886,45.22418953020359
IT_001241,Sangano,7.452115986464043,45.02553155570316
IT_001242,San Germano Chisone,7.244365122606206,44.905969415638275
IT_001243,San Gillio,7.528546851048726,45.13668298478473
IT_001244,San Giorgio Canavese,7.801412096846929,45.32468092161626
IT_001245,San Giorio di Susa,7.176579194044664,45.12815839627293
IT_001246,San Giusto Canavese,7.81062177723985,45.3101296428912
IT_001247,San Martino Canavese,7.8240508188506555,45.39390537733673
IT_001248,San Maurizio Canavese,7.628808696971991,45.21323241451878
IT_001249,San Mauro Torinese,7.75558085915158,45.105359890618146
IT_001250,San Pietro Val Lemina,7.312330202047449,44.908198326832064
IT_001251,San Ponso,7.6622556569126505,45.344182491559266
IT_001252,San Raffaele Cimena,7.846327755568514,45.144556727928595
IT_001253,San Sebastiano da Po,7.941434698950135,45.160116003319196
IT_001254,San Secondo di Pinerolo,7.298565014124977,44.87304537581842
IT_001255,Sant'Ambrogio di Torino,7.366527751948276,45.09679448490196
IT_001256,Sant'Antonino di Susa,7.273879640944777,45.10569324863194
IT_001257,Santena,7.7746300407592255,44.94951446594577
IT_001258,Sauze di Cesana,6.848977048109404,44.94105287072826
IT_001259,Sauze d'Oulx,6.855202778426468,45.028737804131936
IT_001260,Scalenghe,7.470402840730586,44.895750371957824
IT_001261,Scarmagno,7.84353533738455,45.38035871648606
IT_001262,Sciolze,7.874557612192005,45.10167524439543
IT_001263,Sestriere,6.876697027523894,44.95715168912097
IT_001264,Settimo Rottaro,7.991665574687549,45.40371429976477
IT_001265,Settimo Torinese,7.765473451985166,45.13720228016999
IT_001266,Settimo Vittone,7.825364215054087,45.551346581433386
IT_001267,Sparone,7.543709433911186,45.41488548675504
IT_001268,Strambinello,7.760456722092112,45.41849407329567
IT_001269,Strambino,7.882836885251829,45.381501626381485
IT_001270,Susa,7.053656893048965,45.13532598132002
IT_001271,Tavagnasco,7.820800973261035,45.550700156613516
IT_001272,Torino,7.6608713855052235,45.068190898725376
IT_001273,Torrazza Piemonte,7.973828995530036,45.218422177625605
IT_001274,Torre Canavese,7.760493139367264,45.39323562467852
IT_001275,Torre Pellice,7.222284814576001,44.822540869290215
IT_001276,Trana,7.416295070590982,45.03546966334511
IT_001278,Traversella,7.745275537987984,45.51190946375221
IT_001279,Traves,7.434601711144531,45.26776158654603
IT_001280,Trofarello,7.743116828020246,44.9821721434372
IT_001281,Usseaux,7.013204473341263,45.04929908944573
IT_001282,Usseglio,7.218653335410178,45.228417900615646
IT_001283,Vaie,7.288998573284565,45.10748655142847
IT_001284,Val della Torre,7.465533856960463,45.14792676044053
IT_001285,Valgioie,7.335750983819855,45.06441472132123
IT_001286,Vallo Torinese,7.504608358621164,45.22298166931872
IT_001287,Valperga,7.659677952395817,45.37944278080052
IT_001288,Valprato Soana,7.552680072308644,45.52731755699594
IT_001289,Varisella,7.500577678699135,45.21207158350697
IT_001290,Vauda Canavese,7.6363917136327295,45.27910092309811
IT_001291,Venaus,7.012054833909314,45.15688442444548
IT_001292,Venaria Reale,7.640384548298151,45.12281780211697
IT_001293,Verolengo,7.958288815951452,45.19744561068104
IT_001294,Verrua Savoia,8.100074434656557,45.180374510039826
IT_001295,Vestignè,7.952310175261194,45.388864028018865
IT_001296,Vialfrè,7.802136423550615,45.378974999671996
IT_001298,Vidracco,7.758014918229024,45.428165219702535
IT_001299,Vigone,7.496900764027163,44.8466673766095
IT_001300,Villafranca Piemonte,7.503770046390623,44.783787221956366
IT_001301,Villanova Canavese,7.559243293720163,45.24505243603271
IT_001302,Villarbasse,7.471359572924168,45.04104375656097
IT_001303,Villar Dora,7.382358163273865,45.111845553078844
IT_001304,Villareggia,7.981291797648396,45.30825631468758
IT_001305,Villar Focchiardo,7.237423271974016,45.117792123164
IT_001306,Villar Pellice,7.162341041001823,44.810279900639316
IT_001307,Villar Perosa,7.247056839895151,44.916205652266086
IT_001308,Villastellone,7.74462082547851,44.922951757104805
IT_001309,Vinovo,7.623574850541465,44.954159993790505
IT_001310,Virle Piemonte,7.584574526312117,44.866547676510294
IT_001311,Vische,7.946534273614094,45.33456628880859
IT_001312,Vistrorio,7.769707990056741,45.435140454074876
IT_001313,Viù,7.375848055345883,45.23890542081723
IT_001314,Volpiano,7.792392501575618,45.19430004182554
IT_001315,Volvera,7.514909907809593,44.96097777697908
IT_001316,Mappano,7.706658396567633,45.14466923685361
IT_001317,Val di Chy,7.769784357514283,45.4538486093754
IT_001318,Valchiusa,7.796463305674512,45.48329210632504
IT_002002,Alagna Valsesia,7.938052541341407,45.84952214398109
IT_002003,Albano Vercellese,8.384011279945012,45.42003735776472
IT_002004,Alice Castello,8.073270720853024,45.3657568861983
IT_002006,Arborio,8.384113087285247,45.4965940042563
IT_002007,Asigliano Vercellese,8.39904971074082,45.26343994799358
IT_002008,Balmuccia,8.140819542211903,45.81803360470904
IT_002009,Balocco,8.254792060021886,45.455037668075136
IT_002011,Bianzè,8.12130394386686,45.30813748772228
IT_002014,Boccioleto,8.11445044552003,45.83384218598398
IT_002015,Borgo d'Ale,8.05289291504307,45.34864667037271
IT_002016,Borgosesia,8.278093708808077,45.717631890633164
IT_002017,Borgo Vercelli,8.464396292797877,45.356688967013476
IT_002021,Buronzo,8.268905590686174,45.48026290883404
IT_002025,Campertogno,8.030392069193326,45.79799183762216
IT_002029,Carcoforo,8.049819917960729,45.905689955536324
IT_002030,Caresana,8.50636128962578,45.21910112167412
IT_002031,Caresanablot,8.388533345279383,45.358770472562654
IT_002032,Carisio,8.201706380943307,45.41654860609794
IT_002033,Casanova Elvo,8.297191117972517,45.39880462579444
IT_002035,San Giacomo Vercellese,8.326514551306134,45.49524825243837
IT_002041,Cervatto,8.156113665664002,45.88548583996398
IT_002042,Cigliano,8.020624074687023,45.309775621094694
IT_002043,Civiasco,8.296338466181915,45.81004370017777
IT_002045,Collobiano,8.35729144167126,45.400687276402515
IT_002047,Costanzana,8.36646579410272,45.22991381450516
IT_002048,Cravagliana,8.21415509744218,45.85261406465464
IT_002049,Crescentino,8.100850160566456,45.19407908262467
IT_002052,Crova,8.222519857361487,45.329372081122166
IT_002054,Desana,8.357418600564825,45.270137189002234
IT_002057,Fobello,8.155873854066392,45.89589710803614
IT_002058,Fontanetto Po,8.188929363431887,45.19376954053582
IT_002059,Formigliana,8.276857057220916,45.43587903347042
IT_002061,Gattinara,8.368141002641813,45.616375605325956
IT_002062,Ghislarengo,8.3873631128928,45.5305828886536
IT_002065,Greggio,8.385109647521478,45.45159584103943
IT_002066,Guardabosone,8.24532027999384,45.701482250854546
IT_002067,Lamporo,8.097452675347169,45.23024905581697
IT_002068,Lenta,8.382039035013761,45.55677296135879
IT_002070,Lignana,8.341639204958712,45.28859156019507
IT_002071,Livorno Ferraris,8.079615652795946,45.2830357192941
IT_002072,Lozzolo,8.32127086527178,45.619671363476535
IT_002078,Mollia,8.025120644970572,45.8155935889264
IT_002079,Moncrivello,7.995355831559013,45.31876399430356
IT_002082,Motta de' Conti,8.521648438214054,45.192560355163664
IT_002088,Olcenengo,8.31133400472909,45.36051991126771
IT_002089,Oldenico,8.383289636070383,45.40563954458962
IT_002090,Palazzolo Vercellese,8.230102737528103,45.18465729733582
IT_002091,Pertengo,8.41715243207884,45.22721036206133
IT_002093,Pezzana,8.485410675801296,45.26292764747222
IT_002096,Pila,8.077366556793041,45.77077641148068
IT_002097,Piode,8.049935766961612,45.771748757902046
IT_002102,Postua,8.230564600895812,45.710258449369476
IT_002104,Prarolo,8.464789442698375,45.29062325115549
IT_002107,Quarona,8.269950597344305,45.76128747634737
IT_002108,Quinto Vercellese,8.361926376876331,45.3789231819677
IT_002110,Rassa,8.015913611084255,45.769639325847564
IT_002113,Rimella,8.180248967792112,45.906493760732076
IT_002115,Rive,8.417494303614562,45.214778694193726
IT_002116,Roasio,8.29190768132212,45.60696248480489
IT_002118,Ronsecco,8.27648269637757,45.25155472115238
IT_002121,Rossa,8.121817478239352,45.834291789715046
IT_002122,Rovasenda,8.318055905053898,45.54018662558241
IT_002126,Salasco,8.261550172579598,45.32320997282207
IT_002127,Sali Vercellese,8.324368106586006,45.306593526367436
IT_002128,Saluggia,8.01297842239089,45.23845389023463
IT_002131,San Germano Vercellese,8.247936183536373,45.350178065499165
IT_002133,Santhià,8.16990752178924,45.36692389297681
IT_002134,Scopa,8.10773577586516,45.78738196808498
IT_002135,Scopello,8.091361505007377,45.77292811244892
IT_002137,Serravalle Sesia,8.311543449599537,45.684415056699216
IT_002142,Stroppiana,8.456829308562357,45.230527492623736
IT_002147,Tricerro,8.327813738648182,45.23427788365139
IT_002148,Trino,8.294476268564415,45.19640854751404
IT_002150,Tronzano Vercellese,8.17253825732585,45.34041514880528
IT_002152,Valduggia,8.3281305138013,45.7294586385868
IT_002156,Varallo,8.257900108665337,45.815085096702816
IT_002158,Vercelli,8.420350722379473,45.32170743639498
IT_002163,Villarboit,8.33461001550745,45.44235116646589
IT_002164,Villata,8.434904640242111,45.38856612751505
IT_002166,Vocca,8.195608643343654,45.838168508651535
IT_002170,Alto Sermenza,8.049745477267505,45.86857079871494
IT_002171,Cellio con Breia,8.322116453824428,45.73568435679141
IT_003001,Agrate Conturbia,8.585395581507337,45.66957552612908
IT_003002,Ameno,8.435247672425508,45.786320890968476
IT_003006,Armeno,8.441715494258974,45.82166034674099
IT_003008,Arona,8.554682963484428,45.75687907980323
IT_003012,Barengo,8.510539912835748,45.55277749396482
IT_003016,Bellinzago Novarese,8.642153349721136,45.57245819443393
IT_003018,Biandrate,8.461750021980016,45.45214677657871
IT_003019,Boca,8.417772920186719,45.68025128539205
IT_003021,Bogogno,8.533500064409285,45.66798584996551
IT_003022,Bolzano Novarese,8.441302635613079,45.759476107661534
IT_003023,Borgolavezzaro,8.697437319921317,45.317167051173406
IT_003024,Borgomanero,8.461057890571478,45.70052868697613
IT_003025,Borgo Ticino,8.602524367512355,45.68863508076168
IT_003026,Briga Novarese,8.453750321924563,45.723978054380865
IT_003027,Briona,8.46470822988233,45.547896382153105
IT_003030,Caltignaga,8.585115515390518,45.521100666980715
IT_003032,Cameri,8.66279296144944,45.50060206183316
IT_003036,Carpignano Sesia,8.420977899835474,45.53313758872043
IT_003037,Casalbeltrame,8.463627125224205,45.43729297661498
IT_003039,Casaleggio Novara,8.491498200316014,45.489043436597456
IT_003040,Casalino,8.537808008690776,45.39438258988339
IT_003041,Casalvolone,8.450982357342122,45.39391981791604
IT_003042,Castellazzo Novarese,8.484729955001251,45.51401157516711
IT_003043,Castelletto sopra Ticino,8.634129008854076,45.717627518551964
IT_003044,Cavaglietto,8.487223204428968,45.60252195368999
IT_003045,Cavaglio d'Agogna,8.483587823317333,45.61313126774544
IT_003047,Cavallirio,8.401507373422774,45.66576611727386
IT_003049,Cerano,8.781498474273528,45.41140778156328
IT_003051,Colazza,8.499501145226485,45.788247297236964
IT_003052,Comignago,8.571771267940472,45.71382442454211
IT_003055,Cressa,8.50065323602768,45.64530769486033
IT_003058,Cureggio,8.459555157171122,45.674468462988365
IT_003060,Divignano,8.59712573762279,45.661812392551305
IT_003062,Dormelletto,8.568920790460565,45.73482134669181
IT_003065,Fara Novarese,8.45885099351569,45.552217135530896
IT_003066,Fontaneto d'Agogna,8.484322877740905,45.6437265522774
IT_003068,Galliate,8.700401476217527,45.47491052804666
IT_003069,Garbagna Novarese,8.656869886229497,45.38335753578482
IT_003070,Gargallo,8.426010974876432,45.728776653780606
IT_003073,Ghemme,8.421525291789521,45.59435479816961
IT_003076,Gozzano,8.438105957567625,45.74102806999103
IT_003077,Granozzo con Monticello,8.58050531798073,45.36435231209636
IT_003079,Grignasco,8.332778846336753,45.684559272776255
IT_003082,Invorio,8.489736729964653,45.75569673954042
IT_003083,Landiona,8.421190946425583,45.49711066889774
IT_003084,Lesa,8.552335399847946,45.82142956414494
IT_003088,Maggiora,8.42005983320852,45.68690201304664
IT_003090,Mandello Vitta,8.460858635288313,45.49851630126003
IT_003091,Marano Ticino,8.635007021756348,45.624847553416096
IT_003093,Massino Visconti,8.53979923952406,45.82293868405134
IT_003095,Meina,8.52547906465386,45.78801311716177
IT_003097,Mezzomerico,8.608626891264445,45.61879969002462
IT_003098,Miasino,8.42112541316911,45.80959125915981
IT_003100,Momo,8.554361819206619,45.57243835570856
IT_003103,Nebbiuno,8.520458021455006,45.79914919864508
IT_003104,Nibbiola,8.659721410343893,45.37173256715552
IT_003106,Novara,8.61874059015241,45.443058072362085
IT_003108,Oleggio,8.639053379512125,45.59675199226127
IT_003109,Oleggio Castello,8.534096520430408,45.75050740869191
IT_003112,Orta San Giulio,8.422300740998725,45.7929081290107
IT_003114,Paruzzaro,8.512674550929468,45.74630181337174
IT_003115,Pella,8.393056313385049,45.803524238243384
IT_003116,Pettenasco,8.411253441005282,45.83026661774424
IT_003119,Pisano,8.511027965016948,45.79273133681069
IT_003120,Pogno,8.390514867892989,45.760826370257874
IT_003121,Pombia,8.633406674332727,45.657879983697
IT_003122,Prato Sesia,8.371831321479265,45.653143568419175
IT_003129,Recetto,8.433079274353585,45.45696255936285
IT_003130,Romagnano Sesia,8.384462353737135,45.63379314936607
IT_003131,Romentino,8.716533594140413,45.464625422178706
IT_003133,San Maurizio d'Opaglio,8.39411750353447,45.77540344903299
IT_003134,San Nazzaro Sesia,8.42377224469586,45.4410366681075
IT_003135,San Pietro Mosezzo,8.548261452505704,45.46631743443206
IT_003138,Sillavengo,8.43782382675578,45.52168851414703
IT_003139,Sizzano,8.432749637241413,45.578131614622876
IT_003140,Soriso,8.413617483392704,45.74180527277797
IT_003141,Sozzago,8.718891338839594,45.3995089352495
IT_003143,Suno,8.537450545301672,45.62902065907242
IT_003144,Terdobbiate,8.688461479024886,45.37616035077412
IT_003146,Tornaco,8.719511193187156,45.35685329494344
IT_003149,Trecate,8.738748610807823,45.43315336689599
IT_003153,Vaprio d'Agogna,8.555733311750684,45.604270479911094
IT_003154,Varallo Pombia,8.63135709303158,45.66763684135788
IT_003158,Vespolate,8.668479563279195,45.348104481863714
IT_003159,Vicolungo,8.46082609787368,45.47930773836885
IT_003164,Vinzaglio,8.521270704372375,45.31324199181282
IT_003166,Gattico-Veruno,8.511987141372153,45.7035390438481
IT_004001,Acceglio,6.990355127544103,44.474204397899726
IT_004002,Aisone,7.21684793876161,44.31152420129065
IT_004003,Alba,8.026365146215035,44.69267086165209
IT_004004,Albaretto della Torre,8.074566025386087,44.59744850680084
IT_004005,Alto,8.000234087709524,44.11027719497344
IT_004006,Argentera,6.9699237503715405,44.379793958024884
IT_004007,Arguello,8.088387241154972,44.5949011159482
IT_004008,Bagnasco,8.04177544334925,44.30005936964627
IT_004009,Bagnolo Piemonte,7.312416153640248,44.761791658496016
IT_004010,Baldissero d'Alba,7.905782177038038,44.75057480108922
IT_004011,Barbaresco,8.076950038955165,44.71123047859933
IT_004012,Barge,7.331440995184221,44.728953878138604
IT_004013,Barolo,7.928642912615136,44.60876517309621
IT_004014,Bastia Mondovì,7.891279944026071,44.4452931592859
IT_004015,Battifollo,8.005363137469704,44.32144500430866
IT_004016,Beinette,7.6306850571561755,44.37004537546739
IT_004017,Bellino,7.024751543874765,44.58277949572182
IT_004018,Belvedere Langhe,7.973631095773953,44.49512339861813
IT_004019,Bene Vagienna,7.836590249588186,44.54928367071833
IT_004020,Benevello,8.105481899963292,44.63161117120474
IT_004021,Bergolo,8.165425716486654,44.55994382603401
IT_004022,Bernezzo,7.459819149865246,44.3923631770647
IT_004023,Bonvicino,8.01698096487337,44.510003654162865
IT_004024,Borgomale,8.108460700881349,44.637577615530674
IT_004025,Borgo San Dalmazzo,7.488640731090614,44.33258756406751
IT_004026,Bosia,8.143178900571542,44.59815543841133
IT_004027,Bossolasco,8.048781500654794,44.528769000854
IT_004028,Boves,7.5490890243152835,44.33016660190046
IT_004029,Bra,7.847643521406419,44.69892044880377
IT_004030,Briaglia,7.876183883582115,44.39726622052433
IT_004031,Briga Alta,7.737730774283847,44.08348378339167
IT_004032,Brondello,7.403204122329177,44.60223614974051
IT_004033,Brossasco,7.3612007963657415,44.56778702438073
IT_004034,Busca,7.482715531708701,44.51052939862474
IT_004035,Camerana,8.143942773419802,44.44084346665872
IT_004037,Canale,7.993489263236458,44.796315295753644
IT_004038,Canosio,7.084166904557707,44.4572539285799
IT_004039,Caprauna,7.949398902385565,44.11803960380066
IT_004040,Caraglio,7.4430373606750635,44.42708198380314
IT_004041,Caramagna Piemonte,7.736524555560035,44.78142740421758
IT_004042,Cardè,7.471732713085323,44.745062478439195
IT_004043,Carrù,7.872040999226393,44.4782907955854
IT_004044,Cartignano,7.282791353907022,44.480934548069655
IT_004045,Casalgrasso,7.610289774412735,44.824374504931434
IT_004046,Castagnito,8.056488278303735,44.7515086831659
IT_004047,Casteldelfino,7.0664702235632575,44.588904832205934
IT_004049,Castelletto Stura,7.64021145808544,44.4269835777845
IT_004050,Castelletto Uzzone,8.19130076207764,44.49132785332412
IT_004051,Castellinaldo d'Alba,8.028011097447477,44.77273922669327
IT_004052,Castellino Tanaro,7.976478023856971,44.41712130288057
IT_004053,Castelmagno,7.192050080904255,44.40321598078802
IT_004054,Castelnuovo di Ceva,8.128515378150027,44.35643025748245
IT_004055,Castiglione Falletto,7.9783452041572795,44.64055607537741
IT_004056,Castiglione Tinella,8.190894309558212,44.73724768896294
IT_004057,Castino,8.166834072067983,44.62448499232627
IT_004058,Cavallerleone,7.665257574541121,44.74481006216552
IT_004059,Cavallermaggiore,7.687627486953612,44.70748165960419
IT_004060,Celle di Macra,7.180895432732715,44.48877795930058
IT_004061,Centallo,7.58579172991975,44.49524444223384
IT_004062,Ceresole Alba,7.8201604362860495,44.80188072016711
IT_004063,Cerretto Langhe,8.078994577636262,44.57980359283496
IT_004064,Cervasca,7.483920133235598,44.38904452331968
IT_004065,Cervere,7.788314652302642,44.63747222406924
IT_004066,Ceva,8.031137229473522,44.384624836605624
IT_004067,Cherasco,7.841292641962849,44.65535557833365
IT_004068,Chiusa di Pesio,7.67740108228048,44.32601772932158
IT_004069,Cigliè,7.9258363592566266,44.43484739518216
IT_004070,Cissone,8.024307149763011,44.569995986679515
IT_004071,Clavesana,7.9096403446889685,44.48571329807992
IT_004072,Corneliano d'Alba,7.968421979777639,44.73274291313027
IT_004073,Cortemilia,8.195068870981231,44.579465974225414
IT_004074,Cossano Belbo,8.194739143304586,44.666903779411
IT_004075,Costigliole Saluzzo,7.482768521454169,44.566111280948455
IT_004076,Cravanzana,8.121370817158677,44.574163148173554
IT_004077,Crissolo,7.162384658422122,44.697496573934146
IT_004078,Cuneo,7.541348235094971,44.3842889367826
IT_004079,Demonte,7.301361464698996,44.31709779107699
IT_004080,Diano d'Alba,8.021693092285087,44.65348359650302
IT_004081,Dogliani,7.94814827963125,44.53296390973526
IT_004082,Dronero,7.365545160514552,44.46484743957966
IT_004083,Elva,7.085675623956791,44.543238948560635
IT_004084,Entracque,7.395060741210726,44.24130952512884
IT_004085,Envie,7.3744530933862,44.68240799083921
IT_004086,Farigliano,7.9109697079072765,44.513222403639055
IT_004087,Faule,7.590247025012385,44.80774998565935
IT_004088,Feisoglio,8.109194427246093,44.545233284749926
IT_004089,Fossano,7.717482814958743,44.54857824636807
IT_004090,Frabosa Soprana,7.80598580196099,44.29377424905771
IT_004091,Frabosa Sottana,7.773466356243816,44.33630256466932
IT_004092,Frassino,7.280207574730468,44.57036307628778
IT_004093,Gaiola,7.407693147053565,44.33242197287645
IT_004094,Gambasca,7.350452163617526,44.636628589498216
IT_004095,Garessio,8.017809381478706,44.206603418364324
IT_004096,Genola,7.665407312864309,44.58886278107452
IT_004097,Gorzegno,8.13756831668371,44.51078513125161
IT_004098,Gottasecca,8.170608962910052,44.45893975390284
IT_004099,Govone,8.094469374222387,44.79358156224025
IT_004100,Grinzane Cavour,7.980769806816552,44.658775580186614
IT_004101,Guarene,8.039487758926267,44.737151834801715
IT_004102,Igliano,8.014584992472246,44.4404786286053
IT_004103,Isasca,7.3791229844815645,44.58429160607257
IT_004104,Lagnasco,7.552229755805914,44.624954394710485
IT_004105,La Morra,7.933151530098863,44.64229841446752
IT_004106,Lequio Berria,8.089972230119834,44.604903150474804
IT_004107,Lequio Tanaro,7.878377157266984,44.54721754382003
IT_004108,Lesegno,7.953733328526316,44.404516193280344
IT_004109,Levice,8.154167069878726,44.52564111362791
IT_004110,Limone Piemonte,7.5746501018205485,44.1996688687853
IT_004111,Lisio,7.979875674583918,44.309497807632816
IT_004112,Macra,7.17985929532143,44.49607051838807
IT_004113,Magliano Alfieri,8.07420716783067,44.76652628063674
IT_004114,Magliano Alpi,7.813857921364894,44.45694514335898
IT_004115,Mango,8.158037405276932,44.68753009773217
IT_004116,Manta,7.487375016135054,44.61273412467302
IT_004117,Marene,7.729403031859017,44.66093309244967
IT_004118,Margarita,7.681656483703474,44.39384432997491
IT_004119,Marmora,7.0899569497099515,44.45820508729394
IT_004120,Marsaglia,8.000480129018959,44.461087401594575
IT_004121,Martiniana Po,7.364970649095465,44.630096474413776
IT_004122,Melle,7.342429098828874,44.56469223807958
IT_004123,Moiola,7.398826812586231,44.32847697182945
IT_004124,Mombarcaro,8.085705789101583,44.46483463643463
IT_004125,Mombasiglio,7.967076838209524,44.364388440755064
IT_004126,Monastero di Vasco,7.80733754806156,44.34311630067934
IT_004127,Monasterolo Casotto,7.941887522584842,44.325869245752095
IT_004128,Monasterolo di Savigliano,7.618349341367331,44.68696506139357
IT_004129,Monchiero,7.920274022925047,44.5688326572796
IT_004130,Mondovì,7.815385708186296,44.39187952640273
IT_004131,Monesiglio,8.118377682440087,44.4614121989821
IT_004132,Monforte d'Alba,7.971873069228949,44.59206839706748
IT_004133,Montà,7.957586685635817,44.81450420926803
IT_004134,Montaldo di Mondovì,7.862733079757105,44.31206699728526
IT_004135,Montaldo Roero,7.924598653098893,44.761367982566206
IT_004136,Montanera,7.671505882426839,44.461799227525226
IT_004137,Montelupo Albese,8.051350178788505,44.62302252312642
IT_004138,Montemale di Cuneo,7.379960218914992,44.4390902439204
IT_004139,Monterosso Grana,7.321926505186643,44.4092117696092
IT_004140,Monteu Roero,7.937948093665106,44.78136019418557
IT_004141,Montezemolo,8.137256722764942,44.37827400847374
IT_004142,Monticello d'Alba,7.948466799455512,44.71412384237117
IT_004143,Moretta,7.527530210411577,44.76930537681483
IT_004144,Morozzo,7.6713076918298775,44.42835383982895
IT_004145,Murazzano,8.019146434176793,44.473611460497146
IT_004146,Murello,7.598002803488028,44.751634671166165
IT_004147,Narzole,7.874161940670348,44.59169252487581
IT_004148,Neive,8.117165494219472,44.727142814083194
IT_004149,Neviglie,8.119222363591566,44.69721925906872
IT_004150,Niella Belbo,8.078294889326088,44.5125514351153
IT_004151,Niella Tanaro,7.935817212276397,44.40925734884977
IT_004152,Novello,7.9197498593562905,44.590993910903826
IT_004153,Nucetto,8.061764494504805,44.337441551508036
IT_004154,Oncino,7.184862525751379,44.674345702574584
IT_004155,Ormea,7.9098084570125895,44.1482545293067
IT_004156,Ostana,7.188395121780468,44.696356733030804
IT_004157,Paesana,7.2785484880663684,44.68016891936211
IT_004158,Pagno,7.435488828192086,44.61753002277972
IT_004159,Pamparato,7.914717256258332,44.278525270151334
IT_004160,Paroldo,8.065340144430289,44.42875290859376
IT_004161,Perletto,8.203532418903368,44.59642000343933
IT_004162,Perlo,8.086699262929866,44.32871554927174
IT_004163,Peveragno,7.621148379693042,44.354721471853274
IT_004164,Pezzolo Valle Uzzone,8.206676935261221,44.5389714919878
IT_004165,Pianfei,7.711049024559531,44.373074153707336
IT_004166,Piasco,7.4661480637981885,44.567162019459985
IT_004167,Pietraporzio,7.025405525167964,44.34087217574499
IT_004168,Piobesi d'Alba,7.975159155905743,44.73220708753221
IT_004169,Piozzo,7.896002255351495,44.51516537249755
IT_004170,Pocapaglia,7.895236455691472,44.70496111395356
IT_004171,Polonghera,7.594210568338168,44.804142267038905
IT_004172,Pontechianale,7.01886429438744,44.62875783190197
IT_004173,Pradleves,7.280650680045822,44.417845520774385
IT_004174,Prazzo,7.059818172552323,44.48842749604441
IT_004175,Priero,8.091994959675102,44.374507959176164
IT_004176,Priocca,8.063484465386992,44.78892883276701
IT_004177,Priola,8.024239969570004,44.26093937741846
IT_004178,Prunetto,8.140900354644842,44.50057218675067
IT_004179,Racconigi,7.680860782608624,44.769363913843605
IT_004180,Revello,7.393847723308561,44.656176749855305
IT_004181,Rifreddo,7.351377078727571,44.647162429423034
IT_004182,Rittana,7.408898414483661,44.34516796080949
IT_004183,Roaschia,7.435886092607955,44.29197363227699
IT_004184,Roascio,8.039443929080873,44.41994982038265
IT_004185,Robilante,7.515867748764813,44.29298291716644
IT_004186,Roburent,7.882262313665023,44.29990653930243
IT_004187,Roccabruna,7.343677197121262,44.46857404874193
IT_004188,Rocca Cigliè,7.949702720281366,44.439790530021604
IT_004189,Rocca de' Baldi,7.753087846212441,44.43131565308981
IT_004190,Roccaforte Mondovì,7.7391916942591275,44.31539760256346
IT_004191,Roccasparvera,7.4412525464807056,44.33742219159902
IT_004192,Roccavione,7.478938077750129,44.315814536573605
IT_004193,Rocchetta Belbo,8.18157030669083,44.637839317580145
IT_004194,Roddi,7.977506703570339,44.670193962262445
IT_004195,Roddino,8.02021725364585,44.57789857919104
IT_004196,Rodello,8.051628107012398,44.641662123438955
IT_004197,Rossana,7.438718952257893,44.55225965751745
IT_004198,Ruffia,7.598924727131995,44.70765038201531
IT_004199,Sale delle Langhe,8.0849102964035,44.397672777347246
IT_004200,Sale San Giovanni,8.08365757647184,44.40369124473836
IT_004201,Saliceto,8.180089465704343,44.40101284435053
IT_004202,Salmour,7.808728749492972,44.5793233395915
IT_004203,Saluzzo,7.4918008224630706,44.644884591605134
IT_004204,Sambuco,7.077449547449102,44.33608459324931
IT_004205,Sampeyre,7.194715653283847,44.579072632211144
IT_004206,San Benedetto Belbo,8.061192797257663,44.490400155645375
IT_004207,San Damiano Macra,7.260946574321093,44.48923048771177
IT_004208,Sanfrè,7.7953894217666875,44.75596072988978
IT_004209,Sanfront,7.317341123867166,44.650696008827914
IT_004210,San Michele Mondovì,7.909410656882505,44.37462576598937
IT_004211,Sant'Albano Stura,7.72392987525282,44.50358003014626
IT_004212,Santa Vittoria d'Alba,7.934932068838138,44.70215135584318
IT_004213,Santo Stefano Belbo,8.230895218989328,44.70981303975549
IT_004214,Santo Stefano Roero,7.935648218997792,44.79531399977911
IT_004215,Savigliano,7.65563936674387,44.647177259841925
IT_004216,Scagnello,7.99010372982761,44.329839658038345
IT_004217,Scarnafigi,7.563273215807837,44.68027463992358
IT_004218,Serralunga d'Alba,7.983263966328287,44.64017265275334
IT_004219,Serravalle Langhe,8.06068151772394,44.56085980394251
IT_004220,Sinio,8.027488346981798,44.603466811371376
IT_004221,Somano,8.009465399131088,44.53345988487454
IT_004222,Sommariva del Bosco,7.782170678343211,44.77174745549428
IT_004223,Sommariva Perno,7.904904533774578,44.74274784177725
IT_004224,Stroppo,7.129636768121622,44.50757777911122
IT_004225,Tarantasca,7.528607696011738,44.4960658729254
IT_004226,Torre Bormida,8.147695135971508,44.56864121877866
IT_004227,Torre Mondovì,7.902039772435076,44.349581192536114
IT_004228,Torre San Giorgio,7.524986213929715,44.73541098833252
IT_004229,Torresina,8.040741405911804,44.43166375744323
IT_004230,Treiso,8.08306580926454,44.69224395739625
IT_004231,Trezzo Tinella,8.106700493554861,44.66289274555631
IT_004232,Trinità,7.75173898081295,44.52274249200739
IT_004233,Valdieri,7.418708451695562,44.289168145421264
IT_004234,Valgrana,7.375342281021848,44.41344222470931
IT_004235,Valloriate,7.370223178909255,44.337366076251776
IT_004237,Venasca,7.398791091289614,44.5656484888137
IT_004238,Verduno,7.92633579223646,44.66472047949328
IT_004239,Vernante,7.532199112531819,44.24452483272203
IT_004240,Verzuolo,7.482231357637857,44.589312764931215
IT_004241,Vezza d'Alba,8.005967072338098,44.76290448587858
IT_004242,Vicoforte,7.862777065470719,44.367927536823714
IT_004243,Vignolo,7.483066463291548,44.356096225894305
IT_004244,Villafalletto,7.554210366288918,44.56357209382008
IT_004245,Villanova Mondovì,7.76577750358002,44.35030301250661
IT_004246,Villanova Solaro,7.56952766986499,44.732029578835444
IT_004247,Villar San Costanzo,7.378703053540401,44.4704736996706
IT_004248,Vinadio,7.174011475293939,44.306043202410265
IT_004249,Viola,7.968233457646272,44.28978659992621
IT_004250,Vottignasco,7.57875060540958,44.55739214245325
IT_005001,Agliano Terme,8.2530225292852,44.79040777962216
IT_005002,Albugnano,7.961161317854926,45.0842056757926
IT_005003,Antignano,8.143146786294176,44.841636343001376
IT_005004,Aramengo,7.99982014470222,45.09654693621103
IT_005005,Asti,8.205671800590016,44.902477395607505
IT_005006,Azzano d'Asti,8.262625307084097,44.87314344899378
IT_005007,Baldichieri d'Asti,8.092227477541318,44.90516175732238
IT_005008,Belveglio,8.333287292139417,44.83547740896769
IT_005009,Berzano di San Pietro,7.951653305888832,45.09729062289492
IT_005010,Bruno,8.441665954928,44.79422341448207
IT_005011,Bubbio,8.294052366243507,44.66531341906423
IT_005012,Buttigliera d'Asti,7.95407774598528,45.019155692410635
IT_005013,Calamandrana,8.317469662735501,44.73259481700259
IT_005014,Calliano,8.255493873973816,45.005532662658624
IT_005015,Calosso,8.227815024150829,44.74507587475425
IT_005016,Camerano Casasco,8.10231161563016,44.99421063011607
IT_005017,Canelli,8.288008107393503,44.72006731242018
IT_005018,Cantarana,8.03905148110248,44.90938849467456
IT_005019,Capriglio,8.001820034183687,45.00298667454549
IT_005020,Casorzo,8.334629250894213,45.022281909571305
IT_005021,Cassinasco,8.311994675921616,44.6991662326537
IT_005022,Castagnole delle Lanze,8.150161219079095,44.75222486739626
IT_005023,Castagnole Monferrato,8.30209321176551,44.934438055171
IT_005024,Castel Boglione,8.382223678437855,44.72426117819092
IT_005025,Castell'Alfero,8.209635854356378,44.974085466767306
IT_005026,Castellero,8.081173966151097,44.91289977185329
IT_005027,Castelletto Molina,8.428599286848842,44.75131486248004
IT_005028,Castello di Annone,8.31318253438243,44.892722543602794
IT_005029,Castelnuovo Belbo,8.415318401283885,44.80405075069396
IT_005030,Castelnuovo Calcea,8.28533419854016,44.78774717130417
IT_005031,Castelnuovo Don Bosco,7.966021555032063,45.039900553762905
IT_005032,Castel Rocchero,8.417226742367458,44.721160155586
IT_005033,Cellarengo,7.946077387682996,44.86672070516157
IT_005034,Celle Enomondo,8.121663897753857,44.85759313389702
IT_005035,Cerreto d'Asti,8.039101237305387,45.04636438662969
IT_005036,Cerro Tanaro,8.361228204165966,44.87423076697649
IT_005037,Cessole,8.24365808893199,44.646035696928394
IT_005038,Chiusano d'Asti,8.121566594920317,44.98920810899689
IT_005039,Cinaglio,8.102852003895716,44.96564464643323
IT_005040,Cisterna d'Asti,8.001957116448605,44.8278026122831
IT_005041,Coazzolo,8.146775762181749,44.72865342302897
IT_005042,Cocconato,8.042678991115382,45.08661452856813
IT_005044,Corsione,8.156835761840654,44.99660000593923
IT_005045,Cortandone,8.056999358762969,44.955661519503884
IT_005046,Cortanze,8.092869431642413,45.01383624027765
IT_005047,Cortazzone,8.0465977403187,44.98033244485513
IT_005048,Cortiglione,8.362061364069985,44.81876574079811
IT_005049,Cossombrato,8.13670349097406,44.98809393948889
IT_005050,Costigliole d'Asti,8.184201820063597,44.78194933449527
IT_005051,Cunico,8.087483185123967,45.042254926344576
IT_005052,Dusino San Michele,7.979066609566461,44.913688320290404
IT_005053,Ferrere,7.994039845989266,44.874217907042
IT_005054,Fontanile,8.42350047881662,44.75160206734288
IT_005055,Frinco,8.174472108045194,44.996826691026996
IT_005056,Grana,8.296510569130952,44.99892110656545
IT_005057,Grazzano Badoglio,8.316472634636591,45.03542068885318
IT_005058,Incisa Scapaccino,8.378217501470607,44.80619719588729
IT_005059,Isola d'Asti,8.179925914755014,44.82922092749442
IT_005060,Loazzolo,8.268525629477802,44.668933365821566
IT_005061,Maranzana,8.480821302886406,44.7589032858321
IT_005062,Maretto,8.03413772911702,44.94400478876222
IT_005063,Moasca,8.273119968154191,44.76284655669971
IT_005064,Mombaldone,8.33408926540685,44.569910618501076
IT_005065,Mombaruzzo,8.440932610208831,44.76705826140314
IT_005066,Mombercelli,8.29213917845516,44.82067321295392
IT_005067,Monale,8.074419131563117,44.937675609309466
IT_005068,Monastero Bormida,8.338291409836769,44.64194311289682
IT_005069,Moncalvo,8.265089776111026,45.05174014274983
IT_005070,Moncucco Torinese,7.934992709756463,45.047409482672116
IT_005071,Mongardino,8.216255620913001,44.84670548128073
IT_005072,Montabone,8.396792464642939,44.696576795842624
IT_005073,Montafia,8.020603796996882,44.985841971404774
IT_005074,Montaldo Scarampi,8.26188703918282,44.82562284027286
IT_005075,Montechiaro d'Asti,8.111156487441761,45.00593722327258
IT_005076,Montegrosso d'Asti,8.23800275130333,44.819177890016284
IT_005077,Montemagno,8.32336842250955,44.97944006579404
IT_005079,Moransengo,8.032249210490681,45.11661627830498
IT_005080,Nizza Monferrato,8.354658656645011,44.77476713400986
IT_005081,Olmo Gentile,8.242604191541211,44.5865019158642
IT_005082,Passerano Marmorito,8.002354486469066,45.05654486687726
IT_005083,Penango,8.253209073793254,45.03102998301897
IT_005084,Piea,8.063389094285705,45.02184841210909
IT_005085,Pino d'Asti,7.992801175587761,45.05217504718933
IT_005086,Piovà Massaia,8.054629928239613,45.049333625964685
IT_005087,Portacomaro,8.262424542853394,44.94935418773768
IT_005088,Quaranti,8.445564643937537,44.754757731736866
IT_005089,Refrancore,8.327526454894194,44.92975705332443
IT_005090,Revigliasco d'Asti,8.170602801051116,44.86091479258567
IT_005091,Roatto,8.027934349980923,44.946331133069855
IT_005092,Robella,8.093351090013037,45.09616860791841
IT_005093,Rocca d'Arazzo,8.281070681010707,44.8667350016687
IT_005094,Roccaverano,8.272532605482159,44.59648950186637
IT_005095,Rocchetta Palafea,8.337974549406868,44.70607829537624
IT_005096,Rocchetta Tanaro,8.352240066491545,44.86163958436328
IT_005097,San Damiano d'Asti,8.061647736595821,44.83396399241343
IT_005098,San Giorgio Scarampi,8.232807213920122,44.606949593044604
IT_005099,San Martino Alfieri,8.106925483022072,44.81525862610475
IT_005100,San Marzano Oliveto,8.291241445260958,44.75086588557945
IT_005101,San Paolo Solbrito,7.971069057576807,44.948765843750614
IT_005103,Scurzolengo,8.268634276263501,44.964362416127635
IT_005104,Serole,8.260027971792558,44.55718855400594
IT_005105,Sessame,8.334130468585908,44.654281093840936
IT_005106,Settime,8.111653915901563,44.96072951104383
IT_005107,Soglio,8.076758739076773,44.98807778371615
IT_005108,Tigliole,8.090849814119615,44.8809928612797
IT_005109,Tonco,8.189665051514769,45.023509622934306
IT_005110,Tonengo,8.00774677911972,45.109937860481764
IT_005111,Vaglio Serra,8.354162116926302,44.79419464728722
IT_005112,Valfenera,7.964954828378458,44.898634743782
IT_005113,Vesime,8.225350842387105,44.63350771614858
IT_005114,Viale,8.04125836188092,44.99648816695726
IT_005115,Viarigi,8.364611942264712,44.96845988126038
IT_005116,Vigliano d'Asti,8.231943623512288,44.8305271654087
IT_005117,Villafranca d'Asti,8.033914367856497,44.91313266700751
IT_005118,Villanova d'Asti,7.939188159299492,44.945777526337125
IT_005119,Villa San Secondo,8.127266910757912,45.00219912924529
IT_005120,Vinchio,8.318585919915533,44.81124827382262
IT_005121,Montiglio Monferrato,8.09322792283089,45.06708017868042
IT_006001,Acqui Terme,8.468538244819378,44.67537301277244
IT_006002,Albera Ligure,9.065737969350103,44.70411773545368
IT_006003,Alessandria,8.616438259114561,44.907324161414486
IT_006004,Alfiano Natta,8.206163111737432,45.04460809685709
IT_006005,Alice Bel Colle,8.451289750610464,44.725584930270045
IT_006007,Altavilla Monferrato,8.364963020300284,44.98668678660604
IT_006008,Alzano Scrivia,8.880742280260362,45.01626630911327
IT_006009,Arquata Scrivia,8.88706688034145,44.68792635325284
IT_006010,Avolasca,8.971322903883433,44.80751402577196
IT_006011,Balzola,8.4134635888799,45.17606461256307
IT_006012,Basaluzzo,8.706485954140428,44.77149025618367
IT_006013,Bassignana,8.731087466245794,44.99846164349824
IT_006014,Belforte Monferrato,8.651423846472742,44.63146246448026
IT_006015,Bergamasco,8.455458273497756,44.82986623979947
IT_006016,Berzano di Tortona,8.95749381072259,44.881020062971324
IT_006017,Bistagno,8.370324197378869,44.661025044698604
IT_006018,Borghetto di Borbera,8.952976552028971,44.72908070028974
IT_006019,Borgoratto Alessandrino,8.541246965904817,44.837249447597316
IT_006020,Borgo San Martino,8.528677692221086,45.092877013092966
IT_006021,Bosco Marengo,8.684838405185001,44.82690467679254
IT_006022,Bosio,8.790952548987809,44.648224615146624
IT_006023,Bozzole,8.612382423107013,45.06763042413771
IT_006024,Brignano-Frascata,9.047550551796604,44.80262442333628
IT_006025,Cabella Ligure,9.102643854107548,44.675245177552824
IT_006026,Camagna Monferrato,8.437022843828297,45.02820810679628
IT_006027,Camino,8.279140755109774,45.160583167563885
IT_006028,Cantalupo Ligure,9.048887219793173,44.723753917914074
IT_006029,Capriata d'Orba,8.67249151047966,44.74199882227585
IT_006030,Carbonara Scrivia,8.869565786677459,44.85194290862689
IT_006031,Carentino,8.47027120468426,44.82171338568055
IT_006032,Carezzano,8.905025195210259,44.81156634886903
IT_006033,Carpeneto,8.608397641537792,44.68269059104419
IT_006034,Carrega Ligure,9.171515810606754,44.621034981574894
IT_006035,Carrosio,8.835552930798329,44.6554540141628
IT_006036,Cartosio,8.426122727569425,44.59266849568852
IT_006037,Casal Cermelli,8.623021902386022,44.8316230242473
IT_006038,Casaleggio Boiro,8.736883309333564,44.6365836756704
IT_006039,Casale Monferrato,8.451420705791987,45.13434010262598
IT_006040,Casalnoceto,8.983019752988133,44.912027382472395
IT_006041,Casasco,9.004430925479921,44.8151628953588
IT_006043,Cassine,8.532278465400745,44.74668265560793
IT_006044,Cassinelle,8.559542431849925,44.602514098708994
IT_006045,Castellania Coppi,8.941071336705933,44.803451104014236
IT_006046,Castellar Guidobono,8.94477295802744,44.90835792036395
IT_006047,Castellazzo Bormida,8.578585258425477,44.84109376399675
IT_006048,Castelletto d'Erro,8.394825383065227,44.63891433336399
IT_006049,Castelletto d'Orba,8.690744411114872,44.69047942775591
IT_006050,Castelletto Merli,8.250998658051929,45.06478818992876
IT_006051,Castelletto Monferrato,8.569014609525265,44.9755408252732
IT_006052,Castelnuovo Bormida,8.548080617900023,44.7415060212097
IT_006053,Castelnuovo Scrivia,8.879906259978183,44.980343140690955
IT_006054,Castelspina,8.580654637124487,44.805223799136584
IT_006055,Cavatore,8.44701470365504,44.63903891536369
IT_006056,Cella Monte,8.390975572554327,45.078486338970066
IT_006057,Cereseto,8.313675499746235,45.095563134076386
IT_006058,Cerreto Grue,8.937329498727443,44.84483146951571
IT_006059,Cerrina Monferrato,8.21321196842989,45.11695702948913
IT_006060,Coniolo,8.368467809049317,45.16166747481559
IT_006061,Conzano,8.457837801080876,45.04008440632993
IT_006062,Costa Vescovato,8.92566772323284,44.81780969597491
IT_006063,Cremolino,8.599931077621608,44.6275952684089
IT_006065,Denice,8.346153098559173,44.60366795492495
IT_006066,Dernice,9.059234860889985,44.78064338296024
IT_006067,Fabbrica Curone,9.155545123721787,44.772370418999195
IT_006068,Felizzano,8.433696756866599,44.90182132540202
IT_006069,Fraconalto,8.887297452110365,44.600172714604476
IT_006070,Francavilla Bisio,8.741951257901235,44.72681091105259
IT_006071,Frascaro,8.533680749552724,44.82594742280604
IT_006072,Frassinello Monferrato,8.383614241526734,45.033536077747364
IT_006073,Frassineto Po,8.533352048673446,45.13087869241048
IT_006074,Fresonara,8.687872583417905,44.77667853584403
IT_006075,Frugarolo,8.690271984268227,44.85254045575937
IT_006076,Fubine Monferrato,8.424735902250848,44.9647549264455
IT_006077,Gabiano,8.198366676298367,45.152256505391904
IT_006078,Gamalero,8.537264500155054,44.80427286432779
IT_006079,Garbagna,8.997195115940013,44.78383700925999
IT_006081,Gavi,8.806189412372982,44.688993598664574
IT_006082,Giarole,8.566890172596889,45.05959578785458
IT_006083,Gremiasco,9.110991057678499,44.79281244436246
IT_006084,Grognardo,8.488456644409114,44.6348340991654
IT_006085,Grondona,8.930028889231147,44.692531955555886
IT_006086,Guazzora,8.850752204384639,45.02038268622919
IT_006087,Isola Sant'Antonio,8.880554950151085,45.02538765424682
IT_006088,Lerma,8.707333596982643,44.63535756368871
IT_006090,Malvicino,8.430273311120375,44.561673808676545
IT_006091,Masio,8.422909157705915,44.87625865445793
IT_006092,Melazzo,8.421060080974305,44.644068068823984
IT_006093,Merana,8.305123200041598,44.51076470207812
IT_006094,Mirabello Monferrato,8.523671722483769,45.036554187915065
IT_006095,Molare,8.598569800302373,44.617279340516625
IT_006096,Molino dei Torti,8.889755940848445,45.02370142252345
IT_006097,Mombello Monferrato,8.259635134237026,45.12597844270242
IT_006098,Momperone,9.023666195568467,44.84138710610779
IT_006099,Moncestino,8.161341111059727,45.15013150837733
IT_006100,Mongiardino Ligure,9.056466313866464,44.66129011291357
IT_006101,Monleale,8.978984672836656,44.88815023422463
IT_006102,Montacuto,9.098917023523901,44.76782844509961
IT_006103,Montaldeo,8.734274292771133,44.66822999713907
IT_006104,Montaldo Bormida,8.593962822406109,44.69355569667257
IT_006105,Montecastello,8.688343525814222,44.9509758708258
IT_006106,Montechiaro d'Acqui,8.360519108778508,44.6030079591
IT_006107,Montegioco,8.94919360074398,44.842368755110854
IT_006108,Montemarzino,8.9892944899816,44.84218824698397
IT_006109,Morano sul Po,8.367977715732868,45.165059933311255
IT_006110,Morbello,8.523049419786531,44.602802503417536
IT_006111,Mornese,8.758913015531686,44.637130858077754
IT_006112,Morsasco,8.550411666671643,44.66523588280023
IT_006113,Murisengo,8.136232336860273,45.08126169875769
IT_006114,Novi Ligure,8.7899000664754,44.76370533433975
IT_006115,Occimiano,8.515525174267538,45.05968797746595
IT_006116,Odalengo Grande,8.16162353182519,45.091892008364596
IT_006117,Odalengo Piccolo,8.205000076522385,45.0722613303712
IT_006118,Olivola,8.378958346927673,45.03672978221462
IT_006119,Orsara Bormida,8.565727569382439,44.68557414967261
IT_006120,Ottiglio,8.336038428902103,45.05317640263452
IT_006121,Ovada,8.640286665553093,44.63631329213723
IT_006122,Oviglio,8.489527856956324,44.860480093436614
IT_006123,Ozzano Monferrato,8.366911390922732,45.10952183296121
IT_006124,Paderna,8.888994380270914,44.81837506431698
IT_006125,Pareto,8.396279381461248,44.5157402234512
IT_006126,Parodi Ligure,8.753732214080546,44.682598296472406
IT_006127,Pasturana,8.748461635731104,44.75319716177183
IT_006128,Pecetto di Valenza,8.668102762918009,44.987078285587344
IT_006129,Pietra Marazzi,8.662573653371268,44.94580619797403
IT_006131,Pomaro Monferrato,8.595583462937508,45.06430518819247
IT_006132,Pontecurone,8.932735121124859,44.96156092002008
IT_006133,Pontestura,8.332777729644647,45.14049742204952
IT_006134,Ponti,8.360131476593606,44.621244855404456
IT_006135,Ponzano Monferrato,8.269677074820045,45.07339544138283
IT_006136,Ponzone,8.475608630321457,44.57203050230732
IT_006137,Pozzol Groppo,9.05401086829593,44.8875946070118
IT_006138,Pozzolo Formigaro,8.784766011648452,44.795066924071975
IT_006139,Prasco,8.546419184232228,44.64679835953885
IT_006140,Predosa,8.652677131614388,44.75192657788804
IT_006141,Quargnento,8.487894580008325,44.94827279795279
IT_006142,Quattordio,8.4049732643337,44.90452681823078
IT_006143,Ricaldone,8.469226102994552,44.73118267696723
IT_006144,Rivalta Bormida,8.546850986229847,44.709870849572546
IT_006145,Rivarone,8.716077187142389,44.97635993236278
IT_006146,Roccaforte Ligure,9.039977364627042,44.67357513574991
IT_006147,Rocca Grimalda,8.656582017397266,44.68270409612499
IT_006148,Rocchetta Ligure,9.055574731982635,44.700152140732946
IT_006149,Rosignano Monferrato,8.409087155260567,45.08492121211267
IT_006150,Sala Monferrato,8.36339950170972,45.07153426052869
IT_006151,Sale,8.807771602294036,44.98044396865114
IT_006152,San Cristoforo,8.747190893361052,44.690386893681556
IT_006153,San Giorgio Monferrato,8.411880255112656,45.105074333129295
IT_006154,San Salvatore Monferrato,8.564613696684582,44.99412903446311
IT_006155,San Sebastiano Curone,9.060461511354633,44.78417228471198
IT_006156,Sant'Agata Fossili,8.919033241405943,44.784161736496614
IT_006157,Sardigliano,8.911387341196232,44.76743704270409
IT_006158,Sarezzano,8.93261566049913,44.863794272299515
IT_006159,Serralunga di Crea,8.295008949308897,45.099427393136985
IT_006160,Serravalle Scrivia,8.858993087722599,44.723303460388834
IT_006161,Sezzadio,8.580079639075073,44.77620976372861
IT_006162,Silvano d'Orba,8.679432069354727,44.68661105646479
IT_006163,Solero,8.508518454864937,44.915931652524975
IT_006164,Solonghello,8.298924859278106,45.12051628166787
IT_006165,Spigno Monferrato,8.332862792439704,44.543887831128906
IT_006166,Spineto Scrivia,8.870331102063043,44.840697775773215
IT_006167,Stazzano,8.865729542818652,44.72296216474712
IT_006168,Strevi,8.529292899926146,44.70063405282946
IT_006169,Tagliolo Monferrato,8.6745516484081,44.63535613365308
IT_006170,Tassarolo,8.771325281732887,44.726462165840466
IT_006171,Terruggia,8.447314550854424,45.08143092851364
IT_006172,Terzo,8.421249604442774,44.66912190520496
IT_006173,Ticineto,8.553888241281888,45.09478477877521
IT_006174,Tortona,8.86538573497422,44.89586770262966
IT_006175,Treville,8.366301221774185,45.09712744627978
IT_006176,Trisobbio,8.5907093015941,44.6646188379871
IT_006177,Valenza,8.639571501236743,45.0120804685368
IT_006178,Valmacca,8.586739155150427,45.10189365326244
IT_006179,Vignale Monferrato,8.399429282968267,45.01150950406274
IT_006180,Vignole Borbera,8.888018401903086,44.70935058451752
IT_006181,Viguzzolo,8.920510033899227,44.90802817415015
IT_006182,Villadeati,8.169957346198828,45.06799859102027
IT_006183,Villalvernia,8.857896776882454,44.81678670076181
IT_006184,Villamiroglio,8.17771961174307,45.13928502471537
IT_006185,Villanova Monferrato,8.480628357137475,45.18231169913643
IT_006186,Villaromagnano,8.876806015069274,44.84944880611777
IT_006187,Visone,8.499574928618992,44.66037281140904
IT_006188,Volpedo,8.983388805229959,44.89346152308134
IT_006189,Volpeglino,8.961355359437997,44.88613252167589
IT_006190,Voltaggio,8.854730012342122,44.615735169125195
IT_006191,Cassano Spinola,8.860217646108874,44.76404103395546
IT_006192,Alluvioni Piovera,8.755828460916193,44.969979845386284
IT_006193,Lu e Cuccaro Monferrato,8.48485949747018,45.00154094871605
IT_007001,Allein,7.285097303186298,45.80510883764988
IT_007002,Antey-Saint-André,7.590424627488954,45.80688711121925
IT_007003,Aosta,7.3113714344571115,45.73675678600302
IT_007004,Arnad,7.719795747233248,45.64426100985597
IT_007005,Arvier,7.171817080228306,45.701678825625365
IT_007006,Avise,7.15378342857378,45.708409041046835
IT_007007,Ayas,7.711368405564554,45.82997529542122
IT_007008,Aymavilles,7.251646563646447,45.71005728755836
IT_007009,Bard,7.744495681999336,45.611874578582295
IT_007010,Bionaz,7.39341096575031,45.8631620094303
IT_007011,Brissogne,7.411577435056629,45.733354084304906
IT_007012,Brusson,7.727980209017528,45.75716772459279
IT_007013,Challand-Saint-Anselme,7.7345795684445475,45.71461409663983
IT_007014,Challand-Saint-Victor,7.689853014624619,45.67585373261288
IT_007015,Chambave,7.539385381872861,45.743671089830336
IT_007016,Chamois,7.607842004463153,45.830809368010726
IT_007017,Champdepraz,7.662456572120827,45.68800692791787
IT_007018,Champorcher,7.629794486899696,45.62568072032818
IT_007019,Charvensod,7.324221097886111,45.726548140353046
IT_007020,Châtillon,7.6330664668598915,45.752182085692326
IT_007021,Cogne,7.352679069284921,45.61376326984365
IT_007022,Courmayeur,6.9711072551204785,45.79404848427537
IT_007023,Donnas,7.782631020766823,45.60034298331399
IT_007024,Doues,7.310912471942344,45.81106803942012
IT_007025,Emarèse,7.693703553815281,45.71939409703655
IT_007026,Etroubles,7.227870307332366,45.82260322793285
IT_007027,Fénis,7.479555218675311,45.73770642482864
IT_007028,Fontainemore,7.859649187636242,45.64960730243385
IT_007029,Gaby,7.877349295670449,45.71243296289388
IT_007030,Gignod,7.3045492596052,45.77462671565449
IT_007031,Gressan,7.293233295722953,45.722897573815
IT_007032,Gressoney-La-Trinité,7.820451762267743,45.83119747315603
IT_007033,Gressoney-Saint-Jean,7.8262536074364455,45.78513052404038
IT_007034,Hône,7.7400898510107785,45.611054992249166
IT_007035,Introd,7.185347355393375,45.693726014580456
IT_007036,Issime,7.853357868290369,45.6838012142939
IT_007037,Issogne,7.682124939599227,45.66024006647583
IT_007038,Jovençan,7.264267102693435,45.71507764007941
IT_007039,La Magdeleine,7.616050257817188,45.81160072831652
IT_007040,La Salle,7.068168839614477,45.74702265990439
IT_007041,La Thuile,6.951896718904569,45.71655476973199
IT_007042,Lillianes,7.842578500329295,45.63155519198782
IT_007043,Montjovet,7.6730092387656175,45.71063316814293
IT_007044,Morgex,7.036373786954995,45.75670529305387
IT_007045,Nus,7.46766747075783,45.74052188769662
IT_007046,Ollomont,7.305798846505795,45.85355888167155
IT_007047,Oyace,7.382887304936387,45.84926861051694
IT_007048,Perloz,7.793408073910715,45.60592148602586
IT_007049,Pollein,7.342501056263787,45.73365557619217
IT_007050,Pontboset,7.683629523079913,45.61142871642565
IT_007051,Pontey,7.605471647891331,45.740206175847995
IT_007052,Pont-Saint-Martin,7.79594711837555,45.59701146424994
IT_007053,Pré-Saint-Didier,6.982507485226514,45.77347123729951
IT_007054,Quart,7.389072329797305,45.74647602166906
IT_007055,Rhêmes-Notre-Dame,7.1188156356569925,45.57216231612261
IT_007056,Rhêmes-Saint-Georges,7.149508528749975,45.65008571673144
IT_007057,Roisan,7.314030726058443,45.773440550791946
IT_007058,Saint-Christophe,7.352069683440045,45.746274715060785
IT_007059,Saint-Denis,7.601906550478367,45.75393746017255
IT_007060,Saint-Marcel,7.464834225579838,45.735891692068854
IT_007061,Saint-Nicolas,7.195988023492922,45.70948046556788
IT_007062,Saint-Oyen,7.223778004826545,45.82536242294861
IT_007063,Saint-Pierre,7.228084021593052,45.71004705797991
IT_007064,Saint-Rhémy-en-Bosses,7.177872366731499,45.822894475448656
IT_007065,Saint-Vincent,7.644417171805727,45.75265046910462
IT_007066,Sarre,7.273624599659386,45.72667875880427
IT_007067,Torgnon,7.572822325569622,45.80484687366918
IT_007068,Valgrisenche,7.066239841146046,45.63696166990138
IT_007069,Valpelline,7.328025913199724,45.82671671812878
IT_007070,Valsavarenche,7.2110610830353625,45.58798754717625
IT_007071,Valtournenche,7.62462891761111,45.901241311682114
IT_007072,Verrayes,7.5226881772068674,45.74938545267741
IT_007073,Verrès,7.6877760965458455,45.6618175672086
IT_007074,Villeneuve,7.222023645217336,45.70397588705097
IT_008001,Airole,7.548920494528666,43.87430032383847
IT_008002,Apricale,7.671842549673176,43.87808130108641
IT_008003,Aquila d'Arroscia,8.004946406677238,44.09593022089176
IT_008004,Armo,7.919285610665786,44.086050157426094
IT_008005,Aurigo,7.91770949853258,43.98189284327058
IT_008006,Badalucco,7.84448057966379,43.91764704736451
IT_008007,Bajardo,7.721534456713325,43.885124936961674
IT_008008,Bordighera,7.659160365202184,43.78566927294328
IT_008009,Borghetto d'Arroscia,7.980442076654995,44.05916917002248
IT_008010,Borgomaro,7.938143233540268,43.97878339445698
IT_008011,Camporosso,7.6296642696405845,43.791670888626946
IT_008012,Caravonica,7.954718223205968,43.992659176955634
IT_008014,Castellaro,7.864728183936993,43.859280843825154
IT_008015,Castel Vittorio,7.673150382063813,43.929760387188146
IT_008016,Ceriana,7.773631964450758,43.87844783210475
IT_008017,Cervo,8.106902439807744,43.92374964796913
IT_008018,Cesio,7.973623822101533,44.01145911470642
IT_008019,Chiusanico,7.993955254553708,43.96609932972244
IT_008020,Chiusavecchia,7.984546230070977,43.96556645576166
IT_008021,Cipressa,7.939319917607625,43.852113356389154
IT_008022,Civezza,7.961728015720939,43.875416486184825
IT_008023,Cosio d'Arroscia,7.825266188730004,44.07628118685294
IT_008024,Costarainera,7.954052230850933,43.85581461429145
IT_008025,Diano Arentino,8.047473336634749,43.94910095828406
IT_008026,Diano Castello,8.077037960236764,43.91634086513264
IT_008027,Diano Marina,8.079219871470354,43.91347705878402
IT_008028,Diano San Pietro,8.069978320979304,43.93208977895434
IT_008029,Dolceacqua,7.624512908334112,43.85186935518032
IT_008030,Dolcedo,7.945549601874565,43.901711566874326
IT_008031,Imperia,8.026529804146437,43.8885479583563
IT_008032,Isolabona,7.6362332389248415,43.88004963276705
IT_008033,Lucinasco,7.964059520797201,43.96945246001877
IT_008034,Mendatica,7.804386209099136,44.07663709777401
IT_008035,Molini di Triora,7.781457078475396,43.987173967326434
IT_008037,Montegrosso Pian Latte,7.813882033146538,44.070193499448536
IT_008038,Olivetta San Michele,7.538024039306895,43.87692780798735
IT_008039,Ospedaletti,7.725969495733697,43.80562218678313
IT_008040,Perinaldo,7.6782534395764674,43.853320844014846
IT_008041,Pietrabruna,7.911934397316279,43.889648421747545
IT_008042,Pieve di Teco,7.914781491749809,44.04586438755062
IT_008043,Pigna,7.6649753976045965,43.93205111244444
IT_008044,Pompeiana,7.882749208504605,43.853431732846005
IT_008045,Pontedassio,8.01391468032543,43.93897492803419
IT_008046,Pornassio,7.86804176269095,44.08014237670682
IT_008047,Prelà,7.932800050148691,43.92974532915725
IT_008048,Ranzo,8.013905909683837,44.06257341817428
IT_008049,Rezzo,7.884882834494124,44.02202087369932
IT_008050,Riva Ligure,7.8719658023908625,43.83733723163931
IT_008051,Rocchetta Nervina,7.59754157883837,43.893321158343355
IT_008052,San Bartolomeo al Mare,8.101343215132191,43.9236785934714
IT_008053,San Biagio della Cima,7.652628836551296,43.81583899992287
IT_008054,San Lorenzo al Mare,7.959398435932418,43.85710648459353
IT_008055,Sanremo,7.777499892646116,43.82142732047881
IT_008056,Santo Stefano al Mare,7.887012440852064,43.83758427796543
IT_008057,Seborga,7.691628376426127,43.82576233573635
IT_008058,Soldano,7.653536628353655,43.82705888783854
IT_008059,Taggia,7.850701577494384,43.84442489575244
IT_008060,Terzorio,7.897399770888718,43.851916500689995
IT_008061,Triora,7.765295782469491,43.993089647919454
IT_008062,Vallebona,7.66486012507401,43.811399541588315
IT_008063,Vallecrosia,7.6436303276084026,43.78898174743128
IT_008064,Vasia,7.955455407307607,43.92654924984686
IT_008065,Ventimiglia,7.610905091296115,43.78946467890401
IT_008066,Vessalico,7.9592861720392145,44.04545733801505
IT_008067,Villa Faraldi,8.095478592814002,43.96962099183772
IT_008068,Montalto Carpasio,7.8463241784355935,43.92182321531343
IT_009001,Alassio,8.165667777363685,44.00585030910449
IT_009002,Albenga,8.210758097464984,44.051447075379336
IT_009003,Albissola Marina,8.500256281712701,44.32799315139416
IT_009004,Albisola Superiore,8.509964152803116,44.33443817143512
IT_009005,Altare,8.341526956937724,44.33330449684511
IT_009006,Andora,8.143016206923532,43.9599838341601
IT_009007,Arnasco,8.111859646923183,44.0760481501811
IT_009008,Balestrino,8.190499360008832,44.123865475324564
IT_009009,Bardineto,8.134593196609238,44.192013345363115
IT_009010,Bergeggi,8.443642845633295,44.25149096536913
IT_009011,Boissano,8.227833289714647,44.1320773227544
IT_009012,Borghetto Santo Spirito,8.243094287946368,44.12098596145996
IT_009013,Borgio Verezzi,8.303717552774112,44.16005617193555
IT_009014,Bormida,8.234979900368648,44.27870101758083
IT_009015,Cairo Montenotte,8.28101507363051,44.38749368328078
IT_009016,Calice Ligure,8.299134084385905,44.20949476710438
IT_009017,Calizzano,8.115948174108269,44.23766332683709
IT_009018,Carcare,8.289388884163008,44.35857954909548
IT_009019,Casanova Lerrone,8.040781885854628,44.03904610022029
IT_009020,Castelbianco,8.073656909327353,44.11182083102994
IT_009021,Castelvecchio di Rocca Barbena,8.115802601024775,44.13300205769538
IT_009022,Celle Ligure,8.5277940104481,44.34001212498165
IT_009023,Cengio,8.203696824074322,44.38921144236156
IT_009024,Ceriale,8.224374963974453,44.0919128085777
IT_009025,Cisano sul Neva,8.157395113709532,44.080184814635174
IT_009026,Cosseria,8.277052404672107,44.36255572024198
IT_009027,Dego,8.308019570094384,44.44103274448642
IT_009028,Erli,8.102644407105178,44.13819048277361
IT_009029,Finale Ligure,8.339362735273285,44.17380774969076
IT_009030,Garlenda,8.099516724903856,44.0313915285431
IT_009031,Giustenice,8.249305881843766,44.167266801269584
IT_009032,Giusvalla,8.383552626441663,44.45504169635318
IT_009033,Laigueglia,8.153539655122168,43.97755917581684
IT_009034,Loano,8.25158703634997,44.1259668101825
IT_009035,Magliolo,8.251747233094205,44.192498078620034
IT_009036,Mallare,8.291713029079286,44.29349029774019
IT_009037,Massimino,8.0697746318302,44.30026094386193
IT_009038,Millesimo,8.20325748900379,44.366498496563445
IT_009039,Mioglia,8.41276819409065,44.487461195350434
IT_009040,Murialdo,8.156717965695075,44.314084787860565
IT_009041,Nasino,8.030023730097039,44.111505096000705
IT_009042,Noli,8.407810406853145,44.217973504172186
IT_009043,Onzo,8.0591845821405,44.06177865869279
IT_009044,Orco Feglino,8.329305009598677,44.22160379731456
IT_009045,Ortovero,8.094777192839086,44.060069602463535
IT_009046,Osiglia,8.200928011832957,44.28218095500681
IT_009047,Pallare,8.274180382931409,44.32857429957076
IT_009048,Piana Crixia,8.29404568196478,44.4911988509898
IT_009049,Pietra Ligure,8.283262678644933,44.1520171411746
IT_009050,Plodio,8.255689059537033,44.35732357221996
IT_009051,Pontinvrea,8.445667008340996,44.43936174720928
IT_009052,Quiliano,8.428877866232087,44.27987601369854
IT_009053,Rialto,8.268972840680805,44.21621152549017
IT_009054,Roccavignale,8.18185785833818,44.36194510203936
IT_009055,Sassello,8.491586137007523,44.47899364944975
IT_009056,Savona,8.475120303325822,44.309368031988704
IT_009057,Spotorno,8.413081495202151,44.22602765928164
IT_009058,Stella,8.505811383565934,44.39058361976839
IT_009059,Stellanello,8.060376434734966,44.0031263594626
IT_009060,Testico,8.039879900025557,44.00341744112963
IT_009061,Toirano,8.214833471937181,44.12747369655201
IT_009062,Tovo San Giacomo,8.276171680422422,44.172388302293314
IT_009063,Urbe,8.596583089941374,44.48791771959118
IT_009064,Vado Ligure,8.432496852332141,44.273169830281915
IT_009065,Varazze,8.575657538661716,44.3637223326141
IT_009066,Vendone,8.09331548661318,44.0744308910188
IT_009067,Vezzi Portio,8.366857609118458,44.226206043293736
IT_009068,Villanova d'Albenga,8.138292720500601,44.04859316370929
IT_009069,Zuccarello,8.116669740353286,44.106896542087625
IT_010001,Arenzano,8.677758831454891,44.40288213094605
IT_010002,Avegno,9.160040190027344,44.38701102241068
IT_010003,Bargagli,9.089252203752322,44.446656345840395
IT_010004,Bogliasco,9.071764227841063,44.37843307446843
IT_010005,Borzonasca,9.390021283645149,44.419152118481236
IT_010006,Busalla,8.950101295998799,44.57299587149272
IT_010007,Camogli,9.162413993573914,44.35005500453624
IT_010008,Campo Ligure,8.700284855132907,44.536132067862226
IT_010009,Campomorone,8.88638516631541,44.512424787156405
IT_010010,Carasco,9.349554917810911,44.348894254890645
IT_010011,Casarza Ligure,9.447952382560125,44.27302071382118
IT_010012,Casella,8.998779262182037,44.53669472915989
IT_010013,Castiglione Chiavarese,9.507048134845306,44.27017780433666
IT_010014,Ceranesi,8.88789941558225,44.5079523351071
IT_010015,Chiavari,9.33007883592618,44.31869944170546
IT_010016,Cicagna,9.23980833920413,44.40736404959194
IT_010017,Cogoleto,8.645648041641762,44.393584696716225
IT_010018,Cogorno,9.354384022005338,44.33058984246518
IT_010019,Coreglia Ligure,9.261822779783307,44.38813642578343
IT_010020,Crocefieschi,9.026387135911223,44.58402153535492
IT_010021,Davagna,9.084878450575454,44.44599420275302
IT_010022,Fascia,9.246849903806748,44.55839481820932
IT_010023,Favale di Malvaro,9.255473415900308,44.44467971985883
IT_010024,Fontanigorda,9.30091439299636,44.54330389492184
IT_010025,Genova,8.923200943349718,44.417825450371836
IT_010026,Gorreto,9.279168433743802,44.59297947784276
IT_010027,Isola del Cantone,8.95995725747451,44.64705393340684
IT_010028,Lavagna,9.345051408222698,44.31597923962104
IT_010029,Leivi,9.33393584624053,44.341881063538146
IT_010030,Lorsica,9.257999420356102,44.432117546299224
IT_010031,Lumarzo,9.137705720810146,44.43630165438265
IT_010032,Masone,8.714192539838129,44.502049707538184
IT_010033,Mele,8.748471058312491,44.447366922161535
IT_010034,Mezzanego,9.380544158980337,44.38995700792445
IT_010035,Mignanego,8.91511404083175,44.522718809210254
IT_010036,Moconesi,9.203340788018401,44.4255548665755
IT_010037,Moneglia,9.501769881719582,44.234248514871176
IT_010038,Montebruno,9.25265547205908,44.52357893713596
IT_010039,Montoggio,9.039902536296374,44.51788698976189
IT_010040,Ne,9.393663186908388,44.3473635281961
IT_010041,Neirone,9.174144234712504,44.438091042856946
IT_010042,Orero,9.267784615297087,44.39749659275763
IT_010043,Pieve Ligure,9.093205346213365,44.37568434727566
IT_010044,Portofino,9.205558924841764,44.3071117110084
IT_010045,Propata,9.1872157908265,44.56117489570145
IT_010046,Rapallo,9.22578282629707,44.35231003603313
IT_010047,Recco,9.145673616235152,44.36171362389227
IT_010048,Rezzoaglio,9.389411492868783,44.51969229927524
IT_010049,Ronco Scrivia,8.94509149680105,44.597680014648255
IT_010050,Rondanina,9.221523584033479,44.55258531643215
IT_010051,Rossiglione,8.669944182294946,44.563933483558735
IT_010052,Rovegno,9.283471382396272,44.57271312874751
IT_010053,San Colombano Certenoli,9.312146507427808,44.3708701698424
IT_010054,Santa Margherita Ligure,9.205638564842637,44.33404924231843
IT_010055,Sant'Olcese,8.930118077266947,44.478324850411106
IT_010056,Santo Stefano d'Aveto,9.45243823873262,44.54004029908334
IT_010057,Savignone,8.975725703946804,44.559141311647885
IT_010058,Serra Riccò,8.90746721536157,44.49947786079274
IT_010059,Sestri Levante,9.416079989235028,44.27151896432871
IT_010060,Sori,9.10712145709815,44.37439912132545
IT_010061,Tiglieto,8.621039612752595,44.522633416452244
IT_010062,Torriglia,9.152175479286909,44.51603575259641
IT_010063,Tribogna,9.190622974584564,44.42306534752806
IT_010064,Uscio,9.159617142270623,44.418111907951406
IT_010065,Valbrevenna,9.020588517107651,44.53834220724154
IT_010066,Vobbia,9.04864110500057,44.60129072067942
IT_010067,Zoagli,9.246848499620322,44.34892256742538
IT_011001,Ameglia,9.968694207061157,44.0654235435462
IT_011002,Arcola,9.9030255876126,44.11573806540315
IT_011003,Beverino,9.775422101253161,44.1885782018924
IT_011004,Bolano,9.884464571660368,44.17096819814626
IT_011005,Bonassola,9.601315271144312,44.17428618031122
IT_011006,Borghetto di Vara,9.713367600333536,44.23351400520138
IT_011007,Brugnato,9.720737794783982,44.23397115222825
IT_011008,Calice al Cornoviglio,9.855521863731902,44.19590086686511
IT_011009,Carro,9.604462449314333,44.27705892504639
IT_011010,Carrodano,9.630974280357826,44.24470661241356
IT_011011,Castelnuovo Magra,10.00527583649321,44.090501983585334
IT_011012,Deiva Marina,9.525139718333625,44.221428464169826
IT_011013,Follo,9.866692298557279,44.17426220642597
IT_011014,Framura,9.526100475404215,44.21948570544557
IT_011015,La Spezia,9.825992975202741,44.11345635721542
IT_011016,Lerici,9.904326423763218,44.08169061997242
IT_011017,Levanto,9.616372117995407,44.174681785045145
IT_011018,Maissana,9.559935019163413,44.329174867913416
IT_011019,Monterosso al Mare,9.65245563198871,44.14713298304432
IT_011020,Luni,10.029861634202362,44.072249577834576
IT_011021,Pignone,9.715912402995142,44.176482644753534
IT_011022,Portovenere,9.825356273711296,44.07543249622292
IT_011023,Riccò del Golfo di Spezia,9.76955133144056,44.150962350075766
IT_011024,Riomaggiore,9.738053195786334,44.10331341471727
IT_011025,Rocchetta di Vara,9.775424510427973,44.253285131332845
IT_011026,Santo Stefano di Magra,9.920565869322806,44.15296388996948
IT_011027,Sarzana,9.967391125258693,44.10737596269506
IT_011028,Sesta Godano,9.672893122198511,44.29212760514912
IT_011029,Varese Ligure,9.58677792018345,44.36879930733883
IT_011030,Vernazza,9.687071175799103,44.13493410136412
IT_011031,Vezzano Ligure,9.8822139049065,44.142592416583234
IT_011032,Zignago,9.734737492500683,44.28131990757903
IT_012001,Agra,8.774122942761599,46.03144833099803
IT_012002,Albizzate,8.80590049260633,45.72949375620209
IT_012003,Angera,8.594113629518448,45.77495247653943
IT_012004,Arcisate,8.864760130643637,45.858295624905246
IT_012005,Arsago Seprio,8.73823621397648,45.68102515554015
IT_012006,Azzate,8.793062359978554,45.77778123472083
IT_012007,Azzio,8.702376702920102,45.891918724228496
IT_012008,Barasso,8.749283710890806,45.83602438411858
IT_012009,Bardello,8.692695659766144,45.83672393836261
IT_012010,Bedero Valcuvia,8.793285172057963,45.914338468175586
IT_012011,Besano,8.893572811911861,45.891591092064786
IT_012012,Besnate,8.764848536707895,45.6996919467819
IT_012013,Besozzo,8.664826565562105,45.84708497256443
IT_012014,Biandronno,8.706541585013806,45.812092578759206
IT_012015,Bisuschio,8.874804751447382,45.87463409696701
IT_012016,Bodio Lomnago,8.743934391933958,45.78860879125968
IT_012017,Brebbia,8.660074909004276,45.83818790646024
IT_012018,Bregano,8.689465354170663,45.829844147160586
IT_012019,Brenta,8.683129336189376,45.896407000718646
IT_012020,Brezzo di Bedero,8.722896006282994,45.98372784325623
IT_012021,Brinzio,8.78609090416909,45.88939011166851
IT_012022,Brissago-Valtravaglia,8.753280393466415,45.9611603416772
IT_012023,Brunello,8.799553357168943,45.769194349510926
IT_012024,Brusimpiano,8.878896238416653,45.94704374790968
IT_012025,Buguggiate,8.808587084930865,45.78136039647134
IT_012026,Busto Arsizio,8.847980409566285,45.61244690178095
IT_012027,Cadegliano-Viconago,8.841318776446574,45.96277157604164
IT_012029,Cairate,8.85464431320944,45.682370633983965
IT_012030,Cantello,8.895359363855391,45.82194682318558
IT_012031,Caravate,8.661313445210837,45.87891733725168
IT_012032,Cardano al Campo,8.776076525723798,45.64747148795279
IT_012033,Carnago,8.832911641155016,45.72163195910068
IT_012034,Caronno Pertusella,9.05031660438951,45.59369508787543
IT_012035,Caronno Varesino,8.824174252470685,45.73801208704868
IT_012036,Casale Litta,8.72284879825952,45.772347218205454
IT_012037,Casalzuigno,8.708896694353449,45.904323240560004
IT_012038,Casciago,8.772588151956368,45.82605031906412
IT_012039,Casorate Sempione,8.753652798635763,45.666742112189525
IT_012040,Cassano Magnago,8.822481046587724,45.67104106367198
IT_012041,Cassano Valcuvia,8.774102033611845,45.937190034284185
IT_012042,Castellanza,8.897275808309768,45.608576780020925
IT_012043,Castello Cabiaglio,8.776050725749704,45.89055453015952
IT_012044,Castelseprio,8.871349311187437,45.714445301966144
IT_012045,Castelveccana,8.680542248147315,45.95320794730814
IT_012046,Castiglione Olona,8.875913311535074,45.75225693334024
IT_012047,Castronno,8.81352007894688,45.74940868402242
IT_012048,Cavaria con Premezzo,8.802215252277628,45.692838779711025
IT_012049,Cazzago Brabbia,8.735490028670577,45.79199966875845
IT_012050,Cislago,8.970906654314884,45.66066274698045
IT_012051,Cittiglio,8.669045815788728,45.8958601932775
IT_012052,Clivio,8.924077924894148,45.861026754999834
IT_012053,Cocquio-Trevisago,8.69323555837756,45.86114316265934
IT_012054,Comabbio,8.675914826739378,45.77159734383428
IT_012055,Comerio,8.742636592927932,45.83916811480397
IT_012056,Cremenaga,8.81016837559237,45.98874030936508
IT_012057,Crosio della Valle,8.766613733300858,45.76269789443899
IT_012058,Cuasso al Monte,8.883437348825016,45.89438735803313
IT_012059,Cugliate-Fabiasco,8.821134980191308,45.94239910712774
IT_012060,Cunardo,8.814527693931026,45.9398038933555
IT_012061,Curiglia con Monteviasco,8.806762461604697,46.061924712747384
IT_012062,Cuveglio,8.7345020760114,45.904716454525754
IT_012063,Cuvio,8.730617107022228,45.901998862905785
IT_012064,Daverio,8.774457578872372,45.776926795181
IT_012065,Dumenza,8.774990381615277,46.01857186849559
IT_012066,Duno,8.738210044481482,45.91132127619386
IT_012067,Fagnano Olona,8.87572647604652,45.66588319897304
IT_012068,Ferno,8.763653591293796,45.6127742400237
IT_012069,Ferrera di Varese,8.7922193593897,45.931716061835104
IT_012070,Gallarate,8.791918033681682,45.66067316076535
IT_012071,Galliate Lombardo,8.774843275798693,45.78168504455061
IT_012072,Gavirate,8.721403308647059,45.83990228137101
IT_012073,Gazzada Schianno,8.825702443583948,45.77999097588165
IT_012074,Gemonio,8.675087411747946,45.87979406498981
IT_012075,Gerenzano,9.007081748270453,45.63972100630525
IT_012076,Germignaga,8.726663685554804,45.994507784019
IT_012077,Golasecca,8.656216925956729,45.69910989742456
IT_012078,Gorla Maggiore,8.892083385002607,45.6635542012029
IT_012079,Gorla Minore,8.900559301071052,45.64458756203772
IT_012080,Gornate Olona,8.86052054623848,45.73720213283562
IT_012081,Grantola,8.772507309382254,45.94861116569193
IT_012082,Inarzo,8.729598960183369,45.7852347796807
IT_012083,Induno Olona,8.842227175242865,45.84292881074946
IT_012084,Ispra,8.622243774959102,45.81629314956966
IT_012085,Jerago con Orago,8.799492315058192,45.70453636662551
IT_012086,Lavena Ponte Tresa,8.854526508750295,45.965110303705224
IT_012087,Laveno-Mombello,8.618562984355632,45.90051756083866
IT_012088,Leggiuno,8.621925052670576,45.87190203665251
IT_012089,Lonate Ceppino,8.882775715185089,45.71019527713907
IT_012090,Lonate Pozzolo,8.76081157292339,45.5992338466716
IT_012091,Lozza,8.870406610260444,45.77206255472596
IT_012092,Luino,8.745585851569546,45.996856005455605
IT_012093,Luvinate,8.767115253832895,45.83554748445746
IT_012095,Malgesso,8.675089451006064,45.825078788018885
IT_012096,Malnate,8.88063117518236,45.795125345605804
IT_012097,Marchirolo,8.827586888722244,45.9465162026091
IT_012098,Marnate,8.903274247667412,45.62982633153128
IT_012099,Marzio,8.859705106147278,45.93526896516451
IT_012100,Masciago Primo,8.792960586829368,45.91994346025358
IT_012101,Mercallo,8.671689783402824,45.7493282862132
IT_012102,Mesenzana,8.764283647441383,45.95336671310786
IT_012103,Montegrino Valtravaglia,8.766308582180509,45.95659200728217
IT_012104,Monvalle,8.629747971579036,45.8603915221603
IT_012105,Morazzone,8.825508769745758,45.76314673531173
IT_012106,Mornago,8.75109109943398,45.73845719213882
IT_012107,Oggiona con Santo Stefano,8.81532201944365,45.69756023110168
IT_012108,Olgiate Olona,8.879552314437813,45.62252782168347
IT_012109,Origgio,9.019723648281241,45.599943818426624
IT_012110,Orino,8.712847994394116,45.884791909428046
IT_012113,Porto Ceresio,8.90023720463055,45.90103898139374
IT_012114,Porto Valtravaglia,8.687985636055732,45.95601692924452
IT_012115,Rancio Valcuvia,8.774023393723397,45.91582490249275
IT_012116,Ranco,8.57849936441981,45.793517289478935
IT_012117,Saltrio,8.922107451229508,45.87040931225734
IT_012118,Samarate,8.781757061556865,45.63036253495405
IT_012119,Saronno,9.036878971519911,45.628260574532206
IT_012120,Sesto Calende,8.639166883498579,45.72757190046739
IT_012121,Solbiate Arno,8.817761481091829,45.718871857579586
IT_012122,Solbiate Olona,8.885562786798102,45.64781969193226
IT_012123,Somma Lombardo,8.706355215719995,45.68152756927273
IT_012124,Sumirago,8.78613332942913,45.741016343140934
IT_012125,Taino,8.615763534844962,45.76360039560955
IT_012126,Ternate,8.701204602588895,45.78346602683043
IT_012127,Tradate,8.90889610042858,45.708944538292535
IT_012128,Travedona-Monate,8.679024832146702,45.803050308867384
IT_012129,Tronzano Lago Maggiore,8.738404564062334,46.09272189187465
IT_012130,Uboldo,9.00914338180301,45.613634093932795
IT_012131,Valganna,8.82020692941135,45.91632268882268
IT_012132,Varano Borghi,8.703079821120772,45.77895433176376
IT_012133,Varese,8.828458805026896,45.8191025161288
IT_012134,Vedano Olona,8.88259971225992,45.76685856194138
IT_012136,Venegono Inferiore,8.895394712794385,45.741180184019
IT_012137,Venegono Superiore,8.891553397016263,45.74901147676166
IT_012138,Vergiate,8.697275277181992,45.728328026257174
IT_012139,Viggiù,8.908696836154322,45.86624311229999
IT_012140,Vizzola Ticino,8.676848936218809,45.634313710475716
IT_012141,Sangiano,8.631481257569416,45.87712418003656
IT_012142,Maccagno con Pino e Veddasca,8.742280242614974,46.04449427000555
IT_012143,Cadrezzate con Osmate,8.649486330850658,45.79524799410739
IT_013003,Albavilla,9.185493826603244,45.79741315386504
IT_013004,Albese con Cassano,9.16266892097197,45.793346964853725
IT_013005,Albiolo,8.940521350565076,45.808812887612426
IT_013006,Alserio,9.197480488089976,45.77838205320824
IT_013007,Alzate Brianza,9.18673311363304,45.76725329902484
IT_013009,Anzano del Parco,9.192322156699896,45.76921326278659
IT_013010,Appiano Gentile,8.981983416505944,45.7325666143668
IT_013011,Argegno,9.127920282929326,45.94660827240387
IT_013012,Arosio,9.205033773699581,45.717607470529565
IT_013013,Asso,9.267757777488296,45.86002746650651
IT_013015,Barni,9.26475210459926,45.9170495228223
IT_013021,Bene Lario,9.177812771384868,46.030438117281506
IT_013022,Beregazzo con Figliaro,8.936617276805976,45.78128159075284
IT_013023,Binago,8.92162493999694,45.78305391418546
IT_013024,Bizzarone,8.946719167933571,45.83467983454223
IT_013025,Blessagno,9.09658039270917,45.95900756574517
IT_013026,Blevio,9.098100754141614,45.83929449380007
IT_013028,Bregnano,9.054218268041351,45.69628336409049
IT_013029,Brenna,9.186079567895963,45.73177902246554
IT_013030,Brienno,9.130805165983366,45.92275212261654
IT_013032,Brunate,9.099619087718358,45.8154951723711
IT_013034,Bulgarograsso,9.005191931322761,45.748545907429715
IT_013035,Cabiate,9.17261219202748,45.67251124253325
IT_013036,Cadorago,9.039071780132128,45.716034177161376
IT_013037,Caglio,9.243739736720888,45.87261124876886
IT_013040,Campione d'Italia,8.97508952204594,45.970461702891136
IT_013041,Cantù,9.133924722012525,45.73634783035042
IT_013042,Canzo,9.2713591925898875,45.85091992446204
IT_013043,Capiago Intimiano,9.122141335883201,45.76827400120061
IT_013044,Carate Urio,9.116792494612318,45.86943005892694
IT_013045,Carbonate,8.937998247132438,45.68246422895398
IT_013046,Carimate,9.113727201954632,45.700389721043194
IT_013047,Carlazzo,9.143300864394524,46.04047352530748
IT_013048,Carugo,9.19349761404742,45.7057123467565
IT_013052,Caslino d'Erba,9.241324464884569,45.84310882022881
IT_013053,Casnate con Bernate,9.072185363081479,45.76079968364122
IT_013055,Cassina Rizzardi,9.03778303538052,45.750202098720194
IT_013058,Castelmarte,9.240887470163555,45.832979832254125
IT_013059,Castelnuovo Bozzente,8.94963333330432,45.769701414744596
IT_013062,Cavargna,9.115306152153845,46.09130710535083
IT_013063,Cerano d'Intelvi,9.088957731387556,45.95036782649692
IT_013064,Cermenate,9.084951273192061,45.700540805882646
IT_013065,Cernobbio,9.06539609682115,45.83942407629676
IT_013068,Cirimido,9.010436940890152,45.702099100106594
IT_013071,Claino con Osteno,9.083179599562326,46.001662307447376
IT_013074,Colonno,9.156311751218764,45.95613087764147
IT_013075,Como,9.078093300660173,45.80857849516929
IT_013077,Corrido,9.141492873931771,46.046093738264396
IT_013083,Cremia,9.284935482950496,46.07835798170794
IT_013084,Cucciago,9.097167022565019,45.7402519955053
IT_013085,Cusino,9.156131057753111,46.078313041636605
IT_013087,Dizzasco,9.106552831945192,45.95250199388009
IT_013089,Domaso,9.3285176145279909,46.15505770019925
IT_013090,Dongo,9.280716169889603,46.129769538185975
IT_013092,Dosso del Liro,9.269367367204584,46.16402043256406
IT_013095,Erba,9.22513827148549,45.81251973022624
IT_013097,Eupilio,9.261354034751236,45.812594433887966
IT_013098,Faggeto Lario,9.157056445366907,45.86256825153535
IT_013099,Faloppio,8.96995809476141,45.80859061504331
IT_013100,Fenegrò,8.99755722243083,45.704316789131006
IT_013101,Figino Serenza,9.134247758164095,45.721059075347526
IT_013102,Fino Mornasco,9.052002491964858,45.74395070359147
IT_013106,Garzeno,9.247133593599635,46.13597020661452
IT_013107,Gera Lario,9.403521074282008,46.16384804753942
IT_013110,Grandate,9.057899823466185,45.77863291428028
IT_013111,Grandola ed Uniti,9.207174538260382,46.027821258936
IT_013113,Griante,9.232991030592343,45.996679519864095
IT_013114,Guanzate,9.013910641381266,45.724237351540765
IT_013118,Inverigo,9.219344173739561,45.73664456572487
IT_013119,Laglio,9.132535027681921,45.877200568490245
IT_013120,Laino,9.073584769634351,45.97836389061448
IT_013121,Lambrugo,9.238451392598234,45.75695613861624
IT_013123,Lasnigo,9.262334226205022,45.882573046755795
IT_013126,Lezzeno,9.197805980413493,45.94662521163259
IT_013128,Limido Comasco,8.981714384748718,45.68143693212357
IT_013129,Lipomo,9.121288633043529,45.79388583138586
IT_013130,Livo,9.298654854407612,46.16490501237129
IT_013131,Locate Varesino,8.931226544465096,45.687358394924786
IT_013133,Lomazzo,9.037636514685204,45.69092116075228
IT_013134,Longone al Segrino,9.251441700042557,45.816919472147184
IT_013135,Luisago,9.04067082328852,45.759100707558325
IT_013136,Lurago d'Erba,9.21913411556306,45.749307059473786
IT_013137,Lurago Marinone,8.985029805771385,45.700693869836805
IT_013138,Lurate Caccivio,8.993911290893351,45.76665851218383
IT_013139,Magreglio,9.261776321370597,45.91757579390744
IT_013143,Mariano Comense,9.184934609744369,45.68838500239455
IT_013144,Maslianico,9.044867988830756,45.84166147624633
IT_013145,Menaggio,9.232087694173492,46.02220591846951
IT_013147,Merone,9.246589160553826,45.78256175571096
IT_013152,Moltrasio,9.105237046069387,45.86396192469208
IT_013153,Monguzzo,9.233846259935751,45.779242129869
IT_013154,Montano Lucino,9.0330719646834865,45.7876260184917
IT_013155,Montemezzo,9.371794358857656,46.174018214498034
IT_013157,Montorfano,9.139641736796328,45.79083950230354
IT_013159,Mozzate,8.956697566170764,45.67505238385939
IT_013160,Musso,9.271669645049071,46.11126539874309
IT_013161,Nesso,9.157095221004328,45.909929673789684
IT_013163,Novedrate,9.12316211602351,45.6948189664202
IT_013165,Olgiate Comasco,8.965945131810713,45.78555671276702
IT_013169,Oltrona di San Mamette,8.97774501165118,45.75616902420247
IT_013170,Orsenigo,9.186201095835184,45.77787719989393
IT_013178,Peglio,9.287482140584428,46.16035060083277
IT_013183,Pianello del Lario,9.270558289537359,46.10812997871022
IT_013184,Pigra,9.130355467825872,45.955828732623935
IT_013185,Plesio,9.229614249594183,46.03267829127515
IT_013186,Pognana Lario,9.152287267589978,45.88332986072218
IT_013187,Ponna,9.090729725705977,45.998007155242306
IT_013188,Ponte Lambro,9.225886871337922,45.82622341974376
IT_013189,Porlezza,9.132623138047718,46.03768191353887
IT_013192,Proserpio,9.24334864118937,45.82597166244544
IT_013193,Pusiano,9.28000733794911,45.81220287684081
IT_013195,Rezzago,9.253000870753358,45.866234972110085
IT_013197,Rodero,8.90846086283711,45.82184550599965
IT_013199,Ronago,8.978784823878796,45.82889635154125
IT_013201,Rovellasca,9.048925431471732,45.667013424362636
IT_013202,Rovello Porro,9.040800709958758,45.6497592450432
IT_013203,Sala Comacina,9.160547790623639,45.95916229514068
IT_013204,San Bartolomeo Val Cavargna,9.148597303605586,46.08180180885327
IT_013206,San Fermo della Battaglia,9.046785738620414,45.8049628980293
IT_013207,San Nazzaro Val Cavargna,9.137553028158845,46.08347823670481
IT_013211,Schignano,9.100208474063736,45.928884894713725
IT_013212,Senna Comasco,9.10309528227382,45.769541432173554
IT_013216,Sorico,9.409366478378292,46.166563217435105
IT_013217,Sormano,9.247223999983646,45.87685349472434
IT_013218,Stazzona,9.274171716508064,46.13530603163892
IT_013222,Tavernerio,9.143191545801352,45.795676212039886
IT_013223,Torno,9.112676655759243,45.860697520142445
IT_013226,Trezzone,9.36635425260038,46.172941814974344
IT_013227,Turate,9.000226013733984,45.65526844378868
IT_013228,Uggiate-Trevano,8.962146495775503,45.81999920653029
IT_013229,Valbrona,9.290171358446951,45.873004546776464
IT_013232,Valmorea,8.941218404299203,45.81549559209638
IT_013233,Val Rezzo,9.105388957241383,46.07273208914086
IT_013234,Valsolda,9.056264648965765,46.028282168780336
IT_013236,Veleso,9.187802776193331,45.906552449198315
IT_013238,Veniano,8.981331795066533,45.71888237948868
IT_013239,Vercana,9.332729337169857,46.15833253421815
IT_013242,Vertemate con Minoprio,9.069538542166764,45.7256231205107
IT_013245,Villa Guardia,9.020350271865293,45.77417259576105
IT_013246,Zelbio,9.181937977172481,45.90606463635539
IT_013248,San Siro,9.267003368345044,46.06207356391881
IT_013249,Gravedona ed Uniti,9.28605761534421,46.141691985029176
IT_013250,Bellagio,9.256341063018262,45.9572686423118
IT_013251,Colverde,9.001218663383172,45.80517093716642
IT_013252,Tremezzina,9.19603686943272,45.97593146296619
IT_013253,Alta Valle Intelvi,9.040602423870382,45.97851809860794
IT_013254,Centro Valle Intelvi,9.083142668159812,45.95974172183629
IT_013255,Solbiate con Cagno,8.924879438749052,45.79472428807221
IT_014001,Albaredo per San Marco,9.592920871894327,46.10284965977993
IT_014002,Albosaggia,9.86398769896768,46.15600333028571
IT_014003,Andalo Valtellino,9.469695495922675,46.135558038139074
IT_014004,Aprica,10.148982779213307,46.154940304466784
IT_014005,Ardenno,9.657481194065197,46.17477204726658
IT_014006,Bema,9.565015835350918,46.10419948363659
IT_014007,Berbenno di Valtellina,9.732206352758421,46.17044543346789
IT_014008,Bianzone,10.113943436437841,46.1883513978387
IT_014009,Bormio,10.369294449976833,46.4669269414157
IT_014010,Buglio in Monte,9.682013906897469,46.178364661343394
IT_014011,Caiolo,9.812442984935355,46.14854371430822
IT_014012,Campodolcino,9.357964134887778,46.40191524848294
IT_014013,Caspoggio,9.855113789206296,46.26298461535638
IT_014014,Castello dell'Acqua,10.026388528053682,46.15529136253569
IT_014015,Castione Andevenno,9.80642179096438,46.173177350537046
IT_014016,Cedrasco,9.77212446225398,46.15313260053775
IT_014017,Cercino,9.50694373778328,46.14944570583358
IT_014018,Chiavenna,9.396087459151449,46.318345576316354
IT_014019,Chiesa in Valmalenco,9.854992715706125,46.265747407158955
IT_014020,Chiuro,9.99566088254192,46.17445993696735
IT_014021,Cino,9.488982649806134,46.15861983114502
IT_014022,Civo,9.571773230171496,46.151088625887155
IT_014023,Colorina,9.73316701003014,46.151465110125976
IT_014024,Cosio Valtellino,9.562259429859795,46.1293707844665
IT_014025,Dazio,9.606808069672658,46.163671006989084
IT_014026,Delebio,9.461130534586616,46.13677293705343
IT_014027,Dubino,9.441878532438404,46.16077383456808
IT_014028,Faedo Valtellino,9.906971679887036,46.158583071018725
IT_014029,Forcola,9.668812865159653,46.155855705347285
IT_014030,Fusine,9.747517452179867,46.149569277050695
IT_014031,Gerola Alta,9.554657866459175,46.061384303217935
IT_014032,Gordona,9.367645813912763,46.29114171795602
IT_014033,Grosio,10.277077841309808,46.30018798065359
IT_014034,Grosotto,10.261049871302374,46.28525037829919
IT_014035,Madesimo,9.366095652834002,46.444245014686025
IT_014036,Lanzada,9.867639590709173,46.266912167883326
IT_014037,Livigno,10.147288343424838,46.533124731629854
IT_014038,Lovero,10.227461895263943,46.23096325317061
IT_014039,Mantello,9.48559289823324,46.15093769933966
IT_014040,Mazzo di Valtellina,10.251479275354278,46.25357669032673
IT_014041,Mello,9.533570493507664,46.151855439632094
IT_014043,Mese,9.384862139787565,46.31423574052682
IT_014044,Montagna in Valtellina,9.8829286465762909,46.17965513666386
IT_014045,Morbegno,9.571534204231172,46.135075751802646
IT_014046,Novate Mezzola,9.452250083539797,46.217194572852044
IT_014047,Pedesina,9.554403173398745,46.08466849621864
IT_014048,Piantedo,9.42677709823307,46.1370129333489
IT_014049,Piateda,9.938423881593724,46.1606632501088
IT_014050,Piuro,9.42419401161854,46.328325108720065
IT_014051,Poggiridenti,9.932930246842565,46.17376755166527
IT_014052,Ponte in Valtellina,9.979923276173581,46.17249403080334
IT_014053,Postalesio,9.77322098274766,46.166827375758146
IT_014054,Prata Camportaccio,9.401205300922665,46.314255930357376
IT_014055,Rasura,9.554342097031732,46.102355972470576
IT_014056,Rogolo,9.485425146929112,46.137072195151774
IT_014057,Samolaco,9.406793611696951,46.251101337838904
IT_014058,San Giacomo Filippo,9.378235062927613,46.320007196475856
IT_014059,Sernio,10.204687852693334,46.222014746244255
IT_014060,Sondalo,10.328545068273847,46.32942566841595
IT_014061,Sondrio,9.877020419811918,46.17172046713873
IT_014062,Spriana,9.878062203523001,46.20335968419124
IT_014063,Talamona,9.610670139530644,46.137959979163746
IT_014064,Tartano,9.668890592174023,46.12876089744642
IT_014065,Teglio,10.044133804826176,46.16925729894082
IT_014066,Tirano,10.16725354196503,46.21563757574066
IT_014067,Torre di Santa Maria,9.854088615405605,46.230288064575895
IT_014068,Tovo di Sant'Agata,10.247450247233283,46.24642673983867
IT_014069,Traona,9.53890621207048,46.14505906726496
IT_014070,Tresivio,9.940498335520855,46.175417600897276
IT_014071,Valdidentro,10.314985978385925,46.48287275205701
IT_014072,Valdisotto,10.35764961564806,46.45173031602875
IT_014073,Valfurva,10.417726334667881,46.462222836246376
IT_014074,Val Masino,9.633577188278549,46.22271810774812
IT_014075,Verceia,9.455993972641052,46.200992089061145
IT_014076,Vervio,10.246755847727453,46.25805574624379
IT_014077,Villa di Chiavenna,9.485178642960364,46.328178671034905
IT_014078,Villa di Tirano,10.141758400370547,46.186500370921394
IT_015002,Abbiategrasso,8.91460127745739,45.39994094645655
IT_015005,Albairate,8.935471144356201,45.42149572437406
IT_015007,Arconate,8.847518485256112,45.54152324652118
IT_015009,Arese,9.074104101210333,45.54813316871507
IT_015010,Arluno,8.946563881236806,45.49774885883626
IT_015011,Assago,9.14199690926271,45.40568447114624
IT_015012,Bareggio,9.00123521505692,45.4825454760127
IT_015014,Basiano,9.471635347354898,45.57393593325014
IT_015015,Basiglio,9.178034037238298,45.351210649178576
IT_015016,Bellinzago Lombardo,9.443830083171013,45.54264958607895
IT_015019,Bernate Ticino,8.828876449405735,45.4723053526709
IT_015022,Besate,8.974635957547926,45.31319302745671
IT_015024,Binasco,9.102487912461847,45.32944915074421
IT_015026,Boffalora sopra Ticino,8.833584060909672,45.465444022761126
IT_015027,Bollate,9.12006072599075,45.54857390705187
IT_015032,Bresso,9.190251072564525,45.536090642454546
IT_015035,Bubbiano,9.013042252984901,45.324517221586994
IT_015036,Buccinasco,9.11844888160553,45.43090542603759
IT_015038,Buscate,8.814606471027021,45.545873869774546
IT_015040,Bussero,9.372121014235887,45.529704465688205
IT_015041,Busto Garolfo,8.884528694996309,45.5479799351772
IT_015042,Calvignasco,9.026785472793698,45.32475433884731
IT_015044,Cambiago,9.424093449956578,45.57188627895851
IT_015046,Canegrate,8.925587505464199,45.568740256681814
IT_015050,Carpiano,9.26960946000112,45.341637303800816
IT_015051,Carugate,9.3416131191183709,45.55031432159086
IT_015055,Casarile,9.104693305659707,45.32080844660828
IT_015058,Casorezzo,8.900512544563352,45.52115745956611
IT_015059,Cassano d'Adda,9.514616827941945,45.53310628419684
IT_015060,Cassina de' Pecchi,9.369263613326147,45.52013935633537
IT_015061,Cassinetta di Lugagnano,8.908782753674156,45.42265633529338
